SALE TYPE,SOLD DATE,PROPERTY TYPE,ADDRESS,CITY,STATE OR PROVINCE,ZIP OR POSTAL CODE,PRICE,BEDS,BATHS,LOCATION,SQUARE FEET,LOT SIZE,YEAR BUILT,DAYS ON MARKET,$/SQUARE FEET,HOA/MONTH,STATUS,NEXT OPEN HOUSE START TIME,NEXT OPEN HOUSE END TIME,URL (SEE http://www.redfin.com/buy-a-home/comparative-market-analysis FOR INFO ON PRICING),SOURCE,MLS#,FAVORITE,INTERESTED,LATITUDE,LONGITUDE
PAST SALE,August-29-2019,Single Family Residential,10726 Silkwood Dr,Houston,TX,77031,155000,4,2.0,Braeburn Valley West,1835,7512,1973,642,84,35,Sold,,,http://www.redfin.com/TX/Houston/10726-Silkwood-Dr-77031/home/30260371,HARMLS,28927450,N,Y,29.6634061,-95.5378802
PAST SALE,November-6-2019,Single Family Residential,9131 Tooley Dr,Houston,TX,77031,175000,3,2.5,Braeburn Valley West Sec 01,2234,6671,1971,573,78,29,Sold,,,http://www.redfin.com/TX/Houston/9131-Tooley-Dr-77031/home/30235347,HARMLS,29844984,N,Y,29.6679659,-95.5389052
PAST SALE,March-16-2018,Single Family Residential,8903 Tavistock Dr,Houston,TX,77031,229000,4,2.5,Glenshire Sec 08,2718,9339,1977,1173,84,42,Sold,,,http://www.redfin.com/TX/Houston/8903-Tavistock-Dr-77031/home/30343728,HARMLS,30438800,N,Y,29.6497856,-95.5387822
PAST SALE,February-10-2017,Single Family Residential,9010 Sterlingame Dr,Houston,TX,77031,190000,4,2.5,Glenshire Sec 06,2078,8469,1974,1572,91,36,Sold,,,http://www.redfin.com/TX/Houston/9010-Sterlingame-Dr-77031/home/30292637,HARMLS,36581782,N,Y,29.6513213,-95.5409144
PAST SALE,March-8-2019,Vacant Land,0 Brighton Ln,Houston,TX,77031,299000,,,Braeburn Gardens,,40000,,816,,,Sold,,,http://www.redfin.com/TX/Houston/0-Brighton-Ln-77031/home/148751739,HARMLS,67158350,N,Y,29.647527,-95.558685
PAST SALE,March-28-2017,Vacant Land,0 Bedford,Houston,TX,77031,319000,,,Braeburn Gardens,,,,1526,,,Sold,,,http://www.redfin.com/TX/HOUSTON/BEDFORD-ST-77031/home/29987292,HARMLS,10742009,N,Y,29.648759,-95.553193
PAST SALE,March-6-2019,Vacant Land,0 Windsor Ln,Houston,TX,77031,420000,,,Braeburn Gardens,,59699,,818,,,Sold,,,http://www.redfin.com/TX/HOUSTON/WINDSOR-LN-77031/home/147778108,HARMLS,73623129,N,Y,29.642958,-95.557743
PAST SALE,November-18-2019,Vacant Land,12405 Lightcliffe Dr,Houston,TX,77031,74990,,,Glenshire Sec 06,,15949,,561,,32,Sold,,,http://www.redfin.com/TX/Houston/12405-Lightcliffe-Dr-77031/home/167161647,HARMLS,78059359,N,Y,29.648318,-95.537114
PAST SALE,June-7-2019,Vacant Land,0 Altonbury Ln,Houston,TX,77031,250000,,,Braeburn Gardens,,28500,,725,,,Sold,,,http://www.redfin.com/TX/HOUSTON/ALTONBURY-LN-77031/home/148043528,HARMLS,32231652,N,Y,29.644631,-95.561758
PAST SALE,November-18-2019,Vacant Land,12409 Lightcliffe Dr,Houston,TX,77031,74990,,,Glenshire Sec 06,,11337,,561,,32,Sold,,,http://www.redfin.com/TX/Houston/12409-Lightcliffe-Dr-77031/home/144310753,HARMLS,9365736,N,Y,29.648317,-95.537114
PAST SALE,May-25-2017,Single Family Residential,9811 Halliford,Houston,TX,77031,159900,4,2.0,Glenshire,1654,,1972,1468,97,38,Sold,,,http://www.redfin.com/TX/Houston/9811-Halliford-Dr-77031/home/30252231,HARMLS,27278824,N,Y,29.6508853,-95.5524378
PAST SALE,June-20-2017,Single Family Residential,9302 Bankside Dr,Houston,TX,77031,175000,4,2.0,Braeburn Valley West Sec 02,2400,7700,1972,1442,73,27,Sold,,,http://www.redfin.com/TX/Houston/9302-Bankside-Dr-77031/home/30260019,HARMLS,86206487,N,Y,29.66228,-95.5410784
PAST SALE,January-4-2017,Single Family Residential,9330 Portal Dr,Houston,TX,77031,174500,4,2.0,Braeburn Valley West,1994,7150,1972,1609,88,28,Sold,,,http://www.redfin.com/TX/Houston/9330-Portal-Dr-77031/home/30260038,HARMLS,84870744,N,Y,29.6600147,-95.541837
PAST SALE,,Single Family Residential,12411 Millbanks Dr,Houston,TX,77031,,3,2.0,,1836,7800,1973,,,,Sold,,,http://www.redfin.com/TX/Houston/12411-Millbanks-Dr-77031/home/30272284,HARMLS,,N,Y,29.6443622,-95.5454661
PAST SALE,,Single Family Residential,12310 Wrenthorpe Dr,Houston,TX,77031,,4,2.5,,2228,9000,1975,,,,Sold,,,http://www.redfin.com/TX/Houston/12310-Wrenthorpe-Dr-77031/home/30293275,HARMLS,,N,Y,29.6488897,-95.5424111
PAST SALE,,Single Family Residential,8743 Keegans Forest Ln,Houston,TX,77031,,4,3.0,,1820,4050,1999,,,,Sold,,,http://www.redfin.com/TX/Houston/8743-Keegans-Forest-Ln-77031/home/30693360,HARMLS,,N,Y,29.6607081,-95.5311562
PAST SALE,March-28-2017,Vacant Land,0 Bedford,Houston,TX,77031,319000,,,Braeburn Gardens,,,,1526,,,Sold,,,http://www.redfin.com/TX/HOUSTON/BEDFORD-ST-77031/home/29987294,HARMLS,62242816,N,Y,29.648484,-95.55318
PAST SALE,April-3-2019,Vacant Land,0 Brighton Ln Ln,Houston,TX,77031,164000,,,An Thanh Nguyen Dev,,20000,,790,,,Sold,,,http://www.redfin.com/TX/HOUSTON/BRIGHTON-LN-77031/home/147807317,HARMLS,60022773,N,Y,29.647781,-95.559637
PAST SALE,October-4-2018,Vacant Land,0 Gainsborough,Houston,TX,77031,115000,,,Glenshire,,35014,,971,,,Sold,,,http://www.redfin.com/TX/Houston/Gainsborough-Dr-77031/home/144311241,HARMLS,12263616,N,Y,29.64703,-95.552205
PAST SALE,December-10-2018,Single Family Residential,9406 Rentur Dr,Houston,TX,77031,172521,4,2.0,Braeburn Valley West Sec 01,2262,6930,1969,904,76,,Sold,,,http://www.redfin.com/TX/Houston/9406-Rentur-Dr-77031/home/30235064,HARMLS,57083834,N,Y,29.6638223,-95.5430467
PAST SALE,June-24-2019,Single Family Residential,9330 Rentur Dr,Houston,TX,77031,186500,3,2.0,Braeburn Valley West Sec 01,1684,7150,1969,708,111,33,Sold,,,http://www.redfin.com/TX/Houston/9330-Rentur-Dr-77031/home/30235066,HARMLS,20679771,N,Y,29.6638394,-95.5426366
PAST SALE,April-6-2020,Single Family Residential,9207 Tooley Dr,Houston,TX,77031,211000,4,2.0,Braeburn Valley West Sec 01,1978,9934,1971,421,107,30,Sold,,,http://www.redfin.com/TX/Houston/9207-Tooley-Dr-77031/home/30235349,HARMLS,44242894,N,Y,29.6678065,-95.5394793
PAST SALE,January-17-2020,Single Family Residential,12107 Chessington Dr,Houston,TX,77031,165990,4,2.0,Glenshire Sec 01,1940,10207,1971,501,86,30,Sold,,,http://www.redfin.com/TX/Houston/12107-Chessington-Dr-77031/home/30252687,HARMLS,74957785,N,Y,29.6481467,-95.5466964
PAST SALE,June-24-2019,Single Family Residential,11907 N Hanworth Dr,Houston,TX,77031,197569,3,2.0,Glenshire,1687,7800,1971,708,117,38,Sold,,,http://www.redfin.com/TX/Houston/11907-N-Hanworth-Dr-77031/home/30252810,HARMLS,79536368,N,Y,29.6493493,-95.5508589
PAST SALE,September-10-2020,Single Family Residential,11707 N Petersham Dr,Houston,TX,77031,170000,3,2.0,Glenshire Sec 01,1643,7713,1971,264,103,38,Sold,,,http://www.redfin.com/TX/Houston/11707-N-Petersham-Dr-77031/home/30252832,HARMLS,28286910,N,Y,29.6501479,-95.549567
PAST SALE,April-1-2019,Single Family Residential,9218 Petersham Dr,Houston,TX,77031,215000,4,2.5,Glenshire,2490,8400,1973,792,86,40,Sold,,,http://www.redfin.com/TX/Houston/9218-Petersham-Dr-77031/home/30259562,HARMLS,72714957,N,Y,29.6538104,-95.5456096
PAST SALE,September-23-2019,Single Family Residential,11915 Manorgate Dr,Houston,TX,77031,218900,4,2.0,Glenshire Sec 02,2122,9360,1971,617,103,40,Sold,,,http://www.redfin.com/TX/Houston/11915-Manorgate-Dr-77031/home/30259598,HARMLS,9723924,N,Y,29.6519939,-95.5453431
PAST SALE,August-31-2020,Single Family Residential,11923 Manorgate Dr,Houston,TX,77031,239000,4,2.5,Glenshire,2376,9600,1972,274,101,41,Sold,,,http://www.redfin.com/TX/Houston/11923-Manorgate-Dr-77031/home/30259600,HARMLS,45130756,N,Y,29.6516917,-95.545015
PAST SALE,June-26-2019,Single Family Residential,9103 Longstaff Dr,Houston,TX,77031,249999,3,2.0,Glenshire,2359,11550,1972,706,106,40,Sold,,,http://www.redfin.com/TX/Houston/9103-Longstaff-Dr-77031/home/30259628,HARMLS,16970564,N,Y,29.6538548,-95.5429237
PAST SALE,June-21-2019,Single Family Residential,9322 Meaux Dr,Houston,TX,77031,210000,3,2.0,Braeburn Valley West Sec 02,2026,7150,1972,711,104,29,Sold,,,http://www.redfin.com/TX/Houston/9322-Meaux-Dr-77031/home/30260325,HARMLS,47005969,N,Y,29.6630894,-95.5422266
PAST SALE,October-26-2018,Single Family Residential,11903 Chadwell Dr,Houston,TX,77031,229999,5,2.5,Glenshire Sec 02,2701,8710,1972,949,85,35,Sold,,,http://www.redfin.com/TX/Houston/11903-Chadwell-Dr-77031/home/30260424,HARMLS,26251880,N,Y,29.6547407,-95.5411605
PAST SALE,April-9-2018,Single Family Residential,9427 Portal Dr,Houston,TX,77031,169000,3,2.0,Braeburn Valley West Sec 02,1692,7150,1972,1149,100,23,Sold,,,http://www.redfin.com/TX/Houston/9427-Portal-Dr-77031/home/30260524,HARMLS,44968006,N,Y,29.6594979,-95.5439488
PAST SALE,December-31-2018,Single Family Residential,9439 Sanford Rd,Houston,TX,77031,189900,3,2.0,Braeburn Valley West Sec 02,1913,12218,1971,883,99,29,Sold,,,http://www.redfin.com/TX/Houston/9439-Sanford-Rd-77031/home/30260562,HARMLS,6492956,N,Y,29.6587051,-95.5445639
PAST SALE,April-18-2019,Single Family Residential,9327 Benning Dr,Houston,TX,77031,174900,4,2.0,Braeburn Valley West Sec 02,1859,7370,1971,775,94,29,Sold,,,http://www.redfin.com/TX/Houston/9327-Benning-Dr-77031/home/30260734,HARMLS,21074678,N,Y,29.658016,-95.5416115
PAST SALE,July-10-2020,Single Family Residential,12226 Chessington Dr,Houston,TX,77031,196900,4,2.5,Glenshire,2024,7705,1972,326,97,35,Sold,,,http://www.redfin.com/TX/Houston/12226-Chessington-Dr-77031/home/30272365,HARMLS,24298682,N,Y,29.6461023,-95.5470244
PAST SALE,September-25-2020,Single Family Residential,12319 Welland Dr,Houston,TX,77031,183000,3,2.0,Glenshire Sec 03,1689,8033,1971,249,108,39,Sold,,,http://www.redfin.com/TX/Houston/12319-Welland-Dr-77031/home/30272377,HARMLS,50958078,N,Y,29.646433,-95.5455891
PAST SALE,August-24-2018,Single Family Residential,12202 Wrenthorpe Dr,Houston,TX,77031,178373,4,2.5,Glenshire Sec 06,2228,12038,1973,1012,80,38,Sold,,,http://www.redfin.com/TX/Houston/12202-Wrenthorpe-Dr-77031/home/30292612,HARMLS,29367199,N,Y,29.6499385,-95.5432312
PAST SALE,May-24-2019,Single Family Residential,12010 Manorgate Dr,Houston,TX,77031,185000,3,2.0,Glenshire,1947,8400,1977,739,95,40,Sold,,,http://www.redfin.com/TX/Houston/12010-Manorgate-Dr-77031/home/30292620,HARMLS,60772882,N,Y,29.6508897,-95.544769
PAST SALE,June-17-2020,Single Family Residential,9014 Sterlingame Dr,Houston,TX,77031,249900,4,2.5,Glenshire,2239,8463,1975,349,112,38,Sold,,,http://www.redfin.com/TX/Houston/9014-Sterlingame-Dr-77031/home/30292640,HARMLS,47076564,N,Y,29.6512676,-95.5411195
PAST SALE,February-22-2019,Single Family Residential,9118 Sterlingame Dr,Houston,TX,77031,195000,4,2.0,Glenshire,1951,8900,1975,830,100,42,Sold,,,http://www.redfin.com/TX/Houston/9118-Sterlingame-Dr-77031/home/30292663,HARMLS,18492324,N,Y,29.6503921,-95.5426366
PAST SALE,June-28-2019,Single Family Residential,9014 Abbeydale Dr,Houston,TX,77031,203800,4,2.0,Glenshire Sec 06,2037,8657,1975,704,100,40,Sold,,,http://www.redfin.com/TX/Houston/9014-Abbeydale-Dr-77031/home/30293265,HARMLS,34993538,N,Y,29.650469,-95.5407914
PAST SALE,January-25-2019,Single Family Residential,9727 W Airport Blvd,Houston,TX,77031,205000,4,2.0,Glenshire,2741,8805,1977,858,75,38,Sold,,,http://www.redfin.com/TX/Houston/9727-W-Airport-Blvd-77031/home/30345710,HARMLS,23015669,N,Y,29.6409211,-95.5516791
PAST SALE,February-11-2019,Single Family Residential,9527 W Airport Blvd,Houston,TX,77031,185000,4,2.0,Glenshire Sec 09,2300,8448,1979,841,80,38,Sold,,,http://www.redfin.com/TX/Houston/9527-W-Airport-Blvd-77031/home/30345746,HARMLS,28301736,N,Y,29.6410043,-95.5453636
PAST SALE,September-14-2020,Condo/Co-op,9200 W Bellfort St #47,Houston,TX,77031,69999,1,1.5,Bellfort Place Condo,1026,253290,1979,260,68,206,Sold,,,http://www.redfin.com/TX/Houston/9200-W-Bellfort-Ave-77031/unit-47/home/30397191,HARMLS,27237706,N,Y,29.6564828,-95.5405044
PAST SALE,July-23-2019,Condo/Co-op,9200 W Bellfort St #94,Houston,TX,77031,63000,2,1.5,Bellfort Place Condo,1152,253290,1979,679,55,217,Sold,,,http://www.redfin.com/TX/Houston/9200-W-Bellfort-Ave-77031/unit-94/home/30397245,HARMLS,91119383,N,Y,29.6564828,-95.5405044
PAST SALE,July-15-2020,Single Family Residential,9022 Willow Meadow Dr,Houston,TX,77031,159900,3,2.0,Braeburn Valley West Sec 01,1712,6811,1971,321,93,31,Sold,,,http://www.redfin.com/TX/Houston/9022-Willow-Meadow-Dr-77031/home/30235206,HARMLS,92492125,N,Y,29.6662904,-95.5363426
PAST SALE,November-4-2019,Single Family Residential,8914 Willow Meadow Dr,Houston,TX,77031,170000,3,2.0,Braeburn Valley West,1836,,1970,575,93,,Sold,,,http://www.redfin.com/TX/Houston/8914-Willow-Meadow-Dr-77031/home/30235219,HARMLS,68398627,N,Y,29.6661839,-95.5340261
PAST SALE,April-24-2020,Single Family Residential,9127 Twin Hills Dr,Houston,TX,77031,198500,4,2.0,Braeburn Valley West,1867,9750,1971,403,106,29,Sold,,,http://www.redfin.com/TX/Houston/9127-Twin-Hills-Dr-77031/home/30235264,HARMLS,5166453,N,Y,29.6667561,-95.5387002
PAST SALE,March-4-2019,Single Family Residential,10807 Silkwood Dr,Houston,TX,77031,150000,4,2.5,Braeburn Valley West Sec 02,1987,7280,1977,820,75,29,Sold,,,http://www.redfin.com/TX/Houston/10807-Silkwood-Dr-77031/home/30260151,HARMLS,74725931,N,Y,29.6627497,-95.5373881
PAST SALE,July-11-2019,Single Family Residential,9111 Bankside Dr,Houston,TX,77031,187900,3,2.0,Braeburn Valley West,1814,7467,1971,691,104,32,Sold,,,http://www.redfin.com/TX/Houston/9111-Bankside-Dr-77031/home/30260295,HARMLS,74241208,N,Y,29.6626887,-95.5383107
PAST SALE,July-26-2018,Condo/Co-op,10630 Westbrae Pkwy #508,Houston,TX,77031,48000,2,2.0,Westbrae Park Place Condo,982,101187,1985,1041,49,217,Sold,,,http://www.redfin.com/TX/Houston/10630-Westbrae-Pkwy-77031/unit-508/home/30595046,HARMLS,72131580,N,Y,29.6630577,-95.5294548
PAST SALE,August-30-2019,Single Family Residential,10918 Westbrae Meadows Dr,Houston,TX,77031,145000,4,3.0,Westbrae Village,1660,4050,1999,641,87,67,Sold,,,http://www.redfin.com/TX/Houston/10918-Westbrae-Meadows-Dr-77031/home/30693323,HARMLS,21189298,N,Y,29.6613688,-95.5304592
PAST SALE,September-13-2017,Single Family Residential,12107 Poulson Dr,Houston,TX,77031,180000,3,2.0,Glenshire,1700,3907,1977,1357,106,58,Sold,,,http://www.redfin.com/TX/Houston/12107-Poulson-Dr-77031/home/30285362,HARMLS,68805643,N,Y,29.6534803,-95.5378392
PAST SALE,March-6-2019,Single Family Residential,12415 Rockampton Dr,Houston,TX,77031,189000,4,2.0,Glenshire,2266,9336,1976,818,83,38,Sold,,,http://www.redfin.com/TX/Houston/12415-Rockampton-Dr-77031/home/30293159,HARMLS,81968675,N,Y,29.6476554,-95.5379212
PAST SALE,April-26-2019,Single Family Residential,8715 Covent Garden St,Houston,TX,77031,154900,3,4.5,Glenshire Sec 08,2181,8880,1977,767,71,40,Sold,,,http://www.redfin.com/TX/Houston/8715-Covent-Garden-St-77031/home/30343529,HARMLS,50494688,N,Y,29.6522504,-95.5375727
PAST SALE,July-29-2016,Single Family Residential,9322 Willow Meadow Dr,Houston,TX,77031,185000,4,2.0,Braeburn Valley West,2171,9750,1969,1768,85,25,Sold,,,http://www.redfin.com/TX/Houston/9322-Willow-Meadow-Dr-77031/home/30235286,HARMLS,99223547,N,Y,29.6661378,-95.5421651
PAST SALE,November-2-2016,Single Family Residential,9427 Benning Dr,Houston,TX,77031,169900,4,2.0,Braeburn Valley West Sec 02,1796,7150,1973,1672,95,395,Sold,,,http://www.redfin.com/TX/Houston/9427-Benning-Dr-77031/home/30260539,HARMLS,67006347,N,Y,29.6579653,-95.5439078
PAST SALE,June-23-2016,Single Family Residential,11807 Dover St,Houston,TX,77031,999500,4,3.0,Braeburn Gardens,2766,125000,1960,1804,361,,Sold,,,http://www.redfin.com/TX/Houston/11807-Dover-St-77031/home/29987259,HARMLS,42513905,N,Y,29.6501672,-95.5550422
PAST SALE,,Single Family Residential,12203 Chartwell Dr,Houston,TX,77031,,4,2.0,,2009,8550,1973,,,,Sold,,,http://www.redfin.com/TX/Houston/12203-Chartwell-Dr-77031/home/30272461,HARMLS,,N,Y,29.6468529,-95.5485008
PAST SALE,March-28-2019,Single Family Residential,10307 Brighton Ln,Houston,TX,77031,750000,3,,Braeburn Gardens,1456,142441,1964,796,515,,Sold,,,http://www.redfin.com/TX/Houston/10307-Brighton-Ln-77031/home/29987052,HARMLS,43823847,N,Y,29.6465293,-95.5597441
PAST SALE,November-22-2019,Townhouse,10222 Altonbury Ln,Houston,TX,77031,280000,4,,Braeburn Gardens,1924,28500,1959,557,146,,Sold,,,http://www.redfin.com/TX/Houston/10222-Altonbury-Ln-77031/home/29987063,HARMLS,87488434,N,Y,29.6454229,-95.5589592
PAST SALE,June-7-2019,Single Family Residential,10055 Ruffino Rd,Houston,TX,77031,650000,3,2.5,Braeburn Gardens,2488,51236,2009,725,261,,Sold,,,http://www.redfin.com/TX/Houston/10055-Ruffino-Rd-77031/home/29987253,HARMLS,3229887,N,Y,29.6557252,-95.5543244
PAST SALE,May-2-2018,Single Family Residential,9810 Halliford Dr,Houston,TX,77031,189000,3,2.0,Glenshire Sec 01,1687,9829,1972,1126,112,38,Sold,,,http://www.redfin.com/TX/Houston/9810-Halliford-Dr-77031/home/30252257,HARMLS,9785538,N,Y,29.6513035,-95.5521507
PAST SALE,December-6-2019,Single Family Residential,9638 Ravensworth Dr,Houston,TX,77031,220000,4,2.0,Glenshire Sec 07,2142,9450,1975,543,103,38,Sold,,,http://www.redfin.com/TX/Houston/9638-Ravensworth-Dr-77031/home/30294449,HARMLS,60042677,N,Y,29.6449244,-95.5482137
PAST SALE,July-19-2019,Single Family Residential,9635 W Airport Blvd,Houston,TX,77031,149000,3,2.0,Glenshire Sec 09,1775,8580,1977,683,84,38,Sold,,,http://www.redfin.com/TX/Houston/9635-W-Airport-Blvd-77031/home/30345718,HARMLS,95280847,N,Y,29.6409679,-95.5500181
PAST SALE,August-30-2019,Single Family Residential,10305 Dorrance Rd,Houston,TX,77031,359900,5,3.0,An Thanh Nguyen Development,2461,20000,2005,641,146,,Sold,,,http://www.redfin.com/TX/Houston/10305-Dorrance-Rd-77031/home/29267513,HARMLS,85986676,N,Y,29.6477993,-95.5593283
PAST SALE,July-6-2020,Single Family Residential,10308 Brighton Ln,Houston,TX,77031,399000,4,3.0,An Thanh Nguyen Dev,2606,20000,2004,330,153,,Sold,,,http://www.redfin.com/TX/Houston/10308-Brighton-Ln-77031/home/29267514,HARMLS,13213782,N,Y,29.6472812,-95.5593078
PAST SALE,November-20-2020,Single Family Residential,5442 Merlins Trl,Missouri City,TX,77459,469987,5,4.5,Avalon at Sienna Plantation,3315,8734,2020,193,142,102,Sold,,,http://www.redfin.com/TX/Missouri-City/5442-Merlins-Trl-77459/home/173087189,HARMLS,18486923,N,Y,29.658064,-95.542844
PAST SALE,June-11-2020,Single Family Residential,10151 Altonbury Ln,Houston,TX,77031,575000,3,1.5,Braeburn Gardens,5320,28500,2003,355,108,,Sold,,,http://www.redfin.com/TX/Houston/10151-Altonbury-Ln-77031/home/170310231,HARMLS,48634078,N,Y,29.6445656,-95.557339
PAST SALE,November-16-2020,Single Family Residential,13515 Wembley Heights Dr,Houston,TX,77049,255490,5,3.0,Imperial Forest,2688,,2020,197,95,30,Sold,,,http://www.redfin.com/TX/Houston/13515-Wembley-Dr-77031/home/173673668,HARMLS,91884312,N,Y,29.6437282,-95.5467129
PAST SALE,January-22-2021,Single Family Residential,10103 Brighton Ln,Houston,TX,77031,329000,4,3.0,Braeburn Gardens,2418,17750,1961,130,136,,Sold,,,http://www.redfin.com/TX/Houston/10103-Brighton-Ln-77031/home/29987047,HARMLS,36480795,N,Y,29.6466867,-95.5557189
PAST SALE,January-14-2021,Single Family Residential,10507 Silkwood Dr,Houston,TX,77031,238000,4,2.0,Braeburn Valley West Sec 01,2512,7700,1969,138,95,,Sold,,,http://www.redfin.com/TX/Houston/10507-Silkwood-Dr-77031/home/30235017,HARMLS,48916769,N,Y,29.6656313,-95.5369986
PAST SALE,April-30-2021,Single Family Residential,9131 Twin Hills Dr,Houston,TX,77031,170000,3,2.0,Braeburn Valley West Sec 01,1772,9750,1971,32,96,29,Sold,,,http://www.redfin.com/TX/Houston/9131-Twin-Hills-Dr-77031/home/30235263,HARMLS,47893815,N,Y,29.6667476,-95.5389052
PAST SALE,December-28-2020,Single Family Residential,9314 Willow Meadow Dr,Houston,TX,77031,198900,3,2.0,Braeburn Valley West Sec 01,1716,9750,1969,155,116,31,Sold,,,http://www.redfin.com/TX/Houston/9314-Willow-Meadow-Dr-77031/home/30235284,HARMLS,49338637,N,Y,29.6661549,-95.541755
PAST SALE,March-19-2021,Single Family Residential,10310 Gustine Ct,Houston,TX,77031,187500,3,2.0,Braeburn Valley W,1811,13606,1971,74,104,31,Sold,,,http://www.redfin.com/TX/Houston/10310-Gustine-Ct-77031/home/30235380,HARMLS,96823561,N,Y,29.6678555,-95.5372241
PAST SALE,April-27-2021,Single Family Residential,11910 N Hanworth Dr,Houston,TX,77031,189900,3,2.0,Glenshire Sec 01,1818,7710,1972,35,104,38,Sold,,,http://www.redfin.com/TX/Houston/11910-N-Hanworth-Dr-77031/home/30252921,HARMLS,16522608,N,Y,29.6491482,-95.551351
PAST SALE,November-4-2019,Single Family Residential,11922 Manorgate Dr,Houston,TX,77031,230000,4,2.5,Glenshire,2187,8400,1976,575,105,39,Sold,,,http://www.redfin.com/TX/Houston/11922-Manorgate-Dr-77031/home/30259509,HARMLS,96067719,N,Y,29.6514039,-95.5454251
PAST SALE,August-30-2019,Single Family Residential,9311 Longstaff Dr,Houston,TX,77031,215000,4,2.5,Glenshire,2228,9790,1972,641,96,42,Sold,,,http://www.redfin.com/TX/Houston/9311-Longstaff-Dr-77031/home/30259521,HARMLS,24643522,N,Y,29.6526411,-95.544974
PAST SALE,December-31-2020,Single Family Residential,9406 Petersham Dr,Houston,TX,77031,192500,4,2.5,Glenshire Sec 02,2402,11733,1976,152,80,42,Sold,,,http://www.redfin.com/TX/Houston/9406-Petersham-Dr-77031/home/30259572,HARMLS,11379169,N,Y,29.6528611,-95.5472705
PAST SALE,April-22-2021,Single Family Residential,9018 Haverstock Dr,Houston,TX,77031,275000,5,2.0,Glenshire Sec 02,2361,9862,1973,40,116,42,Sold,,,http://www.redfin.com/TX/Houston/9018-Haverstock-Dr-77031/home/30259638,HARMLS,25960400,N,Y,29.6534744,-95.5423086
PAST SALE,January-19-2018,Single Family Residential,11806 Stanwood Dr,Houston,TX,77031,205000,4,2.5,Glenshire Sec 02,2461,8400,1972,1229,83,38,Sold,,,http://www.redfin.com/TX/Houston/11806-Stanwood-Dr-77031/home/30259613,HARMLS,10077210,N,Y,29.6536076,-95.5445229
PAST SALE,May-4-2021,Single Family Residential,9430 Portal Dr,Houston,TX,77031,225000,3,2.0,Braeburn Valley West,1885,7150,1972,28,119,31,Sold,,,http://www.redfin.com/TX/Houston/9430-Portal-Dr-77031/home/30259998,HARMLS,66874048,N,Y,29.6600308,-95.5441539
PAST SALE,April-5-2019,Single Family Residential,9411 Claridge Dr,Houston,TX,77031,249900,4,2.0,Braeburn Valley West,2496,7150,1972,788,100,19,Sold,,,http://www.redfin.com/TX/Houston/9411-Claridge-Dr-77031/home/30260085,HARMLS,44465365,N,Y,29.6603009,-95.5430877
PAST SALE,November-16-2018,Single Family Residential,10919 Silkwood Dr,Houston,TX,77031,171900,3,2.0,Braeburn Valley West Sec 02,1730,7684,1972,928,99,29,Sold,,,http://www.redfin.com/TX/Houston/10919-Silkwood-Dr-77031/home/30260171,HARMLS,60781526,N,Y,29.6607209,-95.5373471
PAST SALE,April-21-2021,Single Family Residential,10931 Silkwood Dr,Houston,TX,77031,230000,4,2.0,Braeburn Valley West Sec 02,1890,7638,1972,41,122,31,Sold,,,http://www.redfin.com/TX/Houston/10931-Silkwood-Dr-77031/home/30260176,HARMLS,60289283,N,Y,29.6601759,-95.5374292
PAST SALE,April-29-2020,Single Family Residential,9235 Bankside Dr,Houston,TX,77031,240000,4,2.0,Braeburn Valley West Sec 02,2729,7150,1973,398,88,31,Sold,,,http://www.redfin.com/TX/Houston/9235-Bankside-Dr-77031/home/30260389,HARMLS,68223127,N,Y,29.6618846,-95.5402789
PAST SALE,April-21-2021,Single Family Residential,9431 Benning Dr,Houston,TX,77031,225000,4,2.0,Braeburn Valley West Sec 02,1893,7150,1972,41,119,38,Sold,,,http://www.redfin.com/TX/Houston/9431-Benning-Dr-77031/home/30260540,HARMLS,31592809,N,Y,29.6580019,-95.5441129
PAST SALE,February-26-2021,Single Family Residential,9410 Sanford Rd,Houston,TX,77031,209900,4,2.0,Braeburn Valley West Sec 02,1945,7150,1971,95,108,25,Sold,,,http://www.redfin.com/TX/Houston/9410-Sanford-Rd-77031/home/30260571,HARMLS,11406250,N,Y,29.6592179,-95.5430877
PAST SALE,September-20-2019,Single Family Residential,9403 Benning Dr,Houston,TX,77031,192500,4,2.0,Braeburn Valley West,1919,7700,1973,620,100,29,Sold,,,http://www.redfin.com/TX/Houston/9403-Benning-Dr-77031/home/30260537,HARMLS,83009027,N,Y,29.657995,-95.5426571
PAST SALE,October-31-2019,Single Family Residential,12407 Millbanks Dr,Houston,TX,77031,196000,3,2.0,Glenshire Sec 03,1718,7800,1973,579,114,40,Sold,,,http://www.redfin.com/TX/Houston/12407-Millbanks-Dr-77031/home/30272285,HARMLS,93897875,N,Y,29.6444456,-95.5456301
PAST SALE,October-17-2018,Single Family Residential,12215 Wembley Dr,Houston,TX,77031,189999,3,2.0,Glenshire 3,1669,7377,1971,958,114,38,Sold,,,http://www.redfin.com/TX/Houston/12215-Wembley-Dr-77031/home/30272289,HARMLS,6775297,N,Y,29.6458268,-95.544974
PAST SALE,October-11-2019,Single Family Residential,12514 Chessington Dr,Houston,TX,77031,175000,3,2.0,Glenshire,1584,,1973,599,110,38,Sold,,,http://www.redfin.com/TX/Houston/12514-Chessington-Dr-77031/home/30285175,HARMLS,18565864,N,Y,29.6440484,-95.5432517
PAST SALE,January-6-2021,Townhouse,11915 Gatlinburg Dr,Houston,TX,77031,165500,3,2.0,Glenshire Patio Homes,1450,5097,1977,146,114,63,Sold,,,http://www.redfin.com/TX/Houston/11915-Gatlinburg-Dr-77031/home/30285300,HARMLS,91240394,N,Y,29.6547387,-95.5379622
PAST SALE,July-20-2020,Single Family Residential,12110 Manorgate Dr,Houston,TX,77031,235000,4,2.0,Glenshire Sec 06,2164,8400,1975,316,109,34,Sold,,,http://www.redfin.com/TX/Houston/12110-Manorgate-Dr-77031/home/30292616,HARMLS,52497475,N,Y,29.6503756,-95.5441129
PAST SALE,March-26-2021,Single Family Residential,12510 Wrenthorpe Dr,Houston,TX,77031,249000,4,2.5,Glenshire Sec 06,2476,10492,1976,67,101,,Sold,,,http://www.redfin.com/TX/Houston/12510-Wrenthorpe-Dr-77031/home/30293171,HARMLS,18029716,N,Y,29.6466872,-95.5384132
PAST SALE,May-16-2019,Single Family Residential,12426 Chadwell Dr,Houston,TX,77031,201900,4,2.0,Glenshire Sec 06,2111,8784,1974,747,96,40,Sold,,,http://www.redfin.com/TX/Houston/12426-Chadwell-Dr-77031/home/30293235,HARMLS,71651272,N,Y,29.64865,-95.539512
PAST SALE,February-8-2021,Single Family Residential,9574 Ravensworth Dr,Houston,TX,77031,184900,4,2.0,Glenshire Sec 07,2029,10500,1975,113,91,38,Sold,,,http://www.redfin.com/TX/Houston/9574-Ravensworth-Dr-77031/home/30294349,HARMLS,16767328,N,Y,29.6438281,-95.5463683
PAST SALE,March-23-2021,Single Family Residential,9618 Ravensworth Dr,Houston,TX,77031,215000,3,2.0,Glenshire Sec 07,2447,9450,1975,70,88,38,Sold,,,http://www.redfin.com/TX/Houston/9618-Ravensworth-Dr-77031/home/30294444,HARMLS,78136217,N,Y,29.6444154,-95.5474345
PAST SALE,May-17-2021,Single Family Residential,9730 Harrowgate Dr,Houston,TX,77031,225000,4,2.0,Glenshire Sec 07,1950,8568,1975,15,115,38,Sold,,,http://www.redfin.com/TX/Houston/9730-Harrowgate-Dr-77031/home/30294623,HARMLS,85122343,N,Y,29.6438762,-95.5516996
PAST SALE,February-7-2019,Single Family Residential,9738 Beversbrook Dr,Houston,TX,77031,215000,4,2.0,Glenshire Sec 07,2088,9671,1974,845,103,38,Sold,,,http://www.redfin.com/TX/Houston/9738-Beversbrook-Dr-77031/home/30294682,HARMLS,67713377,N,Y,29.6456345,-95.5517406
PAST SALE,December-21-2018,Single Family Residential,9607 W Airport Blvd,Houston,TX,77031,184000,3,2.0,Glenshire,1822,8580,1977,893,101,,Sold,,,http://www.redfin.com/TX/Houston/9607-W-Airport-Blvd-77031/home/30345694,HARMLS,67912627,N,Y,29.6409576,-95.5486443
PAST SALE,May-12-2021,Townhouse,9200 W Bellfort Ave #4,Houston,TX,77031,115000,2,1.5,Bellfort Place Condo,1179,253290,1979,20,98,243,Sold,,,http://www.redfin.com/TX/Houston/9200-W-Bellfort-Ave-77031/unit-4/home/30397149,HARMLS,66475496,N,Y,29.6564828,-95.5405044
PAST SALE,May-22-2020,Single Family Residential,9038 Martin Heights Dr,Houston,TX,77031,178000,4,2.5,Villages Glenshire,2593,5230,2003,375,69,33,Sold,,,http://www.redfin.com/TX/Houston/9038-Martin-Heights-Dr-77031/home/29200758,HARMLS,28748714,N,Y,29.6559289,-95.5429647
PAST SALE,November-25-2020,Single Family Residential,11718 Wilson Pines Ct,Houston,TX,77031,225000,5,3.0,Villages Glenshire,2250,5389,2003,188,100,33,Sold,,,http://www.redfin.com/TX/Houston/11718-Wilson-Pines-Ct-77031/home/29200771,HARMLS,96888506,N,Y,29.6549511,-95.544769
PAST SALE,February-3-2021,Single Family Residential,11706 Sweet Willow Ct,Houston,TX,77031,299000,5,3.5,Villages Glenshire,3015,7097,2003,118,99,13,Sold,,,http://www.redfin.com/TX/Houston/11706-Sweet-Willow-Ct-77031/home/29200795,HARMLS,42554745,N,Y,29.6553264,-95.5438873
PAST SALE,December-12-2018,Single Family Residential,9007 Martin Heights Dr,Houston,TX,77031,205000,4,3.0,Villages Glenshire,1810,5193,2003,902,113,38,Sold,,,http://www.redfin.com/TX/Houston/9007-Martin-Heights-Dr-77031/home/29133048,HARMLS,46709825,N,Y,29.6554822,-95.5417755
PAST SALE,March-27-2020,Single Family Residential,9418 Willow Meadow Drive Dr,Houston,TX,77031,191500,4,2.0,Braeburn Valley West Sec 01,2123,9750,1969,431,90,31,Sold,,,http://www.redfin.com/TX/Houston/9418-Willow-Meadow-Dr-77031/home/30235267,HARMLS,10849268,N,Y,29.6661447,-95.5436208
PAST SALE,August-21-2020,Single Family Residential,9702 S Hanworth Dr,Houston,TX,77031,190000,3,2.0,Glenshire,1642,7900,1972,284,116,38,Sold,,,http://www.redfin.com/TX/Houston/9702-S-Hanworth-Dr-77031/home/30252715,HARMLS,33703191,N,Y,29.6480057,-95.5489929
PAST SALE,September-30-2019,Single Family Residential,11703 N Petersham Dr,Houston,TX,77031,190000,3,2.0,Glenshire,1699,8400,1971,610,112,40,Sold,,,http://www.redfin.com/TX/Houston/11703-N-Petersham-Dr-77031/home/30252830,HARMLS,23758804,N,Y,29.650245,-95.549403
PAST SALE,February-8-2018,Single Family Residential,9407 Claridge Dr,Houston,TX,77031,189000,3,2.0,Braeburn Valley West Sec 02,2133,7150,1972,1209,89,31,Sold,,,http://www.redfin.com/TX/Houston/9407-Claridge-Dr-77031/home/30260083,HARMLS,65538547,N,Y,29.6602609,-95.5429647
PAST SALE,September-18-2020,Single Family Residential,9435 Claridge Dr,Houston,TX,77031,204900,4,2.0,Braeburn Valley West Sec 02,1798,7680,1972,256,114,31,Sold,,,http://www.redfin.com/TX/Houston/9435-Claridge-Dr-77031/home/30260065,HARMLS,88635966,N,Y,29.6602496,-95.5443179
PAST SALE,December-31-2018,Single Family Residential,9423 Portal Dr,Houston,TX,77031,194500,4,2.0,Braeburn Valley West Sec 02,1661,7150,1972,883,117,28,Sold,,,http://www.redfin.com/TX/Houston/9423-Portal-Dr-77031/home/30260509,HARMLS,30392985,N,Y,29.6594847,-95.5437233
PAST SALE,August-14-2020,Single Family Residential,12426 Copperfield Dr,Houston,TX,77031,174995,3,2.0,Glenshire,1792,8469,1975,291,98,38,Sold,,,http://www.redfin.com/TX/Houston/12426-Copperfield-Dr-77031/home/30294699,HARMLS,19360686,N,Y,29.6416392,-95.5523148
PAST SALE,December-2-2020,Single Family Residential,10519 Huff Dr,Houston,TX,77031,159000,3,2.0,Braeburn Valley West,1765,6900,1970,181,90,,Sold,,,http://www.redfin.com/TX/Houston/10519-Huff-Dr-77031/home/30234790,HARMLS,70090002,N,Y,29.6657017,-95.5293523
PAST SALE,April-20-2021,Single Family Residential,10503 Raydell Dr,Houston,TX,77031,179900,3,2.0,Braeburn Valley West Sec 01,1756,8800,1970,42,102,31,Sold,,,http://www.redfin.com/TX/Houston/10503-Raydell-Dr-77031/home/30235356,HARMLS,13610023,N,Y,29.6658414,-95.5357481
PAST SALE,April-8-2021,Single Family Residential,10611 Hoyte Dr,Houston,TX,77031,165000,3,2.0,Braeburn Valley West Sec 01,1688,7150,1969,54,98,26,Sold,,,http://www.redfin.com/TX/Houston/10611-Hoyte-Dr-77031/home/30235443,HARMLS,28552803,N,Y,29.6652305,-95.5330831
PAST SALE,February-26-2021,Single Family Residential,10502 Caravan Dr,Houston,TX,77031,209900,3,2.0,Braeburn Valley West,1788,9035,1968,95,117,19,Sold,,,http://www.redfin.com/TX/Houston/10502-Caravan-Dr-77031/home/30235457,HARMLS,5734076,N,Y,29.6658275,-95.5344566
PAST SALE,August-29-2019,Single Family Residential,10503 Caravan Dr,Houston,TX,77031,125000,4,2.0,Braeburn Valley West Sec 01,2002,7728,1969,642,62,78,Sold,,,http://www.redfin.com/TX/Houston/10503-Caravan-Dr-77031/home/30235473,HARMLS,25832088,N,Y,29.6657361,-95.5339441
PAST SALE,May-19-2021,Single Family Residential,8750 Keegans Forest Ln,Houston,TX,77031,199900,3,2.0,Westbrae Village,1560,3964,1999,13,128,33,Sold,,,http://www.redfin.com/TX/Houston/8750-Keegans-Forest-Ln-77031/home/30693351,HARMLS,33652686,N,Y,29.6610571,-95.5314432
PAST SALE,January-19-2021,Single Family Residential,10902 Westbrae Oaks Ln,Houston,TX,77031,264750,4,2.5,Villages OF Westbrae,2296,6271,2002,133,115,31,Sold,,,http://www.redfin.com/TX/Houston/10902-Westbrae-Oaks-Ln-77031/home/30728552,HARMLS,84476027,N,Y,29.661504,-95.5326321
PAST SALE,July-2-2019,Single Family Residential,8624 Torcello St,Houston,TX,77031,175000,3,2.5,Venetian Luxury Homes,1338,1994,2017,700,131,100,Sold,,,http://www.redfin.com/TX/Houston/8624-Torcello-St-77031/home/144615505,HARMLS,14958122,N,Y,29.6591761,-95.529596
PAST SALE,March-22-2019,Condo/Co-op,8888 Benning Dr #271,Houston,TX,77031,99900,2,1.5,Commons At Westbrae Sec 01,1204,196770,1984,802,83,250,Sold,,,http://www.redfin.com/TX/Houston/8888-Benning-Dr-77031/unit-271/home/30579781,HARMLS,71168005,N,Y,29.6591906,-95.5311879
PAST SALE,February-23-2021,Single Family Residential,12103 Dover St,Houston,TX,77031,825000,4,3.5,Braeburn Gardens,4318,50000,2003,98,191,,Sold,,,http://www.redfin.com/TX/Houston/12103-Dover-St-77031/home/29987095,HARMLS,33701251,N,Y,29.6466473,-95.5550422
PAST SALE,July-17-2019,Single Family Residential,9603 Weybridge Dr,Houston,TX,77031,195000,3,2.0,Glenshire,1689,9162,1973,685,115,40,Sold,,,http://www.redfin.com/TX/Houston/9603-Weybridge-Dr-77031/home/30252738,HARMLS,87931563,N,Y,29.6495572,-95.5485828
PAST SALE,December-31-2018,Single Family Residential,9122 Petersham Dr,Houston,TX,77031,184000,4,2.0,Glenshire Sec 02,2582,9000,1973,883,71,34,Sold,,,http://www.redfin.com/TX/Houston/9122-Petersham-Dr-77031/home/30259556,HARMLS,3645246,N,Y,29.654477,-95.5442359
PAST SALE,June-30-2020,Single Family Residential,11814 Stanwood Dr,Houston,TX,77031,265000,4,2.5,Glenshire,3303,8432,1972,336,80,38,Sold,,,http://www.redfin.com/TX/Houston/11814-Stanwood-Dr-77031/home/30259611,HARMLS,30076391,N,Y,29.65323,-95.5443794
PAST SALE,May-17-2019,Single Family Residential,9223 Petersham Dr,Houston,TX,77031,247000,5,3.5,Glenshire,2939,8340,1972,746,84,40,Sold,,,http://www.redfin.com/TX/Houston/9223-Petersham-Dr-77031/home/30259618,HARMLS,42319087,N,Y,29.6532906,-95.5456301
PAST SALE,May-15-2020,Single Family Residential,12326 Millbanks Dr,Houston,TX,77031,154000,3,2.0,Glenshire Sec 03,1650,7560,1972,382,93,35,Sold,,,http://www.redfin.com/TX/Houston/12326-Millbanks-Dr-77031/home/30272367,HARMLS,37700573,N,Y,29.6446616,-95.5469424
PAST SALE,April-6-2020,Single Family Residential,12502 Millbanks Dr,Houston,TX,77031,190000,3,2.0,Glenshire Sec 05,1775,10400,1973,421,107,35,Sold,,,http://www.redfin.com/TX/Houston/12502-Millbanks-Dr-77031/home/30285149,HARMLS,24343725,N,Y,29.6431831,-95.5439932
PAST SALE,May-24-2019,Single Family Residential,11833 Gatlinburg Dr,Houston,TX,77031,155000,3,2.0,Glenshire Patio Homes,1798,3531,1977,739,86,60,Sold,,,http://www.redfin.com/TX/Houston/11833-Gatlinburg-Dr-77031/home/30285291,HARMLS,83800462,N,Y,29.6551892,-95.5368961
PAST SALE,January-31-2019,Single Family Residential,11903 Gatlinburg Dr,Houston,TX,77031,155000,3,2.0,Glenshire Patio Homes,1798,4179,1977,852,86,60,Sold,,,http://www.redfin.com/TX/Houston/11903-Gatlinburg-Dr-77031/home/30285329,HARMLS,92040932,N,Y,29.6548016,-95.5386182
PAST SALE,January-15-2021,Single Family Residential,8914 Haverstock Dr,Houston,TX,77031,264900,4,2.5,Glenshire Sec 04,2436,8301,1974,137,109,63,Sold,,,http://www.redfin.com/TX/Houston/8914-Haverstock-Dr-77031/home/30285400,HARMLS,19817895,N,Y,29.6540929,-95.5404634
PAST SALE,November-11-2020,Single Family Residential,8814 Weymouth Dr,Houston,TX,77031,239900,3,2.5,Glenshire Sec 04,2224,9428,1974,202,108,41,Sold,,,http://www.redfin.com/TX/Houston/8814-Weymouth-Dr-77031/home/30285409,HARMLS,6386108,N,Y,29.6535209,-95.5390283
PAST SALE,July-8-2019,Single Family Residential,9131 Covent Garden St,Houston,TX,77031,199900,4,2.0,Glenshire Sec 06,2162,8760,1976,694,92,39,Sold,,,http://www.redfin.com/TX/Houston/9131-Covent-Garden-St-77031/home/30292623,HARMLS,2688411,N,Y,29.6509428,-95.5434978
PAST SALE,April-21-2021,Single Family Residential,12414 Rockampton Dr,Houston,TX,77031,299000,3,2.0,Glenshire Sec 06,2287,9154,1976,41,131,35,Sold,,,http://www.redfin.com/TX/Houston/12414-Rockampton-Dr-77031/home/30293168,HARMLS,12019404,N,Y,29.6475161,-95.5385567
PAST SALE,September-26-2019,Single Family Residential,9102 Tavistock Dr,Houston,TX,77031,238900,4,2.5,Glenshire Sec 06,2020,8578,1975,614,118,38,Sold,,,http://www.redfin.com/TX/Houston/9102-Tavistock-Dr-77031/home/30293242,HARMLS,13184055,N,Y,29.6495265,-95.5406684
PAST SALE,January-28-2021,Single Family Residential,12211 Wrenthorpe Dr,Houston,TX,77031,249000,4,2.5,Glenshire Sec 06,2246,9060,1975,124,111,38,Sold,,,http://www.redfin.com/TX/Houston/12211-Wrenthorpe-Dr-77031/home/30293309,HARMLS,17803898,N,Y,29.6495415,-95.5424726
PAST SALE,August-15-2019,Single Family Residential,9542 Ravensworth Dr,Houston,TX,77031,196500,3,2.0,Glenshire,1874,8812,1975,656,105,38,Sold,,,http://www.redfin.com/TX/Houston/9542-Ravensworth-Dr-77031/home/30294550,HARMLS,5905878,N,Y,29.6430705,-95.545056
PAST SALE,December-30-2019,Single Family Residential,8810 Tavistock Dr,Houston,TX,77031,299000,4,2.5,Glenshire Sec 08,2639,9096,1976,519,113,41,Sold,,,http://www.redfin.com/TX/Houston/8810-Tavistock-Dr-77031/home/30343539,HARMLS,23281512,N,Y,29.6502272,-95.5384747
PAST SALE,December-1-2020,Single Family Residential,9622 W Airport Blvd,Houston,TX,77031,199000,3,2.0,Glenshire Sec 09,1918,8385,1970,182,104,38,Sold,,,http://www.redfin.com/TX/Houston/9622-W-Airport-Blvd-77031/home/30345396,HARMLS,40107624,N,Y,29.6416454,-95.5494645
PAST SALE,December-15-2020,Single Family Residential,9519 W Airport Blvd,Houston,TX,77031,198000,3,2.0,Glenshire Sec 09,1845,8448,1979,168,107,40,Sold,,,http://www.redfin.com/TX/Houston/9519-W-Airport-Blvd-77031/home/30345740,HARMLS,8103059,N,Y,29.640998,-95.544974
PAST SALE,March-31-2017,Single Family Residential,9006 Sterlingame Dr,Houston,TX,77031,239000,4,3.0,Glenshire,2402,,1975,1523,100,36,Sold,,,http://www.redfin.com/TX/Houston/9006-Sterlingame-Dr-77031/home/30292638,HARMLS,11576149,N,Y,29.6514201,-95.5407094
PAST SALE,January-25-2018,Single Family Residential,11815 Bedford St,Houston,TX,77031,329900,3,2.0,Braeburn Gardens,1776,20600,1979,1223,186,,Sold,,,http://www.redfin.com/TX/Houston/11815-Bedford-St-77031/home/29987302,HARMLS,60694054,N,Y,29.6495104,-95.5534837
PAST SALE,June-25-2018,Single Family Residential,9015 Haverstock Dr,Houston,TX,77031,185000,4,2.0,Glenshire,2267,9121,1972,1072,82,38,Sold,,,http://www.redfin.com/TX/Houston/9015-Haverstock-Dr-77031/home/30259500,HARMLS,78981673,N,Y,29.6531305,-95.5418985
PAST SALE,,Single Family Residential,11826 Stanwood Dr,Houston,TX,77031,,4,2.5,,2030,8700,1972,,,,Sold,,,http://www.redfin.com/TX/Houston/11826-Stanwood-Dr-77031/home/30259606,HARMLS,,N,Y,29.6526919,-95.5442974
PAST SALE,August-11-2017,Single Family Residential,9218 Meaux Dr,Houston,TX,77031,160000,4,2.0,Braeburn Valley West,1746,7150,1973,1390,92,17,Sold,,,http://www.redfin.com/TX/Houston/9218-Meaux-Dr-77031/home/30260335,HARMLS,95996589,N,Y,29.6631052,-95.5396843
PAST SALE,August-15-2017,Condo/Co-op,8888 Benning Dr #173,Houston,TX,77031,109900,3,2.5,Commons At Westbrae Sec 01,1460,,1985,1386,75,239,Sold,,,http://www.redfin.com/TX/Houston/8888-Benning-Dr-77031/unit-173/home/30579848,HARMLS,92302152,N,Y,29.6591906,-95.5311879
PAST SALE,June-29-2018,Single Family Residential,9431 Spellman Rd,Houston,TX,77031,180000,4,2.0,Braeburn Valley West Sec 02,1989,7150,1972,1068,90,29,Sold,,,http://www.redfin.com/TX/Houston/9431-Spellman-Rd-77031/home/30260549,HARMLS,92961884,N,Y,29.6571879,-95.5441539
PAST SALE,February-8-2018,Single Family Residential,9411 Willow Meadow Dr,Houston,TX,77031,170000,3,2.0,Braeburn Valley West,1846,7150,1970,1209,92,29,Sold,,,http://www.redfin.com/TX/Houston/9411-Willow-Meadow-Dr-77031/home/30235184,HARMLS,63236074,N,Y,29.6657123,-95.5431697
PAST SALE,April-10-2017,Single Family Residential,9323 Bankside Dr,Houston,TX,77031,169900,4,2.0,Braeburn Valley West Sec 02,1826,7150,1972,1513,93,30,Sold,,,http://www.redfin.com/TX/Houston/9323-Bankside-Dr-77031/home/30260137,HARMLS,70465480,N,Y,29.6618728,-95.5421856
PAST SALE,May-12-2017,Single Family Residential,8906 Tavistock Dr,Houston,TX,77031,205000,4,2.0,Glenshire,2224,9315,1976,1481,92,38,Sold,,,http://www.redfin.com/TX/Houston/8906-Tavistock-Dr-77031/home/30343542,HARMLS,12716047,N,Y,29.6501713,-95.5392743
PAST SALE,December-19-2017,Condo/Co-op,9200 W Bellfort St #16,Houston,TX,77031,75000,2,2.5,Bellfort Place Condo,1188,,1979,1260,63,250,Sold,,,http://www.redfin.com/TX/Houston/9200-W-Bellfort-Ave-77031/unit-16/home/30397162,HARMLS,51135366,N,Y,29.6564828,-95.5405044
PAST SALE,November-30-2017,Single Family Residential,9215 Portal Dr,Houston,TX,77031,180000,4,2.0,Braeburn Valley West Sec 02,1940,7150,1972,1279,93,25,Sold,,,http://www.redfin.com/TX/Houston/9215-Portal-Dr-77031/home/30260068,HARMLS,42420524,N,Y,29.6595975,-95.5393973
PAST SALE,February-11-2019,Single Family Residential,9207 Mcafee Dr,Houston,TX,77031,182500,3,2.0,Braeburn Valley West,1821,7150,1970,841,100,29,Sold,,,http://www.redfin.com/TX/Houston/9207-McAfee-Dr-77031/home/30235048,HARMLS,92997422,N,Y,29.6644829,-95.5391103
PAST SALE,August-20-2020,Single Family Residential,9214 Mcafee Dr,Houston,TX,77031,205000,5,3.0,Braeburn Valley West Sec 01,1812,8449,1970,285,113,31,Sold,,,http://www.redfin.com/TX/Houston/9214-McAfee-Dr-77031/home/30235142,HARMLS,14835049,N,Y,29.6647097,-95.5396228
PAST SALE,May-12-2020,Single Family Residential,9302 Twin Hills Dr,Houston,TX,77031,214900,4,2.0,Braeburn Valley West,2596,8960,1971,385,83,33,Sold,,,http://www.redfin.com/TX/Houston/9302-Twin-Hills-Dr-77031/home/30235310,HARMLS,16870219,N,Y,29.6671715,-95.541181
PAST SALE,December-5-2018,Single Family Residential,12006 Manorgate Dr,Houston,TX,77031,199000,4,2.0,Glenshire Sec 02,2361,8400,1973,909,84,26,Sold,,,http://www.redfin.com/TX/Houston/12006-Manorgate-Dr-77031/home/30259510,HARMLS,63420319,N,Y,29.65102,-95.544892
PAST SALE,August-23-2018,Single Family Residential,8922 Petersham Dr,Houston,TX,77031,219500,3,2.0,Glenshire Sec 02,2022,9000,1972,1013,109,35,Sold,,,http://www.redfin.com/TX/Houston/8922-Petersham-Dr-77031/home/30259534,HARMLS,62992626,N,Y,29.6551383,-95.5413655
PAST SALE,June-24-2019,Single Family Residential,9210 Petersham Dr,Houston,TX,77031,169900,4,2.0,Glenshire Sec 02,2122,8400,1973,708,80,40,Sold,,,http://www.redfin.com/TX/Houston/9210-Petersham-Dr-77031/home/30259552,HARMLS,4912705,N,Y,29.6539864,-95.5451791
PAST SALE,February-12-2020,Single Family Residential,9318 Petersham Dr,Houston,TX,77031,219900,4,2.5,Glenshire,2303,9130,1974,475,95,40,Sold,,,http://www.redfin.com/TX/Houston/9318-Petersham-Dr-77031/home/30259560,HARMLS,15244035,N,Y,29.6532444,-95.5467374
PAST SALE,October-31-2018,Single Family Residential,10822 Silkwood Dr,Houston,TX,77031,133900,4,2.0,Braeburn Valley West,1794,7475,1974,944,75,31,Sold,,,http://www.redfin.com/TX/Houston/10822-Silkwood-Dr-77031/home/30260357,HARMLS,65273056,N,Y,29.6620741,-95.5379007
PAST SALE,February-3-2020,Single Family Residential,9318 Sanford Rd,Houston,TX,77031,195000,4,2.5,Braeburn Valley West Sec 02,2165,7150,1972,484,90,18,Sold,,,http://www.redfin.com/TX/Houston/9318-Sanford-Rd-77031/home/30260497,HARMLS,73177807,N,Y,29.6592498,-95.5412425
PAST SALE,July-2-2019,Single Family Residential,12210 Lancelot Dr,Houston,TX,77031,219900,3,2.5,Glenshire,2041,7934,1974,700,108,38,Sold,,,http://www.redfin.com/TX/Houston/12210-Lancelot-Dr-77031/home/30272304,HARMLS,55947179,N,Y,29.6471311,-95.5461632
PAST SALE,November-15-2019,Single Family Residential,12330 Chessington Dr,Houston,TX,77031,165000,3,2.0,Glenshire,1693,8705,1973,564,97,39,Sold,,,http://www.redfin.com/TX/Houston/12330-Chessington-Dr-77031/home/30272356,HARMLS,23380829,N,Y,29.6450654,-95.5459172
PAST SALE,November-28-2018,Single Family Residential,12402 Chessington Dr,Houston,TX,77031,198500,3,2.0,Glenshire,1884,8807,1973,916,105,42,Sold,,,http://www.redfin.com/TX/Houston/12402-Chessington-Dr-77031/home/30285186,HARMLS,9425885,N,Y,29.6449003,-95.5455481
PAST SALE,April-24-2019,Single Family Residential,12133 Poulson Dr,Houston,TX,77031,155000,3,2.0,Glenshire Patio Homes,1668,4865,1978,769,93,60,Sold,,,http://www.redfin.com/TX/Houston/12133-Poulson-Dr-77031/home/30285355,HARMLS,18760426,N,Y,29.6536601,-95.5367731
PAST SALE,August-24-2018,Single Family Residential,9107 Abbeydale Dr,Houston,TX,77031,215000,4,2.0,Glenshire,2139,8758,1974,1012,101,42,Sold,,,http://www.redfin.com/TX/Houston/9107-Abbeydale-Dr-77031/home/30293230,HARMLS,73311253,N,Y,29.6496865,-95.5411605
PAST SALE,December-6-2019,Single Family Residential,12414 Wrenthorpe Dr,Houston,TX,77031,195000,4,2.0,Glenshire,2144,8400,1975,543,91,40,Sold,,,http://www.redfin.com/TX/Houston/12414-Wrenthorpe-Dr-77031/home/30293248,HARMLS,42463702,N,Y,29.6472769,-95.5405044
PAST SALE,April-22-2020,Single Family Residential,8610 Torcello St,Houston,TX,77031,175000,3,2.5,Venetian Luxury Homes,1360,2035,2017,405,129,100,Sold,,,http://www.redfin.com/TX/Houston/8610-Torcello-St-77031/home/168630128,HARMLS,5736102,N,Y,29.659202,-95.528984
PAST SALE,December-11-2020,Single Family Residential,8708 Torcello St,Houston,TX,77031,175000,3,2.5,Venetian Luxury Homes,1356,1994,2017,172,129,100,Sold,,,http://www.redfin.com/TX/Houston/8708-Torcello-St-77031/home/144615501,HARMLS,63167852,N,Y,29.6592148,-95.5301722
PAST SALE,February-10-2021,Single Family Residential,9406 Mcafee Dr,Houston,TX,77031,199000,3,2.0,Braeburn Valley West,1629,7150,1970,111,122,33,Sold,,,http://www.redfin.com/TX/Houston/9406-McAfee-Dr-77031/home/30235091,HARMLS,80305220,N,Y,29.6646345,-95.5430467
PAST SALE,December-11-2020,Single Family Residential,9322 Mcafee Dr,Houston,TX,77031,179900,3,2.0,Braeburn Valley West Sec 01,1820,7150,1970,172,99,33,Sold,,,http://www.redfin.com/TX/Houston/9322-McAfee-Dr-77031/home/30235087,HARMLS,85170962,N,Y,29.6645785,-95.5422266
PAST SALE,July-30-2020,Single Family Residential,9302 Kristin Dr,Houston,TX,77031,185000,3,2.0,Braeburn Valley West,1734,7700,1973,306,107,29,Sold,,,http://www.redfin.com/TX/Houston/9302-Kristin-Dr-77031/home/30235191,HARMLS,23511098,N,Y,29.66539,-95.5411605
PAST SALE,March-8-2021,Single Family Residential,10510 Sapling Way,Houston,TX,77031,158000,3,2.5,Braeburn Valley West Sec 01,1753,6023,1970,85,90,29,Sold,,,http://www.redfin.com/TX/Houston/10510-Sapling-Way-77031/home/30235227,HARMLS,90309339,N,Y,29.6659963,-95.5325706
PAST SALE,January-8-2021,Single Family Residential,9115 Twin Hills Dr,Houston,TX,77031,195000,3,2.0,Braeburn Valley West Sec 01,1693,10620,1971,144,115,31,Sold,,,http://www.redfin.com/TX/Houston/9115-Twin-Hills-Dr-77031/home/30235259,HARMLS,61514728,N,Y,29.6667349,-95.5381262
PAST SALE,February-12-2021,Single Family Residential,9110 Willow Meadow Dr,Houston,TX,77031,175000,3,2.0,Braeburn Valley West Sec 01,1633,9750,1970,109,107,29,Sold,,,http://www.redfin.com/TX/Houston/9110-Willow-Meadow-Dr-77031/home/30235272,HARMLS,91065961,N,Y,29.6662254,-95.5379007
PAST SALE,December-8-2020,Single Family Residential,9206 Tooley Dr,Houston,TX,77031,188000,4,2.0,Braeburn Valley West Sec 01,1885,6966,1971,175,100,31,Sold,,,http://www.redfin.com/TX/Houston/9206-Tooley-Dr-77031/home/30235302,HARMLS,41550470,N,Y,29.6683514,-95.5393973
PAST SALE,September-28-2018,Single Family Residential,9319 Meaux Dr,Houston,TX,77031,194000,4,2.0,Braeburn Valley West Sec 02,2111,7700,1972,977,92,,Sold,,,http://www.redfin.com/TX/Houston/9319-Meaux-Dr-77031/home/30260012,HARMLS,22505188,N,Y,29.6626484,-95.5419806
PAST SALE,March-26-2020,Single Family Residential,9227 Portal Dr,Houston,TX,77031,219900,4,2.0,Braeburn Valley West Sec 02,2074,7150,1972,432,106,29,Sold,,,http://www.redfin.com/TX/Houston/9227-Portal-Dr-77031/home/30260056,HARMLS,51986468,N,Y,29.659617,-95.5400123
PAST SALE,April-23-2019,Single Family Residential,9219 Meaux Dr,Houston,TX,77031,219900,4,2.0,Braeburn Valley West Sec 02,2412,7150,1971,770,91,19,Sold,,,http://www.redfin.com/TX/Houston/9219-Meaux-Dr-77031/home/30260241,HARMLS,63492283,N,Y,29.6627008,-95.5396433
PAST SALE,November-9-2020,Single Family Residential,9302 Meaux Dr,Houston,TX,77031,170000,3,2.0,Braeburn Valley West Sec 02,1816,7700,1972,204,94,31,Sold,,,http://www.redfin.com/TX/Houston/9302-Meaux-Dr-77031/home/30260331,HARMLS,20152275,N,Y,29.6630905,-95.5411195
PAST SALE,April-28-2021,Single Family Residential,9338 Sanford Rd,Houston,TX,77031,215000,3,2.0,Braeburn Valley West Sec 02,1824,8250,1972,34,118,31,Sold,,,http://www.redfin.com/TX/Houston/9338-Sanford-Rd-77031/home/30260519,HARMLS,41685562,N,Y,29.659207,-95.5422676
PAST SALE,February-28-2021,Single Family Residential,9443 Portal Dr,Houston,TX,77031,199990,3,2.0,Braeburn Valley West Sec 02,1752,7744,1977,93,114,13,Sold,,,http://www.redfin.com/TX/Houston/9443-Portal-Dr-77031/home/30260520,HARMLS,94949397,N,Y,29.6595088,-95.544769
PAST SALE,April-15-2021,Single Family Residential,9414 Sanford Rd,Houston,TX,77031,219000,3,2.0,Braeburn Valley West,1836,7150,1971,47,119,31,Sold,,,http://www.redfin.com/TX/Houston/9414-Sanford-Rd-77031/home/30260570,HARMLS,26366098,N,Y,29.6592511,-95.5433748
PAST SALE,December-14-2020,Single Family Residential,9207 Benning Dr,Houston,TX,77031,274900,4,2.0,Braeburn Valley West Sec 02,2425,7150,1974,169,113,,Sold,,,http://www.redfin.com/TX/Houston/9207-Benning-Dr-77031/home/30260722,HARMLS,69266743,N,Y,29.6580552,-95.5390488
PAST SALE,April-12-2019,Townhouse,8888 Benning Dr #192,Houston,TX,77031,102000,2,2.5,Commons At Westbrae,1240,196770,1984,781,82,250,Sold,,,http://www.redfin.com/TX/Houston/8888-Benning-Dr-77031/unit-192/home/30579810,HARMLS,56006504,N,Y,29.6591906,-95.5311879
PAST SALE,March-30-2021,Townhouse,8888 Benning Dr #213,Houston,TX,77031,129900,3,2.5,Commons At Westbrae,1472,196770,1984,63,88,29,Sold,,,http://www.redfin.com/TX/Houston/8888-Benning-Dr-77031/unit-213/home/30579801,HARMLS,15544880,N,Y,29.6591906,-95.5311879
PAST SALE,January-3-2020,Townhouse,8888 Benning Dr #214,Houston,TX,77031,105000,2,1.5,Commons At Westbrae Sec 01,1204,196770,1984,515,87,250,Sold,,,http://www.redfin.com/TX/Houston/8888-Benning-Dr-77031/unit-214/home/30579804,HARMLS,48980067,N,Y,29.6591906,-95.5311879
PAST SALE,March-8-2019,Single Family Residential,10918 Westbrae Village Dr,Houston,TX,77031,157000,3,2.5,Westbrae Village,1209,4050,1999,816,130,54,Sold,,,http://www.redfin.com/TX/Houston/10918-Westbrae-Village-Dr-77031/home/30693339,HARMLS,72967957,N,Y,29.6613978,-95.5297623
PAST SALE,September-15-2020,Single Family Residential,8709 Torcello St,Houston,TX,77031,164000,3,2.5,Venetian Luxury Homes,1320,2035,2017,259,124,100,Sold,,,http://www.redfin.com/TX/Houston/8709-Torcello-St-77031/home/144615514,HARMLS,12068397,N,Y,29.6589821,-95.5301856
PAST SALE,January-10-2019,Single Family Residential,8623 San Rocco St,Houston,TX,77031,190000,3,2.5,Venetian Luxury Homes,1617,2035,2018,873,118,8,Sold,,,http://www.redfin.com/TX/Houston/8623-San-Rocco-St-77031/home/144615561,HARMLS,85951200,N,Y,29.659225808364308,-95.52904889669799
PAST SALE,September-16-2020,Single Family Residential,9118 Petersham Dr,Houston,TX,77031,228440,4,2.5,Glenshire Sec 2,2075,9000,1973,258,110,31,Sold,,,http://www.redfin.com/TX/Houston/9118-Petersham-Dr-77031/home/30259555,HARMLS,14208198,N,Y,29.6545758,-95.5440309
PAST SALE,November-15-2019,Single Family Residential,9314 Petersham Dr,Houston,TX,77031,219000,4,2.5,Glenshire Sec 02,2256,8707,1974,564,97,40,Sold,,,http://www.redfin.com/TX/Houston/9314-Petersham-Dr-77031/home/30259559,HARMLS,94032926,N,Y,29.6533432,-95.5465323
PAST SALE,June-12-2017,Single Family Residential,9106 Haverstock Dr,Houston,TX,77031,249995,4,2.5,Glenshire Sec 02,2614,8820,1973,1450,96,50,Sold,,,http://www.redfin.com/TX/Houston/9106-Haverstock-Dr-77031/home/30259641,HARMLS,90820456,N,Y,29.6532231,-95.5429237
PAST SALE,May-30-2019,Single Family Residential,9418 Claridge Dr,Houston,TX,77031,153500,3,2.0,Braeburn Valley West Sec 02,1608,6600,1971,733,95,,Sold,,,http://www.redfin.com/TX/Houston/9418-Claridge-Dr-77031/home/30260223,HARMLS,56830359,N,Y,29.6607299,-95.5436208
PAST SALE,June-5-2019,Single Family Residential,9323 Claridge Dr,Houston,TX,77031,185000,4,2.0,Braeburn Valley West,1939,7150,1972,727,95,29,Sold,,,http://www.redfin.com/TX/Houston/9323-Claridge-Dr-77031/home/30260294,HARMLS,87820597,N,Y,29.6603003,-95.5420216
PAST SALE,February-6-2019,Single Family Residential,9326 Sanford Rd,Houston,TX,77031,240000,4,2.0,Braeburn Valley West Sec 02,1930,7150,1972,846,124,33,Sold,,,http://www.redfin.com/TX/Houston/9326-Sanford-Rd-77031/home/30260499,HARMLS,11800188,N,Y,29.6592327,-95.5416525
PAST SALE,October-16-2019,Single Family Residential,9430 Benning Dr,Houston,TX,77031,189000,3,2.0,Braeburn Valley West,1842,7150,1973,594,103,29,Sold,,,http://www.redfin.com/TX/Houston/9430-Benning-Dr-77031/home/30260576,HARMLS,31975692,N,Y,29.6584532,-95.5441129
PAST SALE,September-18-2020,Single Family Residential,9219 Benning Dr,Houston,TX,77031,221000,4,2.0,Braeburn Valley,2425,7150,1974,256,91,31,Sold,,,http://www.redfin.com/TX/Houston/9219-Benning-Dr-77031/home/30260725,HARMLS,39141031,N,Y,29.6580313,-95.5396228
PAST SALE,July-21-2020,Single Family Residential,9331 Sanford Rd,Houston,TX,77031,209900,4,2.0,Braeburn Valley West,1794,7150,1972,315,117,29,Sold,,,http://www.redfin.com/TX/Houston/9331-Sanford-Rd-77031/home/30260760,HARMLS,44284628,N,Y,29.6587746,-95.5418165
PAST SALE,October-9-2018,Single Family Residential,9119 Spellman Rd,Houston,TX,77031,168000,3,2.0,Braeburn Valley West Sec 02,1650,7150,1972,966,102,29,Sold,,,http://www.redfin.com/TX/Houston/9119-Spellman-Rd-77031/home/30260790,HARMLS,34658179,N,Y,29.6572886,-95.5384952
PAST SALE,May-10-2019,Single Family Residential,12307 Millbanks Dr,Houston,TX,77031,177900,3,2.0,Glenshire Sec 03,1716,8086,1972,753,104,38,Sold,,,http://www.redfin.com/TX/Houston/12307-Millbanks-Dr-77031/home/30272348,HARMLS,31468378,N,Y,29.6456407,-95.5472705
PAST SALE,July-27-2018,Single Family Residential,12214 Appleby Dr,Houston,TX,77031,250000,4,3.0,Glenshire,2405,12838,1971,1040,104,38,Sold,,,http://www.redfin.com/TX/Houston/12214-Appleby-Dr-77031/home/30285202,HARMLS,22848394,N,Y,29.6448836,-95.5437848
PAST SALE,May-9-2019,Single Family Residential,12519 Lancelot Dr,Houston,TX,77031,120000,3,2.0,Glenshire Sec 05,1983,7605,1971,754,61,38,Sold,,,http://www.redfin.com/TX/Houston/12519-Lancelot-Dr-77031/home/30285260,HARMLS,65064421,N,Y,29.6448984,-95.5423496
PAST SALE,October-5-2018,Single Family Residential,11809 Gatlinburg Dr,Houston,TX,77031,129000,3,2.0,Glenshire,,4787,1977,970,,60,Sold,,,http://www.redfin.com/TX/Houston/11809-Gatlinburg-Dr-77031/home/30285312,HARMLS,40426827,N,Y,29.6551277,-95.5383722
PAST SALE,April-23-2020,Single Family Residential,8902 Haverstock Dr,Houston,TX,77031,315000,4,2.5,Glenshire,2582,9678,1975,404,122,40,Sold,,,http://www.redfin.com/TX/Houston/8902-Haverstock-Dr-77031/home/30285383,HARMLS,61173653,N,Y,29.6542339,-95.5397868
PAST SALE,August-12-2020,Single Family Residential,8910 Haverstock Dr,Houston,TX,77031,245000,4,2.0,Glenshire Sec 04,2428,8449,1974,293,101,38,Sold,,,http://www.redfin.com/TX/Houston/8910-Haverstock-Dr-77031/home/30285399,HARMLS,46064128,N,Y,29.6541934,-95.5402174
PAST SALE,September-25-2020,Single Family Residential,9103 Weymouth Dr,Houston,TX,77031,289900,4,2.5,Glenshire,2403,8808,1974,249,121,41,Sold,,,http://www.redfin.com/TX/Houston/9103-Weymouth-Dr-77031/home/30292600,HARMLS,15570300,N,Y,29.6520252,-95.5424316
PAST SALE,October-31-2018,Single Family Residential,12210 Wrenthorpe Dr,Houston,TX,77031,234000,4,2.5,Glenshire Sec 06,2235,12016,1973,944,105,26,Sold,,,http://www.redfin.com/TX/Houston/12210-Wrenthorpe-Dr-77031/home/30292610,HARMLS,44474670,N,Y,29.6494941,-95.5430672
PAST SALE,December-21-2018,Single Family Residential,12206 Wrenthorpe Dr,Houston,TX,77031,249000,4,2.0,Glenshire,2256,15076,1973,893,110,38,Sold,,,http://www.redfin.com/TX/Houston/12206-Wrenthorpe-Dr-77031/home/30292611,HARMLS,33798259,N,Y,29.6496461,-95.5432107
PAST SALE,August-5-2020,Single Family Residential,9115 Weymouth Dr,Houston,TX,77031,245000,4,2.5,Glenshire,2679,8710,1974,300,91,38,Sold,,,http://www.redfin.com/TX/Houston/9115-Weymouth-Dr-77031/home/30292589,HARMLS,69615974,N,Y,29.6516871,-95.5429647
PAST SALE,October-1-2019,Single Family Residential,12406 Rockampton Dr,Houston,TX,77031,209900,4,2.5,Glenshire Sec 06,2238,9866,1976,609,94,23,Sold,,,http://www.redfin.com/TX/Houston/12406-Rockampton-Dr-77031/home/30293166,HARMLS,55869691,N,Y,29.6479405,-95.5386592
PAST SALE,July-6-2020,Single Family Residential,9019 Sterlingame Dr,Houston,TX,77031,234900,4,2.5,Glenshire Sec 06,2319,8926,1974,330,101,41,Sold,,,http://www.redfin.com/TX/Houston/9019-Sterlingame-Dr-77031/home/30293286,HARMLS,94047356,N,Y,29.6507244,-95.5411605
PAST SALE,July-15-2020,Single Family Residential,9562 Wickenburg Dr,Houston,TX,77031,200000,3,2.0,Glenshire,1804,7500,1970,321,111,51,Sold,,,http://www.redfin.com/TX/Houston/9562-Wickenburg-Dr-77031/home/30294510,HARMLS,21167697,N,Y,29.6424389,-95.5482957
PAST SALE,July-18-2019,Condo/Co-op,9200 W Bellfort St #13,Houston,TX,77031,79999,2,1.5,Bellfort Place Condo,1152,253290,1979,684,69,204,Sold,,,http://www.redfin.com/TX/Houston/9200-W-Bellfort-Ave-77031/unit-13/home/30397159,HARMLS,14865950,N,Y,29.6564828,-95.5405044
PAST SALE,May-3-2019,Condo/Co-op,9200 W Bellfort St #51,Houston,TX,77031,69999,2,1.5,Bellfort Place Condo,1152,253290,1979,760,61,217,Sold,,,http://www.redfin.com/TX/Houston/9200-W-Bellfort-Ave-77031/unit-51/home/30397195,HARMLS,10078056,N,Y,29.6564828,-95.5405044
PAST SALE,July-23-2019,Townhouse,9200 W Bellfort St #103,Houston,TX,77031,59900,2,2.5,Bellfort Place Condo,1188,253290,1979,679,50,210,Sold,,,http://www.redfin.com/TX/Houston/9200-W-Bellfort-Ave-77031/unit-103/home/30397252,HARMLS,66760007,N,Y,29.6564828,-95.5405044
PAST SALE,November-13-2018,Townhouse,8888 Benning Dr #143,Houston,TX,77031,104995,2,1.5,Commons At Westbrae Sec 01,1190,196770,1985,931,88,250,Sold,,,http://www.redfin.com/TX/Houston/8888-Benning-Dr-77031/unit-143/home/30579837,HARMLS,52188194,N,Y,29.6591906,-95.5311879
PAST SALE,June-16-2020,Townhouse,8888 Benning Dr #202,Houston,TX,77031,128000,3,2.5,Commons At Westbrae Sec 01,1472,196770,1984,350,87,239,Sold,,,http://www.redfin.com/TX/Houston/8888-Benning-Dr-77031/unit-202/home/30579814,HARMLS,72185878,N,Y,29.6591906,-95.5311879
PAST SALE,July-22-2019,Condo/Co-op,8888 Benning Dr #251,Houston,TX,77031,110000,3,2.5,Commons At Westbrae Sec 01,1468,196770,1984,680,75,250,Sold,,,http://www.redfin.com/TX/Houston/8888-Benning-Dr-77031/unit-251/home/30579832,HARMLS,7142568,N,Y,29.6591906,-95.5311879
PAST SALE,August-10-2018,Condo/Co-op,8888 Benning Dr #293,Houston,TX,77031,105000,3,2.5,Commons At Westbrae Sec 01,1472,196770,1984,1026,71,288,Sold,,,http://www.redfin.com/TX/Houston/8888-Benning-Dr-77031/unit-293/home/30579772,HARMLS,82855757,N,Y,29.6591906,-95.5311879
PAST SALE,August-28-2019,Single Family Residential,9007 Petersham Dr,Houston,TX,77031,235000,4,2.5,Glenshire Sec 02,2483,8444,1972,643,95,40,Sold,,,http://www.redfin.com/TX/Houston/9007-Petersham-Dr-77031/home/30259656,HARMLS,36189153,N,Y,29.6546865,-95.541919
PAST SALE,February-1-2019,Single Family Residential,9146 Martin Heights Dr,Houston,TX,77031,198000,4,2.5,Villages Glenshire,1810,5306,2003,851,109,15,Sold,,,http://www.redfin.com/TX/Houston/9146-Martin-Heights-Dr-77031/home/29200776,HARMLS,77929225,N,Y,29.6556714,-95.54481
PAST SALE,June-2-2020,Single Family Residential,10510 Kiber Dr,Houston,TX,77031,115000,4,2.0,Braeburn Valley West,1784,8010,1970,364,64,33,Sold,,,http://www.redfin.com/TX/Houston/10510-Kiber-Dr-77031/home/30234783,HARMLS,86551018,N,Y,29.6663593,-95.5303567
PAST SALE,February-11-2020,Single Family Residential,9239 Rentur Dr,Houston,TX,77031,178888,3,2.0,Braeburn Valley West Sec 01,1822,7700,1970,476,98,,Sold,,,http://www.redfin.com/TX/Houston/9239-Rentur-Dr-77031/home/30235011,HARMLS,18559434,N,Y,29.6634235,-95.5407094
PAST SALE,December-15-2017,Single Family Residential,9110 Rentur Dr,Houston,TX,77031,164900,5,2.0,Braeburn Valley West Sec 01,1889,7749,1970,1264,87,17,Sold,,,http://www.redfin.com/TX/Houston/9110-Rentur-Dr-77031/home/30235039,HARMLS,50861048,N,Y,29.6646695,-95.5378802
PAST SALE,August-16-2019,Single Family Residential,9302 Mcafee Dr,Houston,TX,77031,149900,4,2.0,Braeburn Valley West Sec 01,1873,7700,1950,655,80,12,Sold,,,http://www.redfin.com/TX/Houston/9302-McAfee-Dr-77031/home/30235117,HARMLS,98539202,N,Y,29.664623,-95.5411605
PAST SALE,August-14-2019,Single Family Residential,9314 Kristin Dr,Houston,TX,77031,192000,3,2.0,Braeburn Valley West Sec 01,1753,7150,1970,657,110,25,Sold,,,http://www.redfin.com/TX/Houston/9314-Kristin-Dr-77031/home/30235171,HARMLS,59232287,N,Y,29.6654112,-95.5417345
PAST SALE,August-30-2019,Single Family Residential,9111 Twin Hills Dr,Houston,TX,77031,179000,4,2.0,Braeburn Valley West Sec 01,1553,12057,1971,641,115,,Sold,,,http://www.redfin.com/TX/Houston/9111-Twin-Hills-Dr-77031/home/30235260,HARMLS,66675842,N,Y,29.6667886,-95.5379212
PAST SALE,July-25-2018,Single Family Residential,9323 Twin Hills Dr,Houston,TX,77031,174900,3,2.0,Braeburn Valley West,1956,16140,1969,1042,89,,Sold,,,http://www.redfin.com/TX/Houston/9323-Twin-Hills-Dr-77031/home/30235338,HARMLS,71523954,N,Y,29.6666541,-95.5422266
PAST SALE,August-31-2018,Single Family Residential,9122 Twin Hills Dr,Houston,TX,77031,189900,3,2.0,Braeburn Valley West,1726,,1971,1005,110,29,Sold,,,http://www.redfin.com/TX/Houston/9122-Twin-Hills-Dr-77031/home/30235339,HARMLS,24598811,N,Y,29.6671942,-95.5384747
PAST SALE,September-28-2018,Single Family Residential,9403 Tooley Dr,Houston,TX,77031,199000,3,2.0,Braeburn Valley West Sec 01,1746,8965,1971,977,114,29,Sold,,,http://www.redfin.com/TX/Houston/9403-Tooley-Dr-77031/home/30235317,HARMLS,57040202,N,Y,29.6673053,-95.5428417
PAST SALE,June-6-2019,Single Family Residential,10502 Raydell Dr,Houston,TX,77031,159995,3,2.0,Braeburn Valley West Sec 01,1752,7700,1971,726,91,25,Sold,,,http://www.redfin.com/TX/Houston/10502-Raydell-Dr-77031/home/30235376,HARMLS,78590086,N,Y,29.665866,-95.5362401
PAST SALE,September-28-2018,Single Family Residential,9222 Tooley Dr,Houston,TX,77031,175000,3,2.0,Braeburn Valley West Sec 01,1735,7140,1971,977,101,,Sold,,,http://www.redfin.com/TX/Houston/9222-Tooley-Dr-77031/home/30235411,HARMLS,14224831,N,Y,29.6681185,-95.5401148
PAST SALE,July-14-2017,Single Family Residential,9306 Bankside Dr,Houston,TX,77031,145000,3,2.0,Braeburn Valley West Sec 02,1824,8140,1972,1418,79,,Sold,,,http://www.redfin.com/TX/Houston/9306-Bankside-Dr-77031/home/30260018,HARMLS,93434378,N,Y,29.6623165,-95.5412835
PAST SALE,April-30-2019,Single Family Residential,9410 Bankside Dr,Houston,TX,77031,219900,4,2.0,Braeburn Valley West Sec 02,2156,7700,1972,763,102,30,Sold,,,http://www.redfin.com/TX/Houston/9410-Bankside-Dr-77031/home/30260120,HARMLS,94223088,N,Y,29.6622812,-95.5432107
PAST SALE,May-29-2020,Single Family Residential,10803 Silkwood Dr,Houston,TX,77031,186500,4,2.0,Braeburn Vly West Sec 02,1966,7215,1977,368,95,31,Sold,,,http://www.redfin.com/TX/Houston/10803-Silkwood-Dr-77031/home/30260271,HARMLS,74459337,N,Y,29.6629068,-95.5374087
PAST SALE,July-27-2020,Single Family Residential,10842 Braeburn Bend Dr,Houston,TX,77031,144900,3,2.5,Westbrae Court Sec 01 R/p,1565,2821,1984,309,93,40,Sold,,,http://www.redfin.com/TX/Houston/10842-Braeburn-Bend-Dr-77031/home/30574727,HARMLS,24617135,N,Y,29.6628666,-95.5356661
PAST SALE,August-30-2019,Single Family Residential,8708 April Arbor Ct,Houston,TX,77031,210000,4,2.5,Westbrae Village,2526,4050,1999,641,83,58,Sold,,,http://www.redfin.com/TX/Houston/8708-April-Arbor-Ct-77031/home/30693491,HARMLS,72279859,N,Y,29.6616125,-95.5312761
PAST SALE,August-21-2020,Single Family Residential,12155 Poulson Dr,Houston,TX,77031,155000,3,2.0,Glenshire Patio Hms Sec,1692,3085,1978,284,92,63,Sold,,,http://www.redfin.com/TX/Houston/12155-Poulson-Dr-77031/home/30285352,HARMLS,22940032,N,Y,29.65309,-95.5369166
PAST SALE,February-14-2019,Single Family Residential,8803 Petersham Dr,Houston,TX,77031,325000,3,2.5,Glenshire Sec 04,3040,10980,1974,838,107,29,Sold,,,http://www.redfin.com/TX/Houston/8803-Petersham-Dr-77031/home/30285379,HARMLS,40479770,N,Y,29.6547359,-95.5391103
PAST SALE,June-4-2019,Single Family Residential,12419 Lightcliffe Dr,Houston,TX,77031,205000,4,2.0,Glenshire Sec 06,2178,9912,1976,728,94,40,Sold,,,http://www.redfin.com/TX/Houston/12419-Lightcliffe-Dr-77031/home/30293181,HARMLS,33212696,N,Y,29.6476027,-95.5370191
PAST SALE,March-18-2020,Single Family Residential,8612 Torcello St,Houston,TX,77031,170000,3,2.5,Venetian Luxury Homes,1356,1995,2017,440,125,100,Sold,,,http://www.redfin.com/TX/Houston/8612-Torcello-St-77031/home/144615510,HARMLS,88309432,N,Y,29.6591977,-95.5289839
PAST SALE,June-5-2020,Single Family Residential,8707 Torcello St,Houston,TX,77031,175000,3,2.5,Venetian Luxury Homes,1296,2035,2017,361,135,100,Sold,,,http://www.redfin.com/TX/Houston/8707-Torcello-St-77031/home/144615515,HARMLS,26211934,N,Y,29.6590122,-95.5300684
PAST SALE,July-25-2019,Single Family Residential,9130 Rentur Dr,Houston,TX,77031,199900,4,2.0,Braeburn Valley West,2046,7150,1970,677,98,33,Sold,,,http://www.redfin.com/TX/Houston/9130-Rentur-Dr-77031/home/30235031,HARMLS,71148356,N,Y,29.6642241,-95.5388232
PAST SALE,June-29-2020,Single Family Residential,9231 Tooley Dr,Houston,TX,77031,184500,4,2.0,Braeburn Valley West Sec 01,1893,7973,1971,337,97,30,Sold,,,http://www.redfin.com/TX/Houston/9231-Tooley-Dr-77031/home/30235324,HARMLS,16961412,N,Y,29.6675713,-95.5407914
PAST SALE,November-13-2018,Townhouse,9200 W Bellfort St #50,Houston,TX,77031,75000,2,1.5,Bellfort Place Condo,1179,253290,1979,931,64,217,Sold,,,http://www.redfin.com/TX/Houston/9200-W-Bellfort-Ave-77031/unit-50/home/30397198,HARMLS,43908234,N,Y,29.6564828,-95.5405044
PAST SALE,July-23-2019,Townhouse,9200 W Bellfort St #100,Houston,TX,77031,59900,2,2.5,Bellfort Place Condo,1188,253290,1979,679,50,210,Sold,,,http://www.redfin.com/TX/Houston/9200-W-Bellfort-Ave-77031/unit-100/home/30397239,HARMLS,73534416,N,Y,29.6564828,-95.5405044
PAST SALE,April-21-2020,Condo/Co-op,9200 W Bellfort St #101,Houston,TX,77031,89000,2,1.5,Bellfort Place Condo,1152,253290,1979,406,77,224,Sold,,,http://www.redfin.com/TX/Houston/9200-W-Bellfort-Ave-77031/unit-101/home/30397254,HARMLS,83607329,N,Y,29.6564828,-95.5405044
PAST SALE,July-12-2018,Condo/Co-op,8888 Benning Dr #201,Houston,TX,77031,99900,2,1.5,Commons At Westbrae Sec 01,1204,196770,1984,1055,83,250,Sold,,,http://www.redfin.com/TX/Houston/8888-Benning-Dr-77031/unit-201/home/30579811,HARMLS,27903150,N,Y,29.6591906,-95.5311879
PAST SALE,December-20-2019,Condo/Co-op,8888 Benning Dr #222,Houston,TX,77031,110000,3,2.5,Commons At Westbrae Sec 01,1472,196770,1984,529,75,250,Sold,,,http://www.redfin.com/TX/Houston/8888-Benning-Dr-77031/unit-222/home/30579806,HARMLS,51524545,N,Y,29.6591906,-95.5311879
PAST SALE,January-13-2020,Single Family Residential,10915 Westbrae Village Dr,Houston,TX,77031,159990,3,3.0,Westbrae Village,1278,4140,1999,505,125,58,Sold,,,http://www.redfin.com/TX/Houston/10915-Westbrae-Village-Dr-77031/home/30693341,HARMLS,97996101,N,Y,29.6615486,-95.5293933
PAST SALE,December-7-2018,Single Family Residential,10919 Westbrae Meadows Dr,Houston,TX,77031,171000,3,2.0,Westbrae Village,1560,4050,1999,907,110,58,Sold,,,http://www.redfin.com/TX/Houston/10919-Westbrae-Meadows-Dr-77031/home/30693329,HARMLS,77458821,N,Y,29.6613859,-95.5300492
PAST SALE,August-28-2019,Single Family Residential,8718 Westbrae Park Ln,Houston,TX,77031,159800,3,2.0,Westbrae Village,1560,4182,1999,643,102,50,Sold,,,http://www.redfin.com/TX/Houston/8718-Westbrae-Park-Ln-77031/home/30693507,HARMLS,48008095,N,Y,29.6621359,-95.5304592
PAST SALE,October-2-2017,Single Family Residential,9232 Vickijohn Dr,Houston,TX,77031,219900,4,2.0,Braeburn Valley West Sec 02,2520,7150,1974,1338,87,29,Sold,,,http://www.redfin.com/TX/Houston/9232-Vickijohn-Dr-77031/home/30260397,HARMLS,66067514,N,Y,29.6616071,-95.5404429
PAST SALE,April-25-2018,Single Family Residential,9107 Weymouth Dr,Houston,TX,77031,199750,4,2.5,Glenshire Sec 06,2070,8710,1974,1133,96,38,Sold,,,http://www.redfin.com/TX/Houston/9107-Weymouth-Dr-77031/home/30292591,HARMLS,55224238,N,Y,29.651883,-95.5425956
PAST SALE,December-28-2017,Single Family Residential,9607 Amberwick Dr,Houston,TX,77031,179900,4,2.0,Glenshire,2106,14537,1972,1251,85,38,Sold,,,http://www.redfin.com/TX/Houston/9607-Amberwick-Dr-77031/home/30272446,HARMLS,81185161,N,Y,29.6453425,-95.5479266
PAST SALE,December-4-2017,Single Family Residential,12206 Appleby,Houston,TX,77031,158900,3,2.0,Glenshire,1844,7442,1973,1275,86,38,Sold,,,http://www.redfin.com/TX/Houston/12206-Appleby-Dr-77031/home/30285204,HARMLS,80414568,N,Y,29.6453349,-95.5437848
PAST SALE,July-31-2017,Single Family Residential,8814 Tavistock Dr,Houston,TX,77031,215000,4,2.0,Glenshire Sec 08,2380,9217,1976,1401,90,36,Sold,,,http://www.redfin.com/TX/Houston/8814-Tavistock-Dr-77031/home/30343544,HARMLS,32095049,N,Y,29.6503072,-95.5387207
PAST SALE,May-2-2018,Single Family Residential,12523 Lancelot Dr,Houston,TX,77031,189000,3,2.0,Glenshire Sec 05,1745,7605,1971,1126,108,42,Sold,,,http://www.redfin.com/TX/Houston/12523-Lancelot-Dr-77031/home/30285259,HARMLS,777300,N,Y,29.6447698,-95.5421856
PAST SALE,February-23-2018,Single Family Residential,8743 Westbrae Park Ln,Houston,TX,77031,199000,4,2.5,Westbrae Village,2526,4050,1999,1194,79,62,Sold,,,http://www.redfin.com/TX/Houston/8743-Westbrae-Park-Ln-77031/home/30693496,HARMLS,33851793,N,Y,29.6618728,-95.5313612
PAST SALE,November-9-2017,Single Family Residential,9215 Rentur Dr,Houston,TX,77031,165000,4,2.0,Braeburn Valley West Sec 01,1716,7367,1970,1300,96,29,Sold,,,http://www.redfin.com/TX/Houston/9215-Rentur-Dr-77031/home/30235009,HARMLS,44731875,N,Y,29.6634296,-95.5394793
PAST SALE,January-26-2018,Single Family Residential,9311 Tooley Dr,Houston,TX,77031,109900,5,2.0,Braeburn Valley West Sec 01,2434,8400,1971,1222,45,29,Sold,,,http://www.redfin.com/TX/Houston/9311-Tooley-Dr-77031/home/30235307,HARMLS,98875121,N,Y,29.6675154,-95.541591
PAST SALE,June-14-2018,Single Family Residential,10914 Silkwood Dr,Houston,TX,77031,184900,4,2.0,Braeburn Valley West,2117,7800,1972,1083,87,29,Sold,,,http://www.redfin.com/TX/Houston/10914-Silkwood-Dr-77031/home/30260204,HARMLS,66579950,N,Y,29.6609208,-95.5379622
PAST SALE,July-22-2016,Single Family Residential,9210 Meaux Dr,Houston,TX,77031,119000,3,2.0,Braeburn Valley West Sec 02,1686,6780,1973,1775,71,26,Sold,,,http://www.redfin.com/TX/Houston/9210-Meaux-Dr-77031/home/30260285,HARMLS,7356571,N,Y,29.6631892,-95.5392948
PAST SALE,November-3-2017,Single Family Residential,9123 Bankside Dr,Houston,TX,77031,156900,3,2.0,Braeburn Valley West,1856,9807,1974,1306,85,17,Sold,,,http://www.redfin.com/TX/Houston/9123-Bankside-Dr-77031/home/30260309,HARMLS,28269365,N,Y,29.6621221,-95.5383722
PAST SALE,April-26-2017,Single Family Residential,10614 Caravan,Houston,TX,77031,140000,3,2.0,Braeburn Valley West Sec 1,1844,13381,1968,1497,76,395,Sold,,,http://www.redfin.com/TX/Houston/10614-Caravan-Dr-77031/home/30235455,HARMLS,126046,N,Y,29.6646326,-95.5344361
PAST SALE,March-31-2017,Single Family Residential,9022 Weymouth Dr,Houston,TX,77031,200000,4,2.5,Glenshire Sec 06,2466,8820,1975,1523,81,33,Sold,,,http://www.redfin.com/TX/Houston/9022-Weymouth-Dr-77031/home/30292635,HARMLS,84943156,N,Y,29.6526238,-95.5421446
PAST SALE,,Single Family Residential,11819 Chessington Dr,Houston,TX,77031,,4,2.5,,2257,7999,1971,,,,Sold,,,http://www.redfin.com/TX/Houston/11819-Chessington-Dr-77031/home/30252776,HARMLS,,N,Y,29.650057,-95.5485008
PAST SALE,June-14-2017,Single Family Residential,12506 Chessington Dr,Houston,TX,77031,195000,5,2.0,Glenshire Sec 05,2319,8865,1973,1448,84,38,Sold,,,http://www.redfin.com/TX/Houston/12506-Chessington-Dr-77031/home/30285196,HARMLS,99628451,N,Y,29.6439845,-95.5437028
PAST SALE,,Single Family Residential,12310 Gainsborough,Houston,TX,77031,,3,2.0,,1927,7440,1975,,,,Sold,,,http://www.redfin.com/TX/Houston/12310-Gainsborough-Dr-77031/home/30294703,HARMLS,,N,Y,29.6449622,-95.5521712
PAST SALE,June-9-2017,Single Family Residential,9719 Ravensworth Dr,Houston,TX,77031,170000,3,2.0,Glenshire Sec 07,1865,7200,1975,1453,91,450,Sold,,,http://www.redfin.com/TX/Houston/9719-Ravensworth-Dr-77031/home/30294736,HARMLS,49612944,N,Y,29.6454289,-95.5501822
PAST SALE,,Single Family Residential,9242 Bankside Dr,Houston,TX,77031,,4,2.5,,2154,7700,1973,,,,Sold,,,http://www.redfin.com/TX/Houston/9242-Bankside-Dr-77031/home/30260275,HARMLS,,N,Y,29.6622954,-95.5407094
PAST SALE,April-19-2018,Single Family Residential,9607 S Petersham Dr,Houston,TX,77031,189000,4,2.5,Glenshire Sec 01,2012,9834,1972,1139,94,37,Sold,,,http://www.redfin.com/TX/Houston/9607-S-Petersham-Dr-77031/home/30252622,HARMLS,95030483,N,Y,29.6487637,-95.5481317
PAST SALE,July-21-2016,Single Family Residential,12311 Chessington Dr,Houston,TX,77031,179900,5,2.0,Glenshire Sec 03,2224,8219,1971,1776,81,36,Sold,,,http://www.redfin.com/TX/Houston/12311-Chessington-Dr-77031/home/30272395,HARMLS,93154529,N,Y,29.6459492,-95.5463683
PAST SALE,May-17-2018,Single Family Residential,12506 Millbanks Dr,Houston,TX,77031,200000,4,2.0,Glenshire Sec 05,2074,13708,1973,1111,96,38,Sold,,,http://www.redfin.com/TX/Houston/12506-Millbanks-Dr-77031/home/30285150,HARMLS,95914820,N,Y,29.6429813,-95.5439488
PAST SALE,December-4-2017,Single Family Residential,12426 Millbanks Dr,Houston,TX,77031,189900,3,2.0,Glenshire,1726,8040,1973,1275,110,38,Sold,,,http://www.redfin.com/TX/Houston/12426-Millbanks-Dr-77031/home/30285191,HARMLS,50871343,N,Y,29.6435687,-95.545015
PAST SALE,,Single Family Residential,9111 Abbeydale Dr,Houston,TX,77031,,4,2.5,,2279,9575,1974,,,,Sold,,,http://www.redfin.com/TX/Houston/9111-Abbeydale-Dr-77031/home/30293229,HARMLS,,N,Y,29.6495459,-95.5412835
PAST SALE,May-23-2018,Single Family Residential,9002 Tavistock Dr,Houston,TX,77031,241973,4,3.0,Glenshire Sec 06,2888,10338,1975,1105,84,42,Sold,,,http://www.redfin.com/TX/Houston/9002-Tavistock-Dr-77031/home/30293221,HARMLS,22148955,N,Y,29.6499885,-95.5398688
PAST SALE,November-16-2016,Townhouse,8888 Benning Dr #181,Houston,TX,77031,90000,2,1.5,Commons At Westbrae Sec 01,1204,,1984,1658,75,239,Sold,,,http://www.redfin.com/TX/Houston/8888-Benning-Dr-77031/unit-181/home/30579847,HARMLS,64630413,N,Y,29.6591906,-95.5311879
PAST SALE,August-21-2017,Single Family Residential,9207 Meaux Dr,Houston,TX,77031,174000,4,2.0,Braeburn Valley West Sec 02,2093,7980,1971,1380,83,200,Sold,,,http://www.redfin.com/TX/Houston/9207-Meaux-Dr-77031/home/30260249,HARMLS,35997142,N,Y,29.6627265,-95.5390283
PAST SALE,March-17-2017,Single Family Residential,12215 Fieldsboro Dr,Houston,TX,77031,195000,4,2.0,Glenshire Sec 05,1860,7406,1971,1537,105,406,Sold,,,http://www.redfin.com/TX/Houston/12215-Fieldsboro-Dr-77031/home/30285232,HARMLS,96249745,N,Y,29.6451807,-95.5442359
PAST SALE,November-30-2017,Single Family Residential,9015 Tavistock Dr,Houston,TX,77031,215000,4,2.0,Glenshire,2172,8613,1976,1279,99,38,Sold,,,http://www.redfin.com/TX/Houston/9015-Tavistock-Dr-77031/home/30293234,HARMLS,56760521,N,Y,29.6492494,-95.5402789
PAST SALE,March-19-2018,Single Family Residential,8907 Haverstock Dr,Houston,TX,77031,165000,4,2.5,Glenshire Sec 04,2079,8864,1974,1170,79,38,Sold,,,http://www.redfin.com/TX/Houston/8907-Haverstock-Dr-77031/home/30285413,HARMLS,5237834,N,Y,29.6537754,-95.5399513
PAST SALE,September-22-2017,Single Family Residential,9703 Harrowgate Dr,Houston,TX,77031,167000,3,2.0,Glenshire Sec 07,1896,13082,1975,1348,88,38,Sold,,,http://www.redfin.com/TX/Houston/9703-Harrowgate-Dr-77031/home/30294654,HARMLS,55188844,N,Y,29.644195,-95.5505513
PAST SALE,November-21-2016,Single Family Residential,11635 Chessington,Houston,TX,77031,160000,3,2.0,Glenshire,1811,8490,1965,1653,88,435,Sold,,,http://www.redfin.com/TX/Houston/11635-Chessington-Dr-77031/home/30252251,HARMLS,27982453,N,Y,29.6518633,-95.5506333
PAST SALE,June-5-2017,Single Family Residential,9411 Portal Dr,Houston,TX,77031,164800,3,2.0,Braeburn Valley West Sec 02,1738,7150,1973,1457,95,23,Sold,,,http://www.redfin.com/TX/Houston/9411-Portal-Dr-77031/home/30260512,HARMLS,37372368,N,Y,29.6595087,-95.5431492
PAST SALE,January-5-2017,Townhouse,8888 Benning Dr #204,Houston,TX,77031,91000,3,2.5,Commons At Westbrae Sec 01,1468,,1984,1608,62,239,Sold,,,http://www.redfin.com/TX/Houston/8888-Benning-Dr-77031/unit-204/home/30579816,HARMLS,1555464,N,Y,29.6591906,-95.5311879
PAST SALE,April-19-2017,Single Family Residential,12210 Chessington Dr,Houston,TX,77031,159000,4,2.5,Glenshire Sec 03,2319,7686,1972,1504,69,37,Sold,,,http://www.redfin.com/TX/Houston/12210-Chessington-Dr-77031/home/30272361,HARMLS,33341202,N,Y,29.6467958,-95.547168
PAST SALE,June-5-2018,Single Family Residential,9015 Petersham Dr,Houston,TX,77031,195000,4,2.0,Glenshire Sec 02,2183,8862,1973,1092,89,42,Sold,,,http://www.redfin.com/TX/Houston/9015-Petersham-Dr-77031/home/30259654,HARMLS,63378321,N,Y,29.6546694,-95.5423291
PAST SALE,July-27-2018,Single Family Residential,9410 Meaux Dr,Houston,TX,77031,225000,4,3.5,Braeburn Valley West,2702,7700,1971,1040,83,29,Sold,,,http://www.redfin.com/TX/Houston/9410-Meaux-Dr-77031/home/30260029,HARMLS,51952774,N,Y,29.6630466,-95.5432517
PAST SALE,January-3-2018,Single Family Residential,9307 Claridge,Houston,TX,77031,165000,3,2.0,Braeburn Valley w,1764,7150,1971,1245,94,28,Sold,,,http://www.redfin.com/TX/Houston/9307-Claridge-Dr-77031/home/30260320,HARMLS,29158869,N,Y,29.660286,-95.5412835
PAST SALE,November-21-2017,Single Family Residential,10135 Altonbury Ln,Houston,TX,77031,289000,3,2.5,Braeburn Gardens,2264,28500,1972,1288,128,,Sold,,,http://www.redfin.com/TX/Houston/10135-Altonbury-Ln-77031/home/29987087,HARMLS,44186327,N,Y,29.6448838,-95.5567443
PAST SALE,,Single Family Residential,9203 Twin Hls,Houston,TX,77031,,4,2.0,,2779,9750,1971,,,,Sold,,,http://www.redfin.com/TX/Houston/9203-Twin-Hills-Dr-77031/home/30235262,HARMLS,,N,Y,29.6667841,-95.5391103
PAST SALE,May-24-2018,Single Family Residential,11931 N Hanworth Dr,Houston,TX,77031,220000,4,2.5,Glenshire Sec 01,2154,9534,1971,1104,102,42,Sold,,,http://www.redfin.com/TX/Houston/11931-N-Hanworth-Dr-77031/home/30252854,HARMLS,5263868,N,Y,29.648437,-95.5505513
PAST SALE,April-12-2018,Single Family Residential,11723 N Kensington,Houston,TX,77031,156000,3,2.0,Glenshire,1687,7892,1972,1146,92,38,Sold,,,http://www.redfin.com/TX/Houston/11723-N-Kensington-Dr-77031/home/30252945,HARMLS,59517263,N,Y,29.6507442,-95.5514945
PAST SALE,September-22-2017,Single Family Residential,9314 Vickijohn Dr,Houston,TX,77031,164900,4,2.0,Braeburn Valley West Sec 02,1826,7700,1972,1348,90,327,Sold,,,http://www.redfin.com/TX/Houston/9314-Vickijohn-Dr-77031/home/30260144,HARMLS,94634542,N,Y,29.6615523,-95.541755
PAST SALE,December-22-2017,Single Family Residential,11107 Silkwood Dr,Houston,TX,77031,142000,4,2.0,Braeburn Valley West Sec 02,2039,7540,1972,1257,70,27,Sold,,,http://www.redfin.com/TX/Houston/11107-Silkwood-Dr-77031/home/30260796,HARMLS,97030608,N,Y,29.6579214,-95.5373881
PAST SALE,,Single Family Residential,12330 Millbanks Dr,Houston,TX,77031,,3,2.0,,1714,7800,1972,,,,Sold,,,http://www.redfin.com/TX/Houston/12330-Millbanks-Dr-77031/home/30272372,HARMLS,,N,Y,29.6445782,-95.5467784
PAST SALE,,Single Family Residential,8711 Tavistock Dr,Houston,TX,77031,,4,3.0,,2556,8640,1977,,,,Sold,,,http://www.redfin.com/TX/Houston/8711-Tavistock-Dr-77031/home/30343723,HARMLS,,N,Y,29.6497884,-95.5376342
PAST SALE,May-3-2018,Townhouse,8888 Benning Dr #255,Houston,TX,77031,105000,3,2.5,Commons At Westbrae Sec 01,1472,196770,1984,1125,71,288,Sold,,,http://www.redfin.com/TX/Houston/8888-Benning-Dr-77031/unit-255/home/30579820,HARMLS,13447782,N,Y,29.6591906,-95.5311879
PAST SALE,,Single Family Residential,9627 Hanworth,Houston,TX,77031,,3,2.0,,2300,9150,1973,,,,Sold,,,http://www.redfin.com/TX/Houston/9627-S-Hanworth-Dr-77031/home/30252640,HARMLS,,N,Y,29.6476201,-95.5485008
PAST SALE,July-18-2016,Single Family Residential,12003 Chessington Dr,Houston,TX,77031,219990,4,2.5,Glenshire Sec 01,2319,8112,1971,1779,95,36,Sold,,,http://www.redfin.com/TX/Houston/12003-Chessington-Dr-77031/home/30252671,HARMLS,73802741,N,Y,29.6493258,-95.5476396
PAST SALE,August-23-2016,Single Family Residential,12023 Chessington Dr,Houston,TX,77031,155000,3,2.0,Glenshire,1716,11231,1971,1743,90,36,Sold,,,http://www.redfin.com/TX/Houston/12023-Chessington-Dr-77031/home/30252681,HARMLS,34855849,N,Y,29.6486363,-95.5468604
PAST SALE,July-20-2017,Single Family Residential,12223 Chartwell Dr,Houston,TX,77031,137500,3,2.0,Glenshire Sec 03,1644,10024,1972,1412,84,415,Sold,,,http://www.redfin.com/TX/Houston/12223-Chartwell-Dr-77031/home/30272443,HARMLS,65421445,N,Y,29.6458533,-95.5486648
PAST SALE,June-13-2016,Single Family Residential,12207 Fieldsboro Dr,Houston,TX,77031,175000,4,2.0,Glenshire,1878,7437,1971,1814,93,36,Sold,,,http://www.redfin.com/TX/Houston/12207-Fieldsboro-Dr-77031/home/30285230,HARMLS,83158034,N,Y,29.6455503,-95.5440309
PAST SALE,,Single Family Residential,12319 Vanderheath Dr,Houston,TX,77031,,4,2.0,,1888,8251,1974,,,,Sold,,,http://www.redfin.com/TX/Houston/12319-Vanderheath-Dr-77031/home/30294528,HARMLS,,N,Y,29.6426256,-95.5470654
PAST SALE,July-14-2017,Single Family Residential,9630 W Airport Blvd,Houston,TX,77031,178000,3,2.0,Glenshire Sec 09,1700,8385,1970,1418,105,38,Sold,,,http://www.redfin.com/TX/Houston/9630-W-Airport-Blvd-77031/home/30345392,HARMLS,48441838,N,Y,29.6416066,-95.5498541
PAST SALE,February-14-2017,Single Family Residential,12410 Caren Ct,Houston,TX,77031,200000,4,2.0,Glenshire,2073,11680,1977,1568,96,450,Sold,,,http://www.redfin.com/TX/Houston/12410-Caren-Ct-77031/home/30345444,HARMLS,71977174,N,Y,29.6416144,-95.5453431
PAST SALE,,Single Family Residential,12211 Wembley Dr,Houston,TX,77031,,3,2.0,,1835,7377,1971,,,,Sold,,,http://www.redfin.com/TX/Houston/12211-Wembley-Dr-77031/home/30272290,HARMLS,,N,Y,29.6459674,-95.544851
PAST SALE,,Single Family Residential,9510 Ravensworth Dr,Houston,TX,77031,,3,2.0,,1927,10400,1975,,,,Sold,,,http://www.redfin.com/TX/Houston/9510-Ravensworth-Dr-77031/home/30294542,HARMLS,,N,Y,29.6420622,-95.5438053
PAST SALE,,Single Family Residential,12226 Gainsborough Dr,Houston,TX,77031,,3,2.0,,1927,7440,1975,,,,Sold,,,http://www.redfin.com/TX/Houston/12226-Gainsborough-Dr-77031/home/30294706,HARMLS,,N,Y,29.6457928,-95.5522738
PAST SALE,July-21-2017,Single Family Residential,9471 W Airport,Houston,TX,77031,150000,3,2.5,Glenshire,2224,10656,1983,1411,67,38,Sold,,,http://www.redfin.com/TX/Houston/9471-W-Airport-Blvd-77031/home/30345753,HARMLS,9646963,N,Y,29.6410727,-95.5437233
PAST SALE,April-28-2017,Single Family Residential,9619 S Hanworth Dr,Houston,TX,77031,149900,3,2.0,Glenshire,1622,7772,1973,1495,92,38,Sold,,,http://www.redfin.com/TX/Houston/9619-S-Hanworth-Dr-77031/home/30252631,HARMLS,48979471,N,Y,29.6477726,-95.5480907
PAST SALE,October-20-2016,Single Family Residential,12407 Tottenham Dr,Houston,TX,77031,223600,4,2.5,Glenshire,2109,10340,1975,1685,106,36,Sold,,,http://www.redfin.com/TX/Houston/12407-Tottenham-Dr-77031/home/30293208,HARMLS,13471804,N,Y,29.6480188,-95.5389462
PAST SALE,August-18-2017,Single Family Residential,9631 W Airport Blvd,Houston,TX,77031,160000,3,2.0,Glenshire Sec 09,1794,8580,1977,1383,89,450,Sold,,,http://www.redfin.com/TX/Houston/9631-W-Airport-Blvd-77031/home/30345715,HARMLS,69850144,N,Y,29.6409296,-95.5498541
PAST SALE,August-15-2016,Single Family Residential,11918 Stanwood Dr,Houston,TX,77031,209000,4,2.5,Glenshire,2351,9000,1972,1751,89,430,Sold,,,http://www.redfin.com/TX/Houston/11918-Stanwood-Dr-77031/home/30259603,HARMLS,27819204,N,Y,29.6518842,-95.544728
PAST SALE,December-9-2016,Single Family Residential,11706 Wilson Pnes,Houston,TX,77031,177900,4,3.0,Villages of Glenshire,1810,5754,2003,1635,98,13,Sold,,,http://www.redfin.com/TX/Houston/11706-Wilson-Pines-Ct-77031/home/29200778,HARMLS,82957971,N,Y,29.6552584,-95.544974
PAST SALE,,Single Family Residential,10531 Huff,Houston,TX,77031,,4,2.0,,1702,8755,1970,,,,Sold,,,http://www.redfin.com/TX/Houston/10531-Huff-Dr-77031/home/30234832,HARMLS,,N,Y,29.6652053,-95.5293523
PAST SALE,June-14-2017,Single Family Residential,8903 Westbrae Gardens Ct,Houston,TX,77031,134900,3,2.5,Westbrae Gardens,1340,5445,2000,1448,101,,Sold,,,http://www.redfin.com/TX/Houston/8903-Westbrae-Gardens-Ct-77031/home/30702722,HARMLS,39885444,N,Y,29.659579,-95.5322631
PAST SALE,May-31-2017,Single Family Residential,9326 Rentur Dr,Houston,TX,77031,157500,4,3.0,Braeburn Valley West Sec 01,2172,7150,1969,1462,73,400,Sold,,,http://www.redfin.com/TX/Houston/9326-Rentur-Dr-77031/home/30235067,HARMLS,68587900,N,Y,29.6638714,-95.5424111
PAST SALE,August-3-2016,Single Family Residential,9218 Portal Dr,Houston,TX,77031,167900,3,2.0,Braeburn Valley West,2003,7150,1972,1763,84,30,Sold,,,http://www.redfin.com/TX/Houston/9218-Portal-Dr-77031/home/30260044,HARMLS,81702045,N,Y,29.6600168,-95.5396228
PAST SALE,August-9-2016,Single Family Residential,11007 Silkwood Dr,Houston,TX,77031,159500,3,2.0,Braeburn Valley West Sec 02,1738,7638,1972,1757,92,300,Sold,,,http://www.redfin.com/TX/Houston/11007-Silkwood-Dr-77031/home/30260184,HARMLS,82995294,N,Y,29.6595927,-95.5373471
PAST SALE,October-7-2016,Single Family Residential,9338 Benning Dr,Houston,TX,77031,169900,3,2.0,Braeburn Valley West Sec 02,2062,8250,1972,1698,82,350,Sold,,,http://www.redfin.com/TX/Houston/9338-Benning-Dr-77031/home/30260730,HARMLS,16777269,N,Y,29.6584633,-95.5422471
PAST SALE,,Single Family Residential,8911 Abbeydale Dr,Houston,TX,77031,,4,2.5,,2098,10000,1976,,,,Sold,,,http://www.redfin.com/TX/Houston/8911-Abbeydale-Dr-77031/home/30343752,HARMLS,,N,Y,29.6504752,-95.5395613
PAST SALE,September-8-2017,Single Family Residential,9326 Mcafee Dr,Houston,TX,77031,170000,3,2.0,Braeburn Valley West,1716,7150,1970,1362,99,27,Sold,,,http://www.redfin.com/TX/Houston/9326-McAfee-Dr-77031/home/30235088,HARMLS,94994777,N,Y,29.664615,-95.5424316
PAST SALE,February-28-2018,Single Family Residential,9311 Claridge Dr,Houston,TX,77031,195000,3,2.0,Braeburn Valley West Sec 02,1824,7150,1971,1189,107,27,Sold,,,http://www.redfin.com/TX/Houston/9311-Claridge-Dr-77031/home/30260300,HARMLS,17831346,N,Y,29.6603242,-95.5414475
PAST SALE,April-20-2018,Single Family Residential,9411 Benning Dr,Houston,TX,77031,165000,4,2.0,Braeburn Valley West Sec 02,1893,7150,1975,1138,87,27,Sold,,,http://www.redfin.com/TX/Houston/9411-Benning-Dr-77031/home/30260535,HARMLS,52072012,N,Y,29.6579779,-95.5430672
PAST SALE,,Single Family Residential,9203 Mcafee,Houston,TX,77031,,3,2.0,,1739,7150,1970,,,,Sold,,,http://www.redfin.com/TX/Houston/9203-McAfee-Dr-77031/home/30235049,HARMLS,,N,Y,29.6645817,-95.5389052
PAST SALE,May-26-2017,Single Family Residential,9411 Kristin Dr,Houston,TX,77031,164500,3,2.0,Braeburn Valley West Sec 01,1784,7700,1970,1467,92,25,Sold,,,http://www.redfin.com/TX/Houston/9411-Kristin-Dr-77031/home/30235104,HARMLS,87306462,N,Y,29.6649201,-95.5432312
PAST SALE,,Single Family Residential,9223 Willow Meadow Dr,Houston,TX,77031,,4,2.0,,2178,7150,1968,,,,Sold,,,http://www.redfin.com/TX/Houston/9223-Willow-Meadow-Dr-77031/home/30235157,HARMLS,,N,Y,29.6657487,-95.5401354
PAST SALE,,Single Family Residential,9426 Willow Meadow Dr,Houston,TX,77031,,3,2.5,,1882,10981,1978,,,,Sold,,,http://www.redfin.com/TX/Houston/9426-Willow-Meadow-Dr-77031/home/30235269,HARMLS,,N,Y,29.6661727,-95.5440309
PAST SALE,January-10-2017,Single Family Residential,9210 Vickijohn Dr,Houston,TX,77031,149000,3,2.0,Braeburn Valley West Sec 02,1836,7276,1974,1603,81,33,Sold,,,http://www.redfin.com/TX/Houston/9210-Vickijohn-Dr-77031/home/30260343,HARMLS,36005709,N,Y,29.6616584,-95.5392128
PAST SALE,February-17-2017,Single Family Residential,9314 Sanford Rd,Houston,TX,77031,169900,4,2.0,Braeburn Valley West,1904,7150,1972,1565,89,385,Sold,,,http://www.redfin.com/TX/Houston/9314-Sanford-Rd-77031/home/30260498,HARMLS,90902448,N,Y,29.6592366,-95.5410169
PAST SALE,August-23-2017,Single Family Residential,9207 Portal Dr,Houston,TX,77031,166500,4,2.0,Braeburn Valley West Sec 02,2052,7150,1972,1378,81,17,Sold,,,http://www.redfin.com/TX/Houston/9207-Portal-Dr-77031/home/30260526,HARMLS,39462136,N,Y,29.6595929,-95.5389667
PAST SALE,,Single Family Residential,10707 Silkwood Dr,Houston,TX,77031,,3,2.0,,2188,7215,1977,,,,Sold,,,http://www.redfin.com/TX/Houston/10707-Silkwood-Dr-77031/home/30235024,HARMLS,,N,Y,29.6641908,-95.5369166
PAST SALE,,Single Family Residential,8906 Benning Dr,Houston,TX,77031,,3,2.5,,2038,3500,1999,,,,Sold,,,http://www.redfin.com/TX/Houston/8906-Benning-Dr-77031/home/30702692,HARMLS,,N,Y,29.6591545,-95.5321606
PAST SALE,August-31-2016,Single Family Residential,9106 Martin Heights Dr,Houston,TX,77031,140000,3,2.0,Villages Glenshire,1376,5266,2003,1735,102,15,Sold,,,http://www.redfin.com/TX/Houston/9106-Martin-Heights-Dr-77031/home/29200760,HARMLS,92108824,N,Y,29.6558884,-95.5433953
PAST SALE,November-17-2017,Single Family Residential,11927 N Hanworth Dr,Houston,TX,77031,178500,3,2.0,Glenshire Sec 01,1683,8836,1971,1292,106,38,Sold,,,http://www.redfin.com/TX/Houston/11927-N-Hanworth-Dr-77031/home/30252802,HARMLS,67973818,N,Y,29.6486341,-95.5506948
PAST SALE,,Single Family Residential,11727 Chessington Dr,Houston,TX,77031,,3,2.0,,1830,8040,1967,,,,Sold,,,http://www.redfin.com/TX/Houston/11727-Chessington-Dr-77031/home/30252248,HARMLS,,N,Y,29.6509601,-95.549567
PAST SALE,,Single Family Residential,12431 Wrenthorpe Dr,Houston,TX,77031,,3,2.5,,2058,9196,1975,,,,Sold,,,http://www.redfin.com/TX/Houston/12431-Wrenthorpe-Dr-77031/home/30293205,HARMLS,,N,Y,29.6471877,-95.5393973
PAST SALE,November-2-2017,Single Family Residential,9103 Rentur Dr,Houston,TX,77031,159000,3,2.0,Braeburn Valley West Sec 01,1820,8800,1970,1307,87,,Sold,,,http://www.redfin.com/TX/Houston/9103-Rentur-Dr-77031/home/30234991,HARMLS,94806346,N,Y,29.6642371,-95.5374292
PAST SALE,January-2-2018,Single Family Residential,9114 Tooley Dr,Houston,TX,77031,165000,4,2.0,Braeburn Valley West,1794,9750,1969,1246,92,29,Sold,,,http://www.redfin.com/TX/Houston/9114-Tooley-Dr-77031/home/30235375,HARMLS,58817890,N,Y,29.6678732,-95.5378802
PAST SALE,April-17-2018,Single Family Residential,9126 Gustine Ln,Houston,TX,77031,164900,3,2.0,Braeburn Valley West,1580,12148,1971,1141,104,17,Sold,,,http://www.redfin.com/TX/Houston/9126-Gustine-Ln-77031/home/30235402,HARMLS,56441269,N,Y,29.6687374,-95.5377162
PAST SALE,July-14-2017,Single Family Residential,9418 Bankside Dr,Houston,TX,77031,157000,3,2.0,Braeburn Valley West Sec 02,1702,7150,1972,1418,92,27,Sold,,,http://www.redfin.com/TX/Houston/9418-Bankside-Dr-77031/home/30260118,HARMLS,4022408,N,Y,29.6622858,-95.5436413
PAST SALE,July-16-2018,Single Family Residential,10730 Silkwood Dr,Houston,TX,77031,99500,3,2.0,Braeburn Valley West,1703,7423,1970,1051,58,29,Sold,,,http://www.redfin.com/TX/Houston/10730-Silkwood-Dr-77031/home/30260369,HARMLS,68979601,N,Y,29.6632239,-95.5379212
PAST SALE,April-24-2018,Single Family Residential,9202 Portal Dr,Houston,TX,77031,120600,3,2.0,Braeburn Valley West,1980,8250,1972,1134,61,33,Sold,,,http://www.redfin.com/TX/Houston/9202-Portal-Dr-77031/home/30260326,HARMLS,10556873,N,Y,29.660051,-95.5388027
PAST SALE,March-30-2018,Single Family Residential,9203 Claridge Dr,Houston,TX,77031,160000,3,2.0,Braeburn Valley West,,8250,1971,1159,,23,Sold,,,http://www.redfin.com/TX/Houston/9203-Claridge-Dr-77031/home/30260328,HARMLS,12825893,N,Y,29.6603886,-95.5388232
PAST SALE,November-29-2016,Single Family Residential,9307 Benning Dr,Houston,TX,77031,172500,3,2.0,Braeburn Valley West Sec 02,1752,7700,1972,1645,98,33,Sold,,,http://www.redfin.com/TX/Houston/9307-Benning-Dr-77031/home/30260739,HARMLS,62528842,N,Y,29.6580622,-95.5405044
PAST SALE,August-10-2018,Single Family Residential,9315 Benning Dr,Houston,TX,77031,169900,4,2.0,Braeburn Valley West Sec 02,1739,7480,1972,1026,98,,Sold,,,http://www.redfin.com/TX/Houston/9315-Benning-Dr-77031/home/30260741,HARMLS,59194331,N,Y,29.6579983,-95.5409554
