SALE TYPE,SOLD DATE,PROPERTY TYPE,ADDRESS,CITY,STATE OR PROVINCE,ZIP OR POSTAL CODE,PRICE,BEDS,BATHS,LOCATION,SQUARE FEET,LOT SIZE,YEAR BUILT,DAYS ON MARKET,$/SQUARE FEET,HOA/MONTH,STATUS,NEXT OPEN HOUSE START TIME,NEXT OPEN HOUSE END TIME,URL (SEE http://www.redfin.com/buy-a-home/comparative-market-analysis FOR INFO ON PRICING),SOURCE,MLS#,FAVORITE,INTERESTED,LATITUDE,LONGITUDE
PAST SALE,September-12-2018,Condo/Co-op,1602 Elgin St #7,Houston,TX,77004,175000,1,1.0,Park Lofts,658,15034,2004,993,266,144,Sold,,,http://www.redfin.com/TX/Houston/1602-Elgin-St-77004/unit-7/home/29312089,HARMLS,61150321,N,Y,29.7381164,-95.3718549
PAST SALE,May-31-2019,Single Family Residential,1401 Cleburne St,Houston,TX,77004,675000,4,3.5,Empire,3135,7500,1934,732,215,,Sold,,,http://www.redfin.com/TX/Houston/1401-Cleburne-St-77004/home/29669594,HARMLS,43187310,N,Y,29.7340578,-95.3776992
PAST SALE,October-16-2017,Townhouse,1830 Wheeler St,Houston,TX,77004,264900,2,2.0,Wheeler Street T H,1625,1400,2004,1324,163,83,Sold,,,http://www.redfin.com/TX/Houston/1830-Wheeler-Ave-77004/home/29284381,HARMLS,20381874,N,Y,29.729359,-95.3753788
PAST SALE,December-15-2017,Single Family Residential,3718 Eagle St,Houston,TX,77004,349000,3,2.5,College Oaks Sec 01,2141,6000,1950,1264,163,,Sold,,,http://www.redfin.com/TX/Houston/3718-Eagle-St-77004/home/29965739,HARMLS,88530967,N,Y,29.7204836,-95.3530481
PAST SALE,April-1-2019,Townhouse,2805 Chartres St,Houston,TX,77004,378000,3,3.5,Villas/chartres Amd,2492,2132,2006,792,152,129,Sold,,,http://www.redfin.com/TX/Houston/2805-Chartres-St-77004/home/29512065,HARMLS,50665618,N,Y,29.7384996,-95.3661649
PAST SALE,June-20-2019,Condo/Co-op,5925 Almeda Rd #12613,Houston,TX,77004,224900,1,1.0,Mosaic Residential North Condo,748,,2006,712,301,416,Sold,,,http://www.redfin.com/TX/Houston/5925-Almeda-Rd-77004/unit-12613/home/29610492,HARMLS,73590398,N,Y,29.714931,-95.38083
PAST SALE,May-19-2021,Single Family Residential,2910 Hutchins St,Houston,TX,77004,299900,2,2.0,Park Court,1305,5000,1952,13,230,,Sold,,,http://www.redfin.com/TX/Houston/2910-Hutchins-St-77004/home/29971532,HARMLS,95959550,N,Y,29.7370658,-95.3658016
PAST SALE,,Condo/Co-op,2902 Chenevert St Unit F,Houston,TX,77004,,2,2.5,,1547,,2005,,,,Sold,,,http://www.redfin.com/TX/Houston/2902-Chenevert-St-77004/unit-F/home/29407419,HARMLS,,N,Y,29.7392774,-95.3691131
PAST SALE,May-14-2021,Townhouse,1316 Anita St,Houston,TX,77004,315000,2,2.5,Austin Estates,1512,2080,1999,18,208,,Sold,,,http://www.redfin.com/TX/Houston/1316-Anita-St-77004/home/30693552,HARMLS,27019603,N,Y,29.740771,-95.3730736
PAST SALE,February-3-2017,Townhouse,1823 Wichita St,Houston,TX,77004,443000,3,3.5,Wichita Street Court,2293,1739,2013,1579,193,,Sold,,,http://www.redfin.com/TX/Houston/1823-Wichita-St-77004/home/52561848,HARMLS,33396290,N,Y,29.7252499,-95.3787917
PAST SALE,April-30-2018,Single Family Residential,3723 Wheeler St,Houston,TX,77004,285000,3,2.0,College Oaks Sec 01,1729,6000,1950,1128,165,,Sold,,,http://www.redfin.com/TX/Houston/3723-Wheeler-Ave-77004/home/29965714,HARMLS,95538488,N,Y,29.7200325,-95.3530481
PAST SALE,May-10-2019,Single Family Residential,1823 Drew St,Houston,TX,77004,380000,3,3.5,Chenevert Commons,1952,1427,2013,753,195,117,Sold,,,http://www.redfin.com/TX/Houston/1823-Drew-St-77004/home/66045578,HARMLS,38752348,N,Y,29.7397153,-95.367488
PAST SALE,August-14-2020,Single Family Residential,3406 La Branch St Unit D,Houston,TX,77004,399000,3,3.5,Carree Court,2062,1518,2014,291,194,22,Sold,,,http://www.redfin.com/TX/Houston/3406-La-Branch-St-77004/unit-D/home/66050527,HARMLS,71693958,N,Y,29.7378975,-95.374153
PAST SALE,May-5-2017,Townhouse,2302 Hadley St,Houston,TX,77003,300000,3,2.5,Holman Outlot 03,1512,1725,2011,1488,198,142,Sold,,,http://www.redfin.com/TX/Houston/2302-Hadley-St-77003/home/29693190,HARMLS,14876743,N,Y,29.740222,-95.361243
PAST SALE,May-1-2018,Townhouse,1616 Drew St,Houston,TX,77004,322000,2,2.0,Midtown Lofts Sec 04 Amd,1928,1840,2003,1127,167,33,Sold,,,http://www.redfin.com/TX/Houston/1616-Drew-St-77004/home/30724545,HARMLS,84188031,N,Y,29.740506,-95.369449
PAST SALE,May-16-2019,Single Family Residential,2906 Eagle St,Houston,TX,77004,265000,2,1.0,Washington Terrace,1201,5250,1945,747,221,,Sold,,,http://www.redfin.com/TX/Houston/2906-Eagle-St-77004/home/29893359,HARMLS,65252826,N,Y,29.7252567,-95.3655563
PAST SALE,March-28-2018,Townhouse,3102 Hamilton St,Houston,TX,77004,337000,3,3.5,Midtown Park Twnhms,2206,2206,2004,1161,153,,Sold,,,http://www.redfin.com/TX/Houston/3102-Hamilton-St-77004/home/29271492,HARMLS,49630255,N,Y,29.737449,-95.369231
PAST SALE,April-5-2019,Single Family Residential,2804 Ruth St,Houston,TX,77004,445000,3,2.5,Washington Terrace,2653,5775,1940,788,168,,Sold,,,http://www.redfin.com/TX/Houston/2804-Ruth-St-77004/home/29893455,HARMLS,43270074,N,Y,29.7232796,-95.3684004
PAST SALE,July-23-2020,Townhouse,2702 Crawford St,Houston,TX,77004,304000,2,2.5,Crawford Court,1594,2696,1999,313,191,142,Sold,,,http://www.redfin.com/TX/Houston/2702-Crawford-St-77004/home/30693862,HARMLS,27179321,N,Y,29.7414968,-95.3697441
PAST SALE,October-2-2020,Single Family Residential,1815 Wichita St,Houston,TX,77004,409000,3,3.5,Wichita Street Court,2158,2363,2013,242,190,,Sold,,,http://www.redfin.com/TX/Houston/1815-Wichita-St-77004/home/52561852,HARMLS,48397648,N,Y,29.7253175,-95.3790231
PAST SALE,July-16-2018,Townhouse,4715 San Jacinto St,Houston,TX,77004,418900,3,3.0,Caroline Manor,2561,1971,2007,1051,164,240,Sold,,,http://www.redfin.com/TX/Houston/4715-San-Jacinto-St-77004/home/29594929,HARMLS,29739728,N,Y,29.7305601,-95.3830254
PAST SALE,April-15-2021,Single Family Residential,2901 Delano St,Houston,TX,77004,274900,3,2.0,Holman Outlot,1202,5000,1936,47,229,,Sold,,,http://www.redfin.com/TX/Houston/2901-Delano-St-77004/home/29692996,HARMLS,72268355,N,Y,29.7340058,-95.3600376
PAST SALE,October-28-2020,Condo/Co-op,1602 Elgin St #3,Houston,TX,77004,178000,1,1.0,Park Lofts,688,15034,2004,216,259,151,Sold,,,http://www.redfin.com/TX/Houston/1602-Elgin-St-77004/unit-3/home/29312094,HARMLS,26942136,N,Y,29.7381164,-95.3718549
PAST SALE,February-28-2019,Townhouse,2512 Chenevert St,Houston,TX,77004,359000,3,3.5,Waterhill Homes/chenevert,2038,1560,2012,824,176,140,Sold,,,http://www.redfin.com/TX/Houston/2512-Chenevert-St-77004/home/29556209,HARMLS,15336827,N,Y,29.742176629,-95.36758418
PAST SALE,September-25-2019,Townhouse,1534 Drew St,Houston,TX,77004,319000,2,2.0,Holman Outlot 19 Prcl R/p,1934,1950,2002,615,165,67,Sold,,,http://www.redfin.com/TX/Houston/1534-Drew-St-77004/home/29150000,HARMLS,78347083,N,Y,29.7409993,-95.3701802
PAST SALE,November-17-2020,Single Family Residential,2113 Stuart St,Houston,TX,77004,285000,3,3.5,Stuart Estates,1976,2000,2008,196,144,,Sold,,,http://www.redfin.com/TX/Houston/2113-Stuart-St-77004/home/29625950,HARMLS,3520895,N,Y,29.7351987,-95.3676311
PAST SALE,June-26-2018,Townhouse,1927 Calumet St,Houston,TX,77004,329000,2,2.5,Prospect Street T/h,1723,2000,2002,1071,191,208,Sold,,,http://www.redfin.com/TX/Houston/1927-Calumet-St-77004/home/29136383,HARMLS,44335186,N,Y,29.721873,-95.380525
PAST SALE,December-31-2018,Condo/Co-op,4820 Caroline St #201,Houston,TX,77004,449900,2,2.0,Oaks ON Caroline,1447,,2017,883,311,306,Sold,,,http://www.redfin.com/TX/Houston/4820-Caroline-St-77004/unit-201/home/87567434,HARMLS,97806104,N,Y,29.7294366,-95.3831992
PAST SALE,November-16-2018,Condo/Co-op,4820 Caroline St #204,Houston,TX,77004,399000,2,2.0,Oaks ON Caroline,1486,,2017,928,269,306,Sold,,,http://www.redfin.com/TX/Houston/4820-Caroline-St-77004/unit-204/home/56614077,HARMLS,50319140,N,Y,29.7294366,-95.3831992
PAST SALE,August-11-2020,Single Family Residential,2606 Bastrop St,Houston,TX,77004,335000,3,3.5,Mcgowen Street Landing,1897,1529,2019,294,177,100,Sold,,,http://www.redfin.com/TX/Houston/2606-Bastrop-St-77004/home/148112653,HARMLS,91025112,N,Y,29.7385436,-95.3633141
PAST SALE,April-17-2020,Condo/Co-op,4820 Caroline St #407,Houston,TX,77004,275000,1,1.0,Oaks On Caroline,1014,,2017,410,271,306,Sold,,,http://www.redfin.com/TX/Houston/4820-Caroline-St-77004/unit-407/home/167837377,HARMLS,34564648,N,Y,29.7294366,-95.3831992
PAST SALE,April-26-2019,Condo/Co-op,4820 Caroline St #403,Houston,TX,77004,444900,2,2.0,Oaks ON Caroline,1424,,2017,767,312,306,Sold,,,http://www.redfin.com/TX/Houston/4820-Caroline-St-77004/unit-403/home/167837373,HARMLS,55469254,N,Y,29.7294366,-95.3831992
PAST SALE,November-15-2018,Townhouse,2714 Anita St,Houston,TX,77004,235000,2,2.0,Anita Street Terrace,1560,1715,2018,929,151,100,Sold,,,http://www.redfin.com/TX/Houston/2714-Anita-St-77004/home/144617479,HARMLS,98970001,N,Y,29.7336873,-95.3612231
PAST SALE,September-9-2020,Single Family Residential,2505 Mcgowen St,Houston,TX,77004,399900,3,3.5,Holman Outlot 02,1995,5000,2020,265,200,,Sold,,,http://www.redfin.com/TX/Houston/2505-McGowen-St-77004/home/171290262,HARMLS,19514386,N,Y,29.7377034,-95.3608676
PAST SALE,April-13-2018,Condo/Co-op,4820 Caroline St #405,Houston,TX,77004,339900,1,1.5,Museum District,1151,,2017,1145,295,306,Sold,,,http://www.redfin.com/TX/Houston/4820-Caroline-St-77004/unit-405/home/167837375,HARMLS,18766190,N,Y,29.7294366,-95.3831992
PAST SALE,February-8-2019,Single Family Residential,3306 Webster St,Houston,TX,77004,75000,2,1.0,Prairie Home,894,4000,1936,844,84,,Sold,,,http://www.redfin.com/TX/Houston/3306-Webster-St-77004/home/29814193,HARMLS,88692340,N,Y,29.736252,-95.3513315
PAST SALE,August-5-2019,Townhouse,2618 Bastrop St,Houston,TX,77004,309990,3,3.5,Mcgowen Street Lndg,1840,1579,2018,666,168,100,Sold,,,http://www.redfin.com/TX/Houston/2618-Bastrop-St-77004/home/144606399,HARMLS,75126626,N,Y,29.7380393,-95.3635605
PAST SALE,December-28-2018,Single Family Residential,3341 Mcgowen Street St,Houston,TX,77004,169900,3,2.0,Wilson WM A,1351,5000,2018,886,126,,Sold,,,http://www.redfin.com/TX/Houston/3341-McGowen-St-77004/home/29765609,HARMLS,82692691,N,Y,29.7338875,-95.351534
PAST SALE,January-31-2019,Single Family Residential,2702 Nagle St,Houston,TX,77004,290000,2,2.0,Crow & Settegast Holman Ol,1140,10000,1969,852,254,,Sold,,,http://www.redfin.com/TX/Houston/2702-Nagle-St-77004/home/29693283,HARMLS,80057762,N,Y,29.7359307,-95.3604055
PAST SALE,December-11-2018,Single Family Residential,2314 Hutchins St,Houston,TX,77004,424900,3,3.5,Hutchin's Terrace,2082,,2018,903,204,,Sold,,,http://www.redfin.com/TX/Houston/2314-Hutchins-St-77004/home/112824136,HARMLS,11726184,N,Y,29.7408007,-95.362717
PAST SALE,September-8-2020,Single Family Residential,2507 Mcgowen St,Houston,TX,77004,399900,3,3.5,Holman Outlot 02,1995,,2020,266,200,,Sold,,,http://www.redfin.com/TX/Houston/2507-McGowen-St-77004/home/171499510,HARMLS,79136432,N,Y,29.7376877,-95.3608415
PAST SALE,September-2-2020,Single Family Residential,2510 Tuam St Unit C,Houston,TX,77004,329900,3,3.5,Tuam Development,1651,1968,2020,272,200,108,Sold,,,http://www.redfin.com/TX/Houston/2510-Tuam-St-77004/unit-C/home/172047663,HARMLS,14870357,N,Y,29.7355395,-95.3624758
PAST SALE,April-7-2020,Single Family Residential,2626 Bastrop St,Houston,TX,77004,329990,3,3.5,University Park Landing,1822,1675,2019,420,181,,Sold,,,http://www.redfin.com/TX/Houston/2626-Bastrop-St-77004/home/168661336,HARMLS,11327780,N,Y,29.7382051,-95.3639068
PAST SALE,October-22-2020,Single Family Residential,3313 Hutchins St,Houston,TX,77004,320700,3,2.5,Stuart Hutchins Villas,1499,1887,2020,222,214,183,Sold,,,http://www.redfin.com/TX/Houston/3313-Hutchins-St-77004/home/172608448,HARMLS,49435997,N,Y,29.7343356,-95.3673497
PAST SALE,July-1-2019,Single Family Residential,2405 Bastrop St,Houston,TX,77004,429000,3,3.5,Bastrop Mcilhenny Villas,2226,1620,2018,701,193,,Sold,,,http://www.redfin.com/TX/Houston/2405-Bastrop-St-77004/home/29693194,HARMLS,21901985,N,Y,29.739252,-95.362132
PAST SALE,October-15-2020,Single Family Residential,3315 Hutchins St,Houston,TX,77004,314700,3,2.5,Stuart Hutchins Villas,1486,2058,2020,229,212,183,Sold,,,http://www.redfin.com/TX/Houston/3315-Hutchins-St-77004/home/172608466,HARMLS,30968435,N,Y,29.7343166,-95.3673648
PAST SALE,November-22-2019,Townhouse,1508 Elgin,Houston,TX,77004,408490,3,3.5,Colina Court ON Elgin Steet,2018,,2018,557,202,42,Sold,,,http://www.redfin.com/TX/Houston/1508-Elgin-St-77004/home/167833579,HARMLS,38701573,N,Y,29.7387012,-95.3725191
PAST SALE,October-16-2020,Single Family Residential,3311 Hutchins St,Houston,TX,77004,317700,3,2.5,Stuart Hutchins Villas,1499,1921,2020,228,212,183,Sold,,,http://www.redfin.com/TX/Houston/3311-Hutchins-St-77004/home/172608447,HARMLS,37967759,N,Y,29.7343546,-95.3673345
PAST SALE,April-30-2019,Single Family Residential,2616 Bastrop St,Houston,TX,77004,309990,3,3.5,Mcgowen Street Lndg,1840,1579,2018,763,168,100,Sold,,,http://www.redfin.com/TX/Houston/2616-Bastrop-St-77004/home/160464578,HARMLS,94525723,N,Y,29.738265,-95.3633842
PAST SALE,March-20-2020,Single Family Residential,2411 Anita St,Houston,TX,77004,339900,3,3.5,Dowling Vista,1715,2143,2019,438,198,100,Sold,,,http://www.redfin.com/TX/Houston/2411-Anita-St-77004/home/169477674,HARMLS,80684368,N,Y,29.7355995,-95.3634952
PAST SALE,June-21-2019,Single Family Residential,1516 Elgin St,Houston,TX,77004,418990,3,3.5,Colina Court on Elgin Street,2018,1447,2018,711,208,38,Sold,,,http://www.redfin.com/TX/Houston/1516-Elgin-St-77004/home/167833581,HARMLS,20045766,N,Y,29.738622,-95.3724456
PAST SALE,November-26-2019,Townhouse,2629 Hutchins St,Houston,TX,77004,339990,3,3.5,University Park Landing,1949,1400,2019,553,174,,Sold,,,http://www.redfin.com/TX/Houston/2629-Hutchins-St-77004/home/160742169,HARMLS,54450205,N,Y,29.7383432,-95.3641374
PAST SALE,July-31-2019,Townhouse,3503 Mosley Unit B,Houston,TX,77004,469400,3,2.5,Holman Court - 1923,2306,2137,2019,671,204,,Sold,,,http://www.redfin.com/TX/Houston/3503-Mosley-Ct-77004/unit-B/home/167842490,HARMLS,20097244,N,Y,29.7357184,-95.372343
PAST SALE,March-10-2020,Single Family Residential,1717 Holman St,Houston,TX,77004,607400,3,2.5,Midtown,3095,2360,2018,448,196,,Sold,,,http://www.redfin.com/TX/Houston/1717-Holman-St-77004/home/170255543,HARMLS,74026604,N,Y,29.735949,-95.371724
PAST SALE,June-25-2020,Single Family Residential,1709 Holman St,Houston,TX,77004,617400,3,2.5,Midtown,3095,2650,2019,341,199,,Sold,,,http://www.redfin.com/TX/Houston/1709-Holman-St-77004/home/170255547,HARMLS,67060677,N,Y,29.7361,-95.371973
PAST SALE,July-16-2019,Single Family Residential,2619 Hutchins,Houston,TX,77004,365000,3,3.5,Townhomes AT Hutchins,1969,2100,2019,686,185,,Sold,,,http://www.redfin.com/TX/Houston/2619-Hutchins-St-77004/home/170257779,HARMLS,34054871,N,Y,29.7385903,-95.3641024
PAST SALE,April-24-2020,Single Family Residential,2415 Anita Pl Unit B,Houston,TX,77004,369900,3,2.5,Dowling Vista,1781,,2019,403,208,,Sold,,,http://www.redfin.com/TX/Houston/2415-Anita-St-77004/unit-B/home/173669366,HARMLS,53465399,N,Y,29.7355068,-95.363359
PAST SALE,April-30-2018,Single Family Residential,3504 Chenevert St Unit A,Houston,TX,77004,394900,4,2.5,Midtown,2165,2400,2012,1128,182,,Sold,,,http://www.redfin.com/TX/Houston/3504-Chenevert-St-77004/unit-A/home/52560535,HARMLS,94789058,N,Y,29.735583,-95.372067
PAST SALE,November-30-2018,Single Family Residential,2709A Chenevert St,Houston,TX,77004,345000,3,2.5,Weekley at Chenevert,1655,2058,2013,914,208,121,Sold,,,http://www.redfin.com/TX/Houston/2709-Chenevert-St-77004/unit-A/home/66045581,HARMLS,10406042,N,Y,29.7402182,-95.3678282
PAST SALE,May-11-2020,Townhouse,1503 Tuam St Unit C,Houston,TX,77004,433900,3,3.5,Mehr Park Place,2473,1850,2016,386,175,,Sold,,,http://www.redfin.com/TX/Houston/1503-Tuam-St-77004/unit-C/home/89839172,HARMLS,50761388,N,Y,29.740922,-95.3708302
PAST SALE,July-1-2019,Single Family Residential,2316 Austin St,Houston,TX,77004,424500,3,3.5,Colina Homes/austin Street,2085,2435,2015,701,204,92,Sold,,,http://www.redfin.com/TX/Houston/2316-Austin-St-77004/home/101731892,HARMLS,60587067,N,Y,29.7449518,-95.3698372
PAST SALE,November-26-2019,Townhouse,2401 Crawford Unit D1-A,Houston,TX,77004,333640,3,3.5,Parc at Midtown,1685,,2018,553,198,173,Sold,,,http://www.redfin.com/TX/Houston/2401-Crawford-St-77004/unit-D1-A/home/104216913,HARMLS,92074692,N,Y,29.7431177,-95.3678457
PAST SALE,May-19-2020,Single Family Residential,2415 Anita Pl Unit A,Houston,TX,77004,369900,3,2.5,Dowling Vista,1781,,2019,378,208,,Sold,,,http://www.redfin.com/TX/Houston/2415-Anita-St-77004/unit-A/home/170124789,HARMLS,89967565,N,Y,29.7355068,-95.363359
PAST SALE,October-30-2018,Townhouse,2411 Mcilhenny St,Houston,TX,77004,140000,3,1.0,Holman Outlot 02,1050,7500,1993,945,133,,Sold,,,http://www.redfin.com/TX/Houston/2411-McIlhenny-St-77004/home/29693162,HARMLS,89216878,N,Y,29.7390283,-95.3607734
PAST SALE,March-23-2020,Single Family Residential,2504 Hadley St,Houston,TX,77003,375000,3,2.5,Retreat/hadley,2220,1875,2019,435,169,,Sold,,,http://www.redfin.com/TX/Houston/2504-Hadley-St-77003/home/112817532,HARMLS,58287506,N,Y,29.739177,-95.3596638
PAST SALE,December-20-2019,Townhouse,2401 Crawford Unit C4-B,Houston,TX,77004,335000,3,3.5,Parc at Midtown,1540,,2018,529,218,155,Sold,,,http://www.redfin.com/TX/Houston/2401-Crawford-St-77004/unit-C4-B/home/163327081,HARMLS,37278576,N,Y,29.7431458,-95.3679977
PAST SALE,October-1-2018,Condo/Co-op,1401 Calumet St #206,Houston,TX,77004,499000,1,2.0,Il Palazzo Condo Amd,1750,,1999,974,285,687,Sold,,,http://www.redfin.com/TX/Houston/1401-Calumet-St-77004/unit-206/home/30708780,HARMLS,27018144,N,Y,29.7246118,-95.3848145
PAST SALE,June-28-2019,Multi-Family (2-4 Unit),2620 Tuam St,Houston,TX,77004,235000,0,,Holman Outlot,2011,5000,1938,704,117,,Sold,,,http://www.redfin.com/TX/Houston/2620-Tuam-St-77004/home/29692993,HARMLS,41884044,N,Y,29.7347682,-95.361264
PAST SALE,October-15-2019,Townhouse,1322 Oakdale St,Houston,TX,77004,455000,2,3.5,Oaks At Caroline,2026,1400,1998,595,225,275,Sold,,,http://www.redfin.com/TX/Houston/1322-Oakdale-St-77004/home/30677108,HARMLS,92649441,N,Y,29.7257385,-95.3849125
PAST SALE,October-31-2018,Condo/Co-op,1111 Hermann Dr Unit 30A,Houston,TX,77004,2475000,3,3.5,Warwick Towers Condo,5599,,1983,944,442,5511,Sold,,,http://www.redfin.com/TX/Houston/1111-Hermann-Dr-77004/unit-30A/home/30560789,HARMLS,69335032,N,Y,29.7235904,-95.3894153
PAST SALE,September-3-2020,Townhouse,2322 Emancipation Ave,Houston,TX,77004,339900,3,3.5,Waterhill Hms/mcilhenny Street,2013,1825,2007,271,169,,Sold,,,http://www.redfin.com/TX/Houston/2322-Emancipation-Ave-77004/home/29534090,HARMLS,85921999,N,Y,29.7393611,-95.3614684
PAST SALE,March-13-2020,Single Family Residential,2510 Hadley St,Houston,TX,77003,350000,3,3.5,Retreat/hadley,2067,1912,2019,445,169,,Sold,,,http://www.redfin.com/TX/Houston/2510-Hadley-St-77003/home/112817333,HARMLS,83997273,N,Y,29.739045,-95.359482
PAST SALE,August-7-2020,Single Family Residential,2617 Live Oak St,Houston,TX,77004,359900,3,2.5,Live Oak Views,1700,,2019,298,212,,Sold,,,http://www.redfin.com/TX/Houston/2617-Live-Oak-St-77004/home/170676313,HARMLS,77832541,N,Y,29.7364568,-95.3605986
PAST SALE,April-30-2018,Townhouse,1514 Drew St,Houston,TX,77004,284900,2,2.0,Holman Outlot 19 Prcl R/p,1800,1448,2002,1128,158,67,Sold,,,http://www.redfin.com/TX/Houston/1514-Drew-St-77004/home/29150008,HARMLS,44415143,N,Y,29.741039,-95.370567
PAST SALE,October-12-2018,Single Family Residential,2414 Stuart St,Houston,TX,77004,125000,2,1.0,Tuffly H G,864,5000,1930,963,145,,Sold,,,http://www.redfin.com/TX/Houston/2414-Stuart-St-77004/home/29693265,HARMLS,26619176,N,Y,29.7333113,-95.3649431
PAST SALE,November-15-2019,Condo/Co-op,1111 Hermann Dr Unit 5E,Houston,TX,77004,695000,2,2.5,The Warwick Towers Condo,2187,,1983,564,318,2153,Sold,,,http://www.redfin.com/TX/Houston/1111-Hermann-Dr-77004/unit-5E/home/30560888,HARMLS,66555863,N,Y,29.7235904,-95.3894153
PAST SALE,October-1-2020,Single Family Residential,2930 Jackson St Unit A,Houston,TX,77004,350000,2,2.0,Js Holman Outlot 28 Pt Re,1820,2796,2001,243,192,,Sold,,,http://www.redfin.com/TX/Houston/2930-Jackson-St-77004/unit-A/home/29149921,HARMLS,47489477,N,Y,29.7393274,-95.3702278
PAST SALE,October-30-2019,Townhouse,2928 Jackson St Unit B,Houston,TX,77004,295000,2,2.0,Holman Outlot 28 Prcl R/p,1760,1478,2001,580,168,,Sold,,,http://www.redfin.com/TX/Houston/2928-Jackson-St-77004/unit-B/home/29149919,HARMLS,15180601,N,Y,29.7395501,-95.3703278
PAST SALE,September-1-2020,Townhouse,1609 Drew St,Houston,TX,77004,349000,3,3.5,Midtown,2041,1296,2002,273,171,197,Sold,,,http://www.redfin.com/TX/Houston/1609-Drew-St-77004/home/29149994,HARMLS,41876739,N,Y,29.740855,-95.369361
PAST SALE,May-1-2019,Townhouse,1704 Elgin St,Houston,TX,77004,279999,2,2.0,Elgin Square Twnhms,1895,1400,2004,762,148,195,Sold,,,http://www.redfin.com/TX/Houston/1704-Elgin-St-77004/home/29288671,HARMLS,27450450,N,Y,29.7377271,-95.3710038
PAST SALE,March-5-2020,Townhouse,3224 La Branch St,Houston,TX,77004,414990,3,2.5,Manors/la Branch,2334,1705,2005,453,178,,Sold,,,http://www.redfin.com/TX/Houston/3224-La-Branch-St-77004/home/29351991,HARMLS,39895513,N,Y,29.7385279,-95.3735437
PAST SALE,September-27-2019,Townhouse,3302 Jackson St,Houston,TX,77004,349000,3,3.5,Jackson Vls/stuart Amd Place,2257,1922,2006,613,155,,Sold,,,http://www.redfin.com/TX/Houston/3302-Jackson-St-77004/home/29369166,HARMLS,5801782,N,Y,29.737301,-95.3722049
PAST SALE,August-31-2020,Townhouse,2048 Tuam St,Houston,TX,77004,279900,3,3.5,Manor Park,1928,2316,2006,274,145,160,Sold,,,http://www.redfin.com/TX/Houston/2048-Tuam-St-77004/home/29397897,HARMLS,20214699,N,Y,29.7375938,-95.3661287
PAST SALE,July-10-2020,Townhouse,2034 Tuam St,Houston,TX,77004,264900,3,3.5,Manor Park,1520,1405,2006,326,174,160,Sold,,,http://www.redfin.com/TX/Houston/2034-Tuam-St-77004/home/29397888,HARMLS,54654838,N,Y,29.737361,-95.3665886
PAST SALE,January-30-2018,Townhouse,2902 Chenevert St Unit H,Houston,TX,77004,329900,2,2.5,Chenevert & Tuam Condo,1547,,2005,1218,213,254,Sold,,,http://www.redfin.com/TX/Houston/2902-Chenevert-St-77004/unit-H/home/29407495,HARMLS,42280244,N,Y,29.7392774,-95.3691131
PAST SALE,May-28-2019,Single Family Residential,2613 Mcilhenny St,Houston,TX,77004,354990,3,3.5,Live Oak Skyline,2090,1500,2019,735,170,,Sold,,,http://www.redfin.com/TX/Houston/2613-McIlhenny-St-77004/home/167831622,HARMLS,97985081,N,Y,29.7380338,-95.3592887
PAST SALE,July-31-2019,Single Family Residential,2413 Chenevert St,Houston,TX,77004,399500,3,3.5,1 Court/chenevert Street Sub,2410,1600,2018,671,166,,Sold,,,http://www.redfin.com/TX/Houston/2413-Chenevert-St-77004/home/29526608,HARMLS,87370585,N,Y,29.7419097,-95.3664292
PAST SALE,October-19-2018,Single Family Residential,1320 Hadley St,Houston,TX,77002,405000,3,3.5,Austin Hadley Place,2468,1664,2007,956,164,167,Sold,,,http://www.redfin.com/TX/Houston/1320-Hadley-St-77002/home/29561309,HARMLS,92512150,N,Y,29.74519,-95.369427
PAST SALE,February-26-2020,Townhouse,2104 Holman St Unit C,Houston,TX,77004,335000,3,3.5,Holman Court,2244,1692,2008,461,149,,Sold,,,http://www.redfin.com/TX/Houston/2104-Holman-St-77004/unit-C/home/29593159,HARMLS,5253531,N,Y,29.733758,-95.368923
PAST SALE,June-17-2019,Townhouse,2104 Holman St Unit A,Houston,TX,77004,309000,3,3.5,Holman Court,2244,1692,2008,715,138,,Sold,,,http://www.redfin.com/TX/Houston/2104-Holman-St-77004/unit-A/home/29593171,HARMLS,95086121,N,Y,29.733758,-95.368923
PAST SALE,July-28-2020,Condo/Co-op,2900 Hamilton St #23,Houston,TX,77004,189900,1,1.5,Ellie Lofts,1373,,2007,308,138,330,Sold,,,http://www.redfin.com/TX/Houston/2900-Hamilton-St-77004/unit-23/home/29609744,HARMLS,44632879,N,Y,29.7386644,-95.3683924
PAST SALE,August-23-2019,Condo/Co-op,2900 Hamilton St #24,Houston,TX,77004,184900,1,1.5,Ellie Lofts,1050,29719,2007,648,176,231,Sold,,,http://www.redfin.com/TX/Houston/2900-Hamilton-St-77004/unit-24/home/29609745,HARMLS,78970580,N,Y,29.7386644,-95.3683924
PAST SALE,June-19-2020,Single Family Residential,3608 Chenevert St,Houston,TX,77004,365000,3,3.5,Sanaz T/h,1884,1680,2011,347,194,,Sold,,,http://www.redfin.com/TX/Houston/3608-Chenevert-St-77004/home/29615705,HARMLS,43761804,N,Y,29.7349976,-95.3725985
PAST SALE,February-13-2019,Vacant Land,2000 Tuam St,Houston,TX,77004,399900,,,Holman Outlot 26,,9505,,839,,,Sold,,,http://www.redfin.com/TX/Houston/2000-Tuam-St-77004/home/29692940,HARMLS,37258886,N,Y,29.7379366,-95.3666688
PAST SALE,October-17-2018,Townhouse,2940 Jackson St,Houston,TX,77004,500000,3,2.5,Settegast Floeck Holman Blk 6,2218,2865,2000,958,225,,Sold,,,http://www.redfin.com/TX/Houston/2940-Jackson-St-77004/home/29692946,HARMLS,29023662,N,Y,29.7392244,-95.3704214
PAST SALE,May-20-2019,Townhouse,1701 Tuam St,Houston,TX,77004,375000,3,3.0,Holman Outlot 18,2604,1935,2000,743,144,39,Sold,,,http://www.redfin.com/TX/Houston/1701-Tuam-St-77004/home/29693075,HARMLS,94250568,N,Y,29.739937,-95.369279
PAST SALE,October-30-2018,Multi-Family (2-4 Unit),3312 Crawford St,Houston,TX,77004,550000,0,,Cave E W Of Holman Ol38,3630,5000,1930,945,152,,Sold,,,http://www.redfin.com/TX/Houston/3312-Crawford-St-77004/home/29694772,HARMLS,64855350,N,Y,29.7375881,-95.3729562
PAST SALE,September-26-2019,Townhouse,3501 Chenevert St #27,Houston,TX,77004,310000,3,3.5,Chenevert Condos Ph I,2527,34349,2008,614,123,279,Sold,,,http://www.redfin.com/TX/Houston/3501-Chenevert-St-77004/unit-27/home/34239506,HARMLS,6721003,N,Y,29.7351487,-95.3716327
PAST SALE,October-18-2019,Condo/Co-op,3501 Chenevert St #15,Houston,TX,77004,227000,2,2.0,Chenevert Condos Ph I,1050,34349,2008,592,216,279,Sold,,,http://www.redfin.com/TX/Houston/3501-Chenevert-St-77004/unit-15/home/34239520,HARMLS,9120920,N,Y,29.7351487,-95.3716327
PAST SALE,July-31-2020,Single Family Residential,3001 La Branch St,Houston,TX,77004,478500,3,3.5,Midtown Park Place,2594,1650,2014,305,184,,Sold,,,http://www.redfin.com/TX/Houston/3001-La-Branch-St-77004/home/43478009,HARMLS,44269899,N,Y,29.7399399,-95.3716888
PAST SALE,July-1-2019,Single Family Residential,2107 Francis St,Houston,TX,77004,392000,3,4.0,Skyline Place,2385,1500,2013,701,164,,Sold,,,http://www.redfin.com/TX/Houston/2107-Francis-St-77004/home/45488629,HARMLS,98055519,N,Y,29.7346526,-95.3683056
PAST SALE,July-31-2019,Townhouse,1417 Anita St,Houston,TX,77004,295000,2,2.5,Baldwin Square,1619,1772,1998,671,182,101,Sold,,,http://www.redfin.com/TX/Houston/1417-Anita-St-77004/home/30686994,HARMLS,4829574,N,Y,29.7405883,-95.3721079
PAST SALE,March-26-2020,Townhouse,2912 Jackson St,Houston,TX,77004,308000,2,2.0,Baldwin Court,1843,1778,1999,432,167,135,Sold,,,http://www.redfin.com/TX/Houston/2912-Jackson-St-77004/home/30694201,HARMLS,23957545,N,Y,29.73996,-95.370091
PAST SALE,November-6-2018,Townhouse,1704 Tuam St Unit B,Houston,TX,77004,389000,3,3.0,Tuam Square,2144,2061,1999,938,181,96,Sold,,,http://www.redfin.com/TX/Houston/1704-Tuam-St-77004/unit-B/home/30700290,HARMLS,83916322,N,Y,29.739313,-95.36949
PAST SALE,August-16-2019,Townhouse,1312 Tuam St,Houston,TX,77004,298500,2,2.0,Baldwin Square Sec 04,1800,1400,2000,655,166,154,Sold,,,http://www.redfin.com/TX/Houston/1312-Tuam-St-77004/home/30711531,HARMLS,71156200,N,Y,29.74134,-95.372445
PAST SALE,July-17-2019,Townhouse,1334 Rosalie Street St,Houston,TX,77004,315000,2,2.0,Midtown Lofts,1944,1622,2000,685,162,58,Sold,,,http://www.redfin.com/TX/Houston/1334-Rosalie-St-77004/home/30716962,HARMLS,72948770,N,Y,29.7401578,-95.373456
PAST SALE,October-26-2018,Townhouse,3204 Jackson St,Houston,TX,77004,325000,2,2.5,Midtown / South End Lofts Condo Amd,2157,15974,1999,949,151,725,Sold,,,http://www.redfin.com/TX/Houston/3204-Jackson-St-77004/unit-0003/home/30717176,HARMLS,75586290,N,Y,29.7379203,-95.3713606
PAST SALE,December-28-2018,Single Family Residential,1529 Francis St,Houston,TX,77004,285000,4,2.0,Francis Station,1633,2222,2000,886,175,117,Sold,,,http://www.redfin.com/TX/Houston/1529-Francis-St-77004/home/30719929,HARMLS,96180916,N,Y,29.7375404,-95.3731974
PAST SALE,February-6-2020,Townhouse,2721 Austin St,Houston,TX,77004,435000,3,3.5,Midtown Terrace,2607,2392,2001,481,167,350,Sold,,,http://www.redfin.com/TX/Houston/2721-Austin-St-77004/home/29163123,HARMLS,69670916,N,Y,29.742025,-95.371292
PAST SALE,June-10-2019,Townhouse,1608 Hadley St,Houston,TX,77003,358000,3,3.5,City Promenade,2268,1751,2003,722,158,35,Sold,,,http://www.redfin.com/TX/Houston/1608-Hadley-St-77003/home/29177762,HARMLS,72233836,N,Y,29.7436738,-95.3672018
PAST SALE,October-13-2018,Townhouse,1612 Stuart St,Houston,TX,77004,327750,3,3.5,Jackson Villas At Stuart Amd,2241,1874,2006,962,146,,Sold,,,http://www.redfin.com/TX/Houston/1612-Stuart-St-77004/home/29356328,HARMLS,27191847,N,Y,29.737435,-95.3721489
PAST SALE,January-30-2019,Single Family Residential,1517 Truxillo St,Houston,TX,77004,604900,3,3.5,Midtown Almeda,2625,2304,2016,853,230,,Sold,,,http://www.redfin.com/TX/Houston/1517-Truxillo-St-77004/home/110186272,HARMLS,13632204,N,Y,29.7343772,-95.3752454
PAST SALE,June-30-2020,Single Family Residential,1509 Isabella St,Houston,TX,77004,476800,4,3.5,Midtown,2762,,2019,336,173,,Sold,,,http://www.redfin.com/TX/Houston/1509-Isabella-St-77004/home/112823672,HARMLS,64885420,N,Y,29.7338832,-95.3761194
PAST SALE,August-28-2020,Townhouse,3906 Austin St,Houston,TX,77004,315000,3,3.5,Midtown Elevated,2274,1539,2007,277,139,,Sold,,,http://www.redfin.com/TX/Houston/3906-Austin-St-77004/home/29586048,HARMLS,17357840,N,Y,29.734936,-95.377516
PAST SALE,April-28-2020,Single Family Residential,1317 Isabella St,Houston,TX,77004,535000,2,3.5,Midtown Elevated,2495,1474,2019,399,214,,Sold,,,http://www.redfin.com/TX/Houston/1317-Isabella-St-77004/home/29586052,HARMLS,95472639,N,Y,29.735006,-95.3776369
PAST SALE,November-10-2017,Condo/Co-op,2401 Crawford Unit A209,Houston,TX,77004,271305,2,2.5,Parc at Midtown,931,,2016,1299,291,186,Sold,,,http://www.redfin.com/TX/Houston/2401-Crawford-St-77004/unit-A209/home/106177656,HARMLS,29031643,N,Y,29.7431177,-95.3678457
PAST SALE,July-24-2020,Townhouse,1421 Elgin St,Houston,TX,77004,410000,4,4.5,Montione Villas/elgin,2902,2103,2004,312,141,173,Sold,,,http://www.redfin.com/TX/Houston/1421-Elgin-St-77004/home/29282064,HARMLS,39722311,N,Y,29.7394382,-95.3730216
PAST SALE,October-22-2020,Townhouse,1714 Elgin St,Houston,TX,77004,299900,2,2.5,Elgin Square Twnhms,1971,1652,2004,222,152,195,Sold,,,http://www.redfin.com/TX/Houston/1714-Elgin-St-77004/home/29288893,HARMLS,67038093,N,Y,29.73756,-95.370712
PAST SALE,December-19-2019,Multi-Family (5+ Unit),3102 Wentworth St #6,Houston,TX,77004,349900,0,,Feldman Court,2584,5250,1949,530,135,,Sold,,,http://www.redfin.com/TX/Houston/3102-Wentworth-St-77004/unit-6/home/29847417,HARMLS,62304580,N,Y,29.720612,-95.3670909
PAST SALE,December-12-2019,Townhouse,2900 Hamilton St #25,Houston,TX,77004,184900,1,1.5,Ellie Lofts,1050,29719,2007,537,176,250,Sold,,,http://www.redfin.com/TX/Houston/2900-Hamilton-St-77004/unit-25/home/29609750,HARMLS,36959352,N,Y,29.7386644,-95.3683924
PAST SALE,July-31-2020,Townhouse,1530 Drew St,Houston,TX,77004,314500,2,2.0,Holman Outlot 19 Prcl R P Amd,2034,1450,2002,305,155,67,Sold,,,http://www.redfin.com/TX/Houston/1530-Drew-St-77004/home/30728330,HARMLS,98082072,N,Y,29.7410519,-95.370269
PAST SALE,February-4-2020,Townhouse,1820 Anita St,Houston,TX,77004,350000,3,3.5,Hamilton Court,2169,1881,2012,483,161,117,Sold,,,http://www.redfin.com/TX/Houston/1820-Anita-St-77004/home/43499271,HARMLS,38620650,N,Y,29.7382348,-95.3687147
PAST SALE,August-8-2019,Townhouse,2921 Crawford St,Houston,TX,77004,278800,2,2.5,Baldwin Court,1641,1770,1999,663,170,133,Sold,,,http://www.redfin.com/TX/Houston/2921-Crawford-St-77004/home/30694248,HARMLS,32278440,N,Y,29.739747,-95.3705219
PAST SALE,March-18-2019,Townhouse,2914 Austin St,Houston,TX,77004,379000,3,3.5,Austin Street T/h Sec 02,2414,1918,2000,806,157,,Sold,,,http://www.redfin.com/TX/Houston/2914-Austin-St-77004/home/30701003,HARMLS,75520615,N,Y,29.7411925,-95.3727825
PAST SALE,August-21-2019,Townhouse,2806 Chenevert St,Houston,TX,77004,298000,2,2.0,Chenevert Street T/h,1855,1478,1999,650,161,104,Sold,,,http://www.redfin.com/TX/Houston/2806-Chenevert-St-77004/home/30701121,HARMLS,64685495,N,Y,29.739944,-95.368517
PAST SALE,November-28-2018,Townhouse,1815 Anita St,Houston,TX,77004,275000,2,2.0,Anita Street T/h,1278,1917,2000,916,215,104,Sold,,,http://www.redfin.com/TX/Houston/1815-Anita-St-77004/home/30704755,HARMLS,54663506,N,Y,29.738497,-95.368757
PAST SALE,September-26-2019,Condo/Co-op,1400 Hermann Dr Unit 11B,Houston,TX,77004,244900,2,2.0,Hermann Condo Amd,1433,,1957,614,171,1500,Sold,,,http://www.redfin.com/TX/Houston/1400-Hermann-Dr-77004/unit-11B/home/30372967,HARMLS,2877777,N,Y,29.7224335,-95.3867979
PAST SALE,May-21-2019,Townhouse,2328 Bastrop St,Houston,TX,77004,290000,2,2.0,Hutchins Street Square Rep 0,1608,2033,2007,742,180,117,Sold,,,http://www.redfin.com/TX/Houston/2328-Bastrop-St-77004/home/29510897,HARMLS,2217159,N,Y,29.7403162,-95.3621122
PAST SALE,March-10-2020,Single Family Residential,2603 Hutchins St,Houston,TX,77044,349990,3,3.5,Mcgowen Street Lndg,1840,,2020,448,190,100,Sold,,,http://www.redfin.com/TX/Houston/2603-Hutchins-St-77004/home/148063113,HARMLS,28714263,N,Y,29.738951,-95.363708
PAST SALE,March-24-2020,Single Family Residential,2613 Hutchins St,Houston,TX,77004,339900,3,3.5,Mcgowen Street Lndg,1840,1473,2019,434,185,100,Sold,,,http://www.redfin.com/TX/Houston/2613-Hutchins-St-77004/home/148036646,HARMLS,12866242,N,Y,29.738666,-95.363931
PAST SALE,October-10-2019,Condo/Co-op,1400 Hermann Dr Unit 4E,Houston,TX,77004,185000,2,2.0,1400 Hermann,1728,,1957,600,107,1815,Sold,,,http://www.redfin.com/TX/Houston/1400-Hermann-Dr-77004/unit-4E/home/30372263,HARMLS,2370691,N,Y,29.7224335,-95.3867979
PAST SALE,November-20-2018,Single Family Residential,2206 Stuart St,Houston,TX,77004,449000,3,3.5,Stuart Hutchins Villas,2497,1900,2017,924,180,,Sold,,,http://www.redfin.com/TX/Houston/2206-Stuart-St-77004/home/144617564,HARMLS,11055197,N,Y,29.7344884,-95.3670689
PAST SALE,May-1-2019,Single Family Residential,2622 Bastrop St,Houston,TX,77004,309990,3,3.5,Mcgowen Street Lndg,1840,1408,2018,762,168,100,Sold,,,http://www.redfin.com/TX/Houston/2622-McGowen-St-77004/home/144606401,HARMLS,76881660,N,Y,29.738218,-95.363625
PAST SALE,February-5-2020,Townhouse,5522 Crawford St,Houston,TX,77004,475000,4,3.5,Herman Park,2544,3727,1997,482,187,,Sold,,,http://www.redfin.com/TX/Houston/5522-Crawford-St-77004/home/29771237,HARMLS,64369073,N,Y,29.722969,-95.384549
PAST SALE,August-20-2019,Townhouse,2318 Bastrop St,Houston,TX,77004,295000,2,2.0,Hutchins Street Square Rep 01,1608,1621,2007,651,183,141,Sold,,,http://www.redfin.com/TX/Houston/2318-Bastrop-St-77004/home/29510900,HARMLS,10447543,N,Y,29.7405401,-95.3621531
PAST SALE,July-21-2017,Single Family Residential,2424 Hadley,Houston,TX,77003,377500,3,3.5,Holman Outlot,2393,1890,2017,1411,158,,Sold,,,http://www.redfin.com/TX/Houston/2424-Hadley-St-77003/home/112815087,HARMLS,27454562,N,Y,29.7395058,-95.3601194
PAST SALE,November-7-2019,Single Family Residential,2224 Mcgowen St,Houston,TX,77044,329990,3,3.5,Mcgowen Street Lndg,1840,1488,2018,572,179,100,Sold,,,http://www.redfin.com/TX/Houston/2224-McGowen-St-77004/home/144606396,HARMLS,86054529,N,Y,29.7385322,-95.3635629
PAST SALE,December-23-2019,Single Family Residential,2718 Mcgowen St #5,Houston,TX,77004,329900,3,3.5,Delano Landing,2051,,2019,526,161,100,Sold,,,http://www.redfin.com/TX/Houston/2718-McGowen-St-77004/unit-5/home/112829876,HARMLS,28017617,N,Y,29.736077,-95.35912
PAST SALE,November-25-2019,Townhouse,2228 Mcgowen St,Houston,TX,77004,329900,3,3.5,Mcgowen Street Lndg,1840,1488,2019,554,179,100,Sold,,,http://www.redfin.com/TX/Houston/2228-McGowen-St-77004/home/144606394,HARMLS,6259460,N,Y,29.7386651,-95.3635325
PAST SALE,October-30-2019,Single Family Residential,2310 Hutchins St,Houston,TX,77004,415000,3,3.5,Hutchin's Terrace,2114,,2019,580,196,,Sold,,,http://www.redfin.com/TX/Houston/2310-Hutchins-St-77004/home/112824607,HARMLS,84252608,N,Y,29.741007,-95.3624784
PAST SALE,December-4-2018,Single Family Residential,2422 Hadley St,Houston,TX,77003,459900,3,3.5,Hadley Square,2450,1559,2018,910,188,,Sold,,,http://www.redfin.com/TX/Houston/2422-Hadley-St-77004/home/112815128,HARMLS,42279337,N,Y,29.7395263,-95.3600219
PAST SALE,March-23-2020,Townhouse,3508 Jackson St,Houston,TX,77004,465000,3,2.5,Midtown,2313,2485,2016,435,201,,Sold,,,http://www.redfin.com/TX/Houston/3508-Jackson-St-77004/home/112828576,HARMLS,11509715,N,Y,29.7361715,-95.373406
PAST SALE,November-20-2019,Townhouse,2222 Mcgowen St,Houston,TX,77044,329990,3,3.5,Mcgowen Street Lndg,1840,1928,2018,559,179,100,Sold,,,http://www.redfin.com/TX/Houston/2222-McGowen-St-77004/home/144606397,HARMLS,51334763,N,Y,29.7384606,-95.3636058
PAST SALE,June-15-2020,Single Family Residential,2216 Mcgowen St,Houston,TX,77004,329900,3,3.5,Mcgowen Street Lndg,1840,1457,2020,351,179,100,Sold,,,http://www.redfin.com/TX/Houston/2216-McGowen-St-77004/home/144606392,HARMLS,2673903,N,Y,29.738783,-95.363602
PAST SALE,June-1-2020,Single Family Residential,2607 Hutchins St,Houston,TX,77004,339900,3,3.5,Mcgowen Street Lndg,1840,1473,2020,365,185,100,Sold,,,http://www.redfin.com/TX/Houston/2607-Hutchins-St-77004/home/147741170,HARMLS,89965980,N,Y,29.738826,-95.363805
PAST SALE,July-22-2020,Townhouse,2611 Hutchins St,Houston,TX,77004,339900,3,3.5,Mcgowen Street Lndg,1840,1473,2020,314,185,100,Sold,,,http://www.redfin.com/TX/Houston/2611-Hutchins-St-77004/home/148103289,HARMLS,97386432,N,Y,29.73872,-95.36389
PAST SALE,July-22-2020,Single Family Residential,2609 Hutchins St,Houston,TX,77004,339900,3,3.5,Mcgowen Street Lndg,1840,1473,2020,314,185,100,Sold,,,http://www.redfin.com/TX/Houston/2609-Hutchins-St-77004/home/148112652,HARMLS,67642418,N,Y,29.738773,-95.363848
PAST SALE,August-5-2020,Townhouse,2338 Bastrop St,Houston,TX,77004,349000,3,3.5,South,2295,1504,2007,300,152,155,Sold,,,http://www.redfin.com/TX/Houston/2338-Bastrop-St-77004/home/29489631,HARMLS,27553456,N,Y,29.74017,-95.362026
PAST SALE,March-22-2019,Townhouse,2374 Bastrop St,Houston,TX,77004,295000,2,2.5,Hutchins Street Square Rep 01,2327,2013,2008,802,127,117,Sold,,,http://www.redfin.com/TX/Houston/2374-Bastrop-St-77004/home/29510556,HARMLS,60257679,N,Y,29.7397945,-95.3630217
PAST SALE,April-30-2019,Townhouse,2304 Bastrop St,Houston,TX,77004,342700,2,2.5,Hutchins Street Square,2201,1504,2007,763,156,141,Sold,,,http://www.redfin.com/TX/Houston/2304-Bastrop-St-77004/home/29510874,HARMLS,23454475,N,Y,29.740631,-95.36198
PAST SALE,March-5-2019,Townhouse,2346 Bastrop St,Houston,TX,77004,299950,3,3.5,Hutchins Street Square,2295,1504,2007,819,131,141,Sold,,,http://www.redfin.com/TX/Houston/2346-Bastrop-St-77004/home/29510887,HARMLS,97107322,N,Y,29.739892,-95.362246
PAST SALE,September-14-2020,Townhouse,2316 Bastrop St,Houston,TX,77004,295990,2,2.0,Hutchins Street Square Rep 1,1608,1562,2007,260,184,155,Sold,,,http://www.redfin.com/TX/Houston/2316-Bastrop-St-77004/home/29510903,HARMLS,33456678,N,Y,29.7404983,-95.3620713
PAST SALE,March-30-2020,Townhouse,2320 Emancipation Ave,Houston,TX,77004,324000,3,3.5,Waterhill Homes/mcilhenny St,2013,1825,2006,428,161,,Sold,,,http://www.redfin.com/TX/Houston/2320-Emancipation-Ave-77004/home/29534091,HARMLS,60627677,N,Y,29.7394546,-95.3613866
PAST SALE,August-27-2020,Vacant Land,3304 Live Oak St,Houston,TX,77004,145000,,,Tuffly H G,,5000,,278,,,Sold,,,http://www.redfin.com/TX/Houston/3304-Live-Oak-St-77004/home/29693254,HARMLS,39172130,N,Y,29.7327563,-95.3641664
PAST SALE,July-8-2020,Single Family Residential,5115 Jackson St,Houston,TX,77004,990080,3,3.5,Jackson Estates,3536,3750,2015,328,280,,Sold,,,http://www.redfin.com/TX/Houston/5115-Jackson-St-77004/home/110193910,HARMLS,11567404,N,Y,29.7251771,-95.3808887
PAST SALE,February-14-2019,Townhouse,2619 Live Oak St,Houston,TX,77004,300000,3,3.0,Holman Outlot 13,1438,10000,1930,838,209,,Sold,,,http://www.redfin.com/TX/Houston/2619-Live-Oak-St-77004/home/29693310,HARMLS,88838725,N,Y,29.7364184,-95.3606645
PAST SALE,August-18-2020,Single Family Residential,2614 Drew St,Houston,TX,77004,71900,1,1.0,Holman Outlot 13,688,1450,1930,287,105,,Sold,,,http://www.redfin.com/TX/Houston/2614-Drew-St-77004/home/29693407,HARMLS,40165882,N,Y,29.735413,-95.3609369
PAST SALE,August-30-2019,Townhouse,2414 Saint Charles St,Houston,TX,77004,599900,3,3.5,Geiselman,7665,5000,2019,641,78,,Sold,,,http://www.redfin.com/TX/Houston/2414-St-Charles-St-77004/home/29694719,HARMLS,73336127,N,Y,29.7382532,-95.3609778
PAST SALE,October-25-2019,Single Family Residential,2915 Paige St,Houston,TX,77004,270000,3,2.5,Holman Outlot 22,1818,5000,2010,585,149,,Sold,,,http://www.redfin.com/TX/Houston/2915-Paige-St-77004/home/40213700,HARMLS,80356387,N,Y,29.7330232,-95.3595165
PAST SALE,April-20-2018,Single Family Residential,3205 Rosalie St,Houston,TX,77004,170000,4,2.0,Booker T Washington,1254,4000,2017,1138,136,,Sold,,,http://www.redfin.com/TX/Houston/3205-Rosalie-St-77004/home/144622958,HARMLS,6892878,N,Y,29.7314099,-95.3560544
PAST SALE,October-1-2018,Single Family Residential,3614 Dennis St,Houston,TX,77004,157000,3,2.0,Leeland Park,,5000,,974,,,Sold,,,http://www.redfin.com/TX/Houston/3614-Dennis-St-77004/home/29707936,HARMLS,86954599,N,Y,29.7311946,-95.3472644
PAST SALE,December-8-2018,Single Family Residential,3603 Dennis St,Houston,TX,77004,165000,3,2.5,Leeland Park,,,,906,,,Sold,,,http://www.redfin.com/TX/Houston/3603-Dennis-St-77004/home/29707951,HARMLS,85344946,N,Y,29.7316903,-95.3475703
PAST SALE,September-28-2018,Single Family Residential,3715 Dennis St,Houston,TX,77004,167000,4,2.0,Leeland Park,,5000,,977,,,Sold,,,http://www.redfin.com/TX/Houston/3715-Dennis-St-77004/home/29707943,HARMLS,54783617,N,Y,29.7311266,-95.3460467
PAST SALE,April-5-2019,Vacant Land,3701 &3705 Mcgowen St,Houston,TX,77004,270700,,,Leeland Park,,9500,,788,,,Sold,,,http://www.redfin.com/TX/Houston/3705-McGowen-St-77004/home/29708076,HARMLS,16497165,N,Y,29.731942,-95.346137
PAST SALE,January-21-2020,Single Family Residential,3608 Mcilhenny St,Houston,TX,77004,150000,3,2.0,Leeland Park,1004,5000,1940,497,149,,Sold,,,http://www.redfin.com/TX/Houston/3608-McIlhenny-St-77004/home/29708108,HARMLS,81707007,N,Y,29.7331418,-95.346795
PAST SALE,May-10-2019,Multi-Family (2-4 Unit),3335 Tuam St #5,Houston,TX,77004,318000,0,,Wilson Wm A,2300,5000,1938,753,138,,Sold,,,http://www.redfin.com/TX/Houston/3335-Tuam-St-77004/unit-5/home/29764430,HARMLS,10078382,N,Y,29.7318962,-95.3525221
PAST SALE,September-30-2020,Single Family Residential,3030 Mcgowen St,Houston,TX,77004,173000,4,1.0,Wilson Wm A,1110,5000,1936,244,156,,Sold,,,http://www.redfin.com/TX/Houston/3030-McGowen-St-77004/home/29764526,HARMLS,52354667,N,Y,29.7349615,-95.3564815
PAST SALE,June-20-2019,Single Family Residential,2806 Nettleton St,Houston,TX,77004,84999,2,1.0,Wilson Wm A,872,1650,1994,712,97,,Sold,,,http://www.redfin.com/TX/Houston/2806-Nettleton-St-77004/home/29764608,HARMLS,32507810,N,Y,29.7328105,-95.35501
PAST SALE,December-5-2018,Single Family Residential,2804 Nettleton St,Houston,TX,77004,85000,2,1.0,Wilson Wm A,852,1650,1938,909,100,,Sold,,,http://www.redfin.com/TX/Houston/2804-Nettleton-St-77004/home/29764626,HARMLS,12370291,N,Y,29.7329023,-95.3549691
PAST SALE,October-18-2019,Single Family Residential,3426 Mcgowen St,Houston,TX,77004,125000,2,1.0,Wilson Wm A,1000,5000,1936,592,125,,Sold,,,http://www.redfin.com/TX/Houston/3426-McGowen-St-77004/home/29765560,HARMLS,80363295,N,Y,29.7331147,-95.3505447
PAST SALE,October-4-2019,Single Family Residential,3307 Rosalie St,Houston,TX,77004,55000,0,1.0,Booker T Washington,876,3800,1936,606,63,,Sold,,,http://www.redfin.com/TX/Houston/3307-Rosalie-St-77004/home/29809410,HARMLS,50064510,N,Y,29.7309758,-95.3546421
PAST SALE,February-8-2019,Single Family Residential,3305 Rosalie St,Houston,TX,77004,89900,3,2.0,Booker T Washington,1200,5000,1936,844,75,,Sold,,,http://www.redfin.com/TX/Houston/3305-Rosalie-St-77004/home/29809416,HARMLS,44058537,N,Y,29.731061,-95.3547647
PAST SALE,June-29-2020,Single Family Residential,2619 Rosewood St,Houston,TX,77004,170000,3,2.0,Washington Terrace,1648,5775,1941,337,103,,Sold,,,http://www.redfin.com/TX/Houston/2619-Rosewood-St-77004/home/29893683,HARMLS,87317479,N,Y,29.7249857,-95.3689087
PAST SALE,December-19-2019,Single Family Residential,3107 Saint Charles St Unit B,Houston,TX,77004,329000,3,3.5,Dumble Mary,1975,1796,2019,530,167,,Sold,,,http://www.redfin.com/TX/Houston/3107-St-Charles-St-77004/unit-B/home/167843525,HARMLS,53716105,N,Y,29.734399,-95.363454
PAST SALE,October-31-2019,Single Family Residential,2418 Emancipation Ave,Houston,TX,77004,365000,3,2.5,Dowling Park,2412,1508,2015,579,151,,Sold,,,http://www.redfin.com/TX/Houston/2418-Emancipation-Ave-77004/home/110188284,HARMLS,20701023,N,Y,29.7387973,-95.3619332
PAST SALE,June-28-2019,Single Family Residential,2304 Mcilhenny St,Houston,TX,77004,385000,3,3.5,Bastrop Mcilhenny Villas,2210,1488,2018,704,174,,Sold,,,http://www.redfin.com/TX/Houston/2304-McIlhenny-St-77004/home/112826922,HARMLS,822187,N,Y,29.7394422,-95.3621088
PAST SALE,August-2-2019,Single Family Residential,2621 Hutchins,Houston,TX,77004,355000,3,3.5,Townhomes AT Hutchins,1969,1750,2019,669,180,,Sold,,,http://www.redfin.com/TX/Houston/2621-Hutchins-St-77004/home/147250430,HARMLS,41225678,N,Y,29.7384324,-95.364008
PAST SALE,May-27-2019,Single Family Residential,2624 Bastrop St,Houston,TX,77004,319990,3,3.5,Mcgowen Street Lndg,1840,1994,2018,736,174,100,Sold,,,http://www.redfin.com/TX/Houston/2624-Bastrop-St-77004/home/148036648,HARMLS,35248775,N,Y,29.7381067,-95.3635532
PAST SALE,April-19-2019,Townhouse,2614 Bastrop St,Houston,TX,77004,339990,3,3.5,Mcgowen Street Lndg,1840,2554,2018,774,185,100,Sold,,,http://www.redfin.com/TX/Houston/2614-Bastrop-St-77004/home/148063115,HARMLS,22510079,N,Y,29.7382972,-95.363457
PAST SALE,November-1-2018,Townhouse,2301 Hutchins St,Houston,TX,77004,375000,3,3.5,Hutchins Street Square,2246,1984,2007,943,167,117,Sold,,,http://www.redfin.com/TX/Houston/2301-Hutchins-St-77004/home/29510537,HARMLS,67150849,N,Y,29.7406688,-95.3623166
PAST SALE,December-27-2019,Townhouse,2317 Eagle St,Houston,TX,77004,345000,3,3.5,Holman Outlot,1864,1425,2019,522,185,120,Sold,,,http://www.redfin.com/TX/Houston/2317-Eagle-St-77004/home/167957273,HARMLS,92362221,N,Y,29.7284869,-95.3706322
PAST SALE,May-15-2020,Single Family Residential,1919 Rosewood St,Houston,TX,77004,499900,3,2.5,View at Rosewood,2544,2953,2019,382,197,,Sold,,,http://www.redfin.com/TX/Houston/1919-Rosewood-St-77004/home/163556917,HARMLS,19475566,N,Y,29.7285475,-95.3751074
PAST SALE,May-29-2020,Single Family Residential,2808 Wheeler St,Houston,TX,77004,300000,3,2.5,Washington Terrace,2770,6300,1935,368,108,,Sold,,,http://www.redfin.com/TX/Houston/2808-Wheeler-Ave-77004/home/56505866,HARMLS,21774538,N,Y,29.7244638,-95.3673142
PAST SALE,November-18-2019,Multi-Family (5+ Unit),3610 Burkett St,Houston,TX,77004,329000,0,,Forest Home,2724,3753,1965,561,121,,Sold,,,http://www.redfin.com/TX/Houston/3610-Burkett-St-77004/home/108429645,HARMLS,64101994,N,Y,29.7265735,-95.3586478
PAST SALE,January-30-2018,Multi-Family (2-4 Unit),1912 Wheeler St N #1,Houston,TX,77004,250000,0,,Almeda Place,2172,6090,1938,1218,115,,Sold,,,http://www.redfin.com/TX/Houston/1912-Wheeler-Ave-77004/unit-1/home/144789846,HARMLS,9685590,N,Y,29.7291366,-95.375021
PAST SALE,September-7-2018,Townhouse,2010 Blodgett St Unit H,Houston,TX,77004,319000,2,2.0,Maya Court 01 Amd 01,1799,2113,2007,998,177,33,Sold,,,http://www.redfin.com/TX/Houston/2010-Blodgett-St-77004/unit-H/home/29546306,HARMLS,70718981,N,Y,29.7268723,-95.375839
PAST SALE,July-30-2018,Townhouse,2427 Wentworth St,Houston,TX,77004,289990,2,3.0,Lofts/wentworth,1700,2440,2013,1037,171,55,Sold,,,http://www.redfin.com/TX/Houston/2427-Wentworth-St-77004/home/29615739,HARMLS,59370667,N,Y,29.724507,-95.3719694
PAST SALE,March-3-2020,Multi-Family (5+ Unit),3706 Delano St,Houston,TX,77004,275000,0,,Smith Furniture Co Sec 02,2592,10000,1930,455,106,,Sold,,,http://www.redfin.com/TX/Houston/3706-Delano-St-77004/home/29694689,HARMLS,4167324,N,Y,29.7291951,-95.364381
PAST SALE,June-21-2019,Single Family Residential,2702 Winbern St,Houston,TX,77004,179500,3,1.0,Smith Furniture Co Sec 02,1000,5000,1930,711,180,,Sold,,,http://www.redfin.com/TX/Houston/2702-Winbern-St-77004/home/29694685,HARMLS,83488457,N,Y,29.7295655,-95.364984
PAST SALE,March-12-2019,Single Family Residential,2811 Winbern St,Houston,TX,77004,145000,2,1.0,Holman Outlot 43,1380,4223,1940,812,105,,Sold,,,http://www.redfin.com/TX/Houston/2811-Winbern-St-77004/home/29694728,HARMLS,58058268,N,Y,29.7291304,-95.3634714
PAST SALE,June-7-2019,Single Family Residential,1923 Blodgett St,Houston,TX,77004,325000,4,2.0,Almeda Place Amd,2126,5250,1938,725,153,,Sold,,,http://www.redfin.com/TX/Houston/1923-Blodgett-St-77004/home/29816582,HARMLS,23415327,N,Y,29.7274929,-95.3760637
PAST SALE,February-15-2019,Single Family Residential,1909 Blodgett St,Houston,TX,77004,350000,4,2.0,Almeda Place,2706,5250,1938,837,129,,Sold,,,http://www.redfin.com/TX/Houston/1909-Blodgett-St-77004/home/29816587,HARMLS,27853556,N,Y,29.7277454,-95.3765135
PAST SALE,May-10-2019,Multi-Family (2-4 Unit),2319 Rosewood St,Houston,TX,77004,229000,0,,Almeda Place,2666,5000,1948,753,86,,Sold,,,http://www.redfin.com/TX/Houston/2319-Rosewood-St-77004/home/29817391,HARMLS,87271050,N,Y,29.7266797,-95.371648
PAST SALE,May-17-2019,Single Family Residential,3246 Francis St,Houston,TX,77004,95000,2,1.0,Forest Home,984,4320,1936,746,97,,Sold,,,http://www.redfin.com/TX/Houston/3246-Francis-St-77004/home/29819467,HARMLS,32381184,N,Y,29.7292978,-95.3570946
PAST SALE,September-12-2018,Single Family Residential,3709 Sauer St,Houston,TX,77004,60000,1,1.0,Forest Home Add,328,425,1940,993,183,,Sold,,,http://www.redfin.com/TX/Houston/3709-Sauer-St-77004/home/29820225,HARMLS,47413368,N,Y,29.7271928,-95.3609063
PAST SALE,April-17-2020,Multi-Family (2-4 Unit),2312 Blodgett St,Houston,TX,77004,465000,0,2.0,Riverside Terrace Sec 01,3710,6000,1935,410,125,,Sold,,,http://www.redfin.com/TX/Houston/2312-Blodgett-St-77004/home/29889550,HARMLS,44668106,N,Y,29.7250474,-95.3729562
PAST SALE,September-12-2018,Multi-Family (2-4 Unit),2414 Isabella St,Houston,TX,77004,276900,0,,Washington Terrace,2196,5775,1930,993,126,,Sold,,,http://www.redfin.com/TX/Houston/2414-Isabella-St-77004/home/29892411,HARMLS,40922794,N,Y,29.728901,-95.368522
PAST SALE,October-3-2018,Multi-Family (5+ Unit),2506 Wheeler St #4,Houston,TX,77004,329000,0,,Washington Terrace,,6825,1940,972,,,Sold,,,http://www.redfin.com/TX/Houston/2506-Wheeler-Ave-77004/unit-4/home/29893224,HARMLS,70139609,N,Y,29.7260035,-95.3699523
PAST SALE,August-24-2020,Single Family Residential,2822 Barbee St,Houston,TX,77004,199900,3,1.0,Washington Terrace,1366,5775,1940,281,146,,Sold,,,http://www.redfin.com/TX/Houston/2822-Barbee-St-77004/home/29893284,HARMLS,91028372,N,Y,29.7248193,-95.3663331
PAST SALE,September-30-2019,Single Family Residential,2818 Barbee St,Houston,TX,77004,425989,4,3.0,Washington Terrace,2542,5775,1940,610,168,,Sold,,,http://www.redfin.com/TX/Houston/2818-Barbee-St-77004/home/29893287,HARMLS,8069329,N,Y,29.7248594,-95.3664557
PAST SALE,December-9-2019,Single Family Residential,2824 Isabella St,Houston,TX,77004,225000,3,2.5,Washington Terrace,1892,5775,1945,540,119,,Sold,,,http://www.redfin.com/TX/Houston/2824-Isabella-St-77004/home/29893344,HARMLS,31711177,N,Y,29.7266849,-95.3648205
PAST SALE,January-31-2019,Single Family Residential,2918 Cleburne St,Houston,TX,77004,419900,3,2.5,Washington Terrace,2304,5250,1944,852,182,,Sold,,,http://www.redfin.com/TX/Houston/2918-Cleburne-St-77004/home/29893365,HARMLS,8487715,N,Y,29.7256556,-95.3646161
PAST SALE,February-12-2020,Multi-Family (2-4 Unit),2616 Isabella St,Houston,TX,77004,295000,0,1.0,Washington Terrace,1743,5775,1930,475,169,,Sold,,,http://www.redfin.com/TX/Houston/2616-Isabella-St-77004/home/29893500,HARMLS,92696757,N,Y,29.72787,-95.366811
PAST SALE,January-27-2020,Multi-Family (2-4 Unit),2709 Cleburne St,Houston,TX,77004,429900,0,2.0,Washington Terrace,2750,5250,1930,491,156,,Sold,,,http://www.redfin.com/TX/Houston/2709-Cleburne-St-77004/home/29893509,HARMLS,34685902,N,Y,29.7272102,-95.3663331
PAST SALE,October-20-2020,Single Family Residential,2405 Ruth St,Houston,TX,77004,359000,4,2.0,Washington Terrace,1900,5775,1930,224,189,,Sold,,,http://www.redfin.com/TX/Houston/2405-Ruth-St-77004/home/29893561,HARMLS,27824993,N,Y,29.7256918,-95.3715252
PAST SALE,September-25-2019,Single Family Residential,2813 Truxillo St,Houston,TX,77004,384900,3,2.5,Washington Terrace,2090,5775,1936,615,184,,Sold,,,http://www.redfin.com/TX/Houston/2813-Truxillo-St-77004/home/29893632,HARMLS,25848740,N,Y,29.7278309,-95.3643708
PAST SALE,August-3-2018,Single Family Residential,3236 Winbern St,Houston,TX,77004,129999,3,1.0,Sylvan Terrace,1389,5250,1948,1033,94,,Sold,,,http://www.redfin.com/TX/Houston/3236-Winbern-St-77004/home/29907739,HARMLS,77925595,N,Y,29.7263281,-95.3591384
PAST SALE,December-2-2019,Single Family Residential,3206 Winbern St,Houston,TX,77004,149000,2,1.0,Sylvan Terrace,1092,5000,1960,547,136,,Sold,,,http://www.redfin.com/TX/Houston/3206-Winbern-St-77004/home/29907745,HARMLS,4222832,N,Y,29.7266092,-95.3599968
PAST SALE,May-23-2019,Single Family Residential,4520 Rockwood Dr,Houston,TX,77004,410000,3,2.0,University Oaks,1550,7500,1965,740,265,16,Sold,,,http://www.redfin.com/TX/Houston/4520-Rockwood-Dr-77004/home/145881513,HARMLS,2758147,N,Y,29.7160921,-95.3467133
PAST SALE,February-21-2020,Townhouse,3505 Canfield St,Houston,TX,77004,179700,3,2.5,Samaritan Estates,1659,1508,2005,466,108,,Sold,,,http://www.redfin.com/TX/Houston/3505-Canfield-St-77004/home/29383566,HARMLS,95927561,N,Y,29.725253,-95.352693
PAST SALE,June-3-2020,Single Family Residential,3911 Anita St,Houston,TX,77004,199990,2,2.0,Melwith Manor,1417,6500,1958,363,141,,Sold,,,http://www.redfin.com/TX/Houston/3911-Anita-St-77004/home/29686817,HARMLS,43914440,N,Y,29.7287466,-95.3450377
PAST SALE,February-19-2020,Single Family Residential,3505 Anita St,Houston,TX,77004,125000,2,1.0,Houston City St Rwy Sec 04,668,5000,1930,468,187,,Sold,,,http://www.redfin.com/TX/Houston/3505-Anita-St-77004/home/29687596,HARMLS,73172884,N,Y,29.7300572,-95.3491756
PAST SALE,May-29-2020,Single Family Residential,3724 Tuam St,Houston,TX,77004,105000,2,1.0,Leeland Park,873,5000,1930,368,120,,Sold,,,http://www.redfin.com/TX/Houston/3724-Tuam-St-77004/home/29707980,HARMLS,57768065,N,Y,29.7295928,-95.3464272
PAST SALE,September-21-2020,Single Family Residential,3820 Tuam St,Houston,TX,77004,140000,0,1.0,Leeland Park,1250,5000,1936,253,112,,Sold,,,http://www.redfin.com/TX/Houston/3820-Tuam-St-77004/home/29707971,HARMLS,84356713,N,Y,29.7292748,-95.3453646
PAST SALE,August-24-2020,Single Family Residential,4373 Varsity Ln,Houston,TX,77004,399000,4,2.0,University Oaks,2020,7200,1946,281,198,17,Sold,,,http://www.redfin.com/TX/Houston/4373-Varsity-Ln-77004/home/29963654,HARMLS,66796802,N,Y,29.7166256,-95.3446699
PAST SALE,September-24-2020,Single Family Residential,4390 Varsity Ln,Houston,TX,77004,375000,2,2.0,University Oaks,1588,7800,1950,250,236,17,Sold,,,http://www.redfin.com/TX/Houston/4390-Varsity-Ln-77004/home/29963666,HARMLS,48432551,N,Y,29.7157308,-95.3433622
PAST SALE,February-6-2020,Single Family Residential,4393 Varsity Ln,Houston,TX,77004,335000,4,4.0,University Oaks,2323,7800,1950,481,144,16,Sold,,,http://www.redfin.com/TX/Houston/4393-Varsity-Ln-77004/home/29963681,HARMLS,20127600,N,Y,29.7161148,-95.3427901
PAST SALE,July-26-2018,Single Family Residential,4839 Rockwood Dr,Houston,TX,77004,569900,3,3.0,University Oaks,2636,10913,1955,1041,216,16,Sold,,,http://www.redfin.com/TX/Houston/4839-Rockwood-Dr-77004/home/29963789,HARMLS,2799107,N,Y,29.7129978,-95.3473671
PAST SALE,December-2-2019,Single Family Residential,4369 Faculty Ln,Houston,TX,77004,275000,4,2.5,University Oaks,2412,7200,1963,547,114,17,Sold,,,http://www.redfin.com/TX/Houston/4369-Faculty-Ln-77004/home/29963783,HARMLS,74611455,N,Y,29.7144089,-95.3459368
PAST SALE,December-3-2018,Single Family Residential,4360 Fiesta Ln,Houston,TX,77004,375000,3,2.0,University Oaks,1997,7200,1958,911,188,16,Sold,,,http://www.redfin.com/TX/Houston/4360-Fiesta-Ln-77004/home/29963850,HARMLS,70967887,N,Y,29.715011,-95.3466724
PAST SALE,September-25-2020,Single Family Residential,4380 Fiesta Ln,Houston,TX,77004,375000,3,2.0,University Oaks,1888,7200,1950,249,199,17,Sold,,,http://www.redfin.com/TX/Houston/4380-Fiesta-Ln-77004/home/29963858,HARMLS,21001005,N,Y,29.7144844,-95.3449049
PAST SALE,October-30-2020,Single Family Residential,4802 Rockwood Dr,Houston,TX,77004,500000,4,3.5,University Oaks,3130,6840,1948,214,160,17,Sold,,,http://www.redfin.com/TX/Houston/4802-Rockwood-Dr-77004/home/29963930,HARMLS,43974479,N,Y,29.7145334,-95.3473263
PAST SALE,August-10-2018,Single Family Residential,4814 Rockwood Dr,Houston,TX,77004,375000,4,2.5,University Oaks,2462,6600,1950,1026,152,16,Sold,,,http://www.redfin.com/TX/Houston/4814-Rockwood-Dr-77004/home/29963927,HARMLS,69301573,N,Y,29.714074,-95.3475306
PAST SALE,May-31-2019,Single Family Residential,4509 University Oaks Blvd,Houston,TX,77004,324500,2,2.0,University Oaks,1670,7200,1976,732,194,16,Sold,,,http://www.redfin.com/TX/Houston/4509-University-Oaks-Blvd-77004/home/29963962,HARMLS,13001193,N,Y,29.7153191,-95.3423815
PAST SALE,November-22-2019,Single Family Residential,3830 Arbor St,Houston,TX,77004,225000,3,1.0,Oak Manor Sec 02,930,6600,1952,557,242,,Sold,,,http://www.redfin.com/TX/Houston/3830-Arbor-St-77004/home/29967046,HARMLS,70421513,N,Y,29.7147572,-95.3529663
PAST SALE,July-21-2020,Single Family Residential,3834 Blodgett St,Houston,TX,77004,225000,3,2.0,Oak Manor Sec 04,1377,6050,1955,315,163,,Sold,,,http://www.redfin.com/TX/Houston/3834-Blodgett-St-77004/home/29967102,HARMLS,9957939,N,Y,29.7162306,-95.3522307
PAST SALE,July-27-2018,Single Family Residential,3875 Arbor St,Houston,TX,77004,299900,3,2.0,Oak Manor 6,1472,6962,1948,1040,204,,Sold,,,http://www.redfin.com/TX/Houston/3875-Arbor-St-77004/home/29967661,HARMLS,58533847,N,Y,29.714701,-95.3510045
PAST SALE,June-21-2019,Single Family Residential,3817 Palm St,Houston,TX,77004,399000,5,3.5,University Woods Add,3044,6954,1950,711,131,,Sold,,,http://www.redfin.com/TX/Houston/3817-Palm-St-77004/home/29969325,HARMLS,29068179,N,Y,29.7129917,-95.3542334
PAST SALE,July-11-2018,Single Family Residential,3813 Wichita St,Houston,TX,77004,215000,2,2.0,University Woods,1408,6954,1950,1056,153,,Sold,,,http://www.redfin.com/TX/Houston/3813-Wichita-St-77004/home/29969307,HARMLS,21254234,N,Y,29.7137652,-95.3540699
PAST SALE,April-22-2020,Single Family Residential,3825 Wichita St,Houston,TX,77004,245000,3,1.0,University Woods,1256,6948,1950,405,195,,Sold,,,http://www.redfin.com/TX/Houston/3825-Wichita-St-77004/home/29969308,HARMLS,66893387,N,Y,29.7136513,-95.3535386
PAST SALE,August-21-2020,Single Family Residential,3828 Gertin St,Houston,TX,77004,349900,4,2.5,University Woods,2150,7290,1950,284,163,,Sold,,,http://www.redfin.com/TX/Houston/3828-Gertin-St-77004/home/29969374,HARMLS,88248193,N,Y,29.7117317,-95.3541516
PAST SALE,January-27-2020,Single Family Residential,3548 Rosewood St,Houston,TX,77004,206000,3,2.0,Canfield Oaks,1768,6800,1950,491,117,,Sold,,,http://www.redfin.com/TX/Houston/3548-Rosewood-St-77004/home/29999333,HARMLS,6294005,N,Y,29.7195429,-95.3562362
PAST SALE,April-13-2020,Single Family Residential,3563 Ruth St,Houston,TX,77004,234900,4,1.5,Canfield Oaks,1647,7146,1950,414,143,,Sold,,,http://www.redfin.com/TX/Houston/3563-Ruth-St-77004/home/29999360,HARMLS,57664007,N,Y,29.7189278,-95.3558275
PAST SALE,October-1-2020,Single Family Residential,2817 Palm St,Houston,TX,77004,319900,3,3.5,Riverside Terrace,1738,1600,2020,243,184,,Sold,,,http://www.redfin.com/TX/Houston/2817-Palm-St-77004/home/170251931,HARMLS,63674762,N,Y,29.7202427,-95.3701116
PAST SALE,December-23-2019,Single Family Residential,2815 Palm St,Houston,TX,77004,315000,3,2.5,Midtown/riverside Terrace,1738,,2019,526,181,,Sold,,,http://www.redfin.com/TX/Houston/2815-Palm-St-77004/home/170251930,HARMLS,12755408,N,Y,29.720351,-95.370291
PAST SALE,March-30-2018,Single Family Residential,3450 Wichita St,Houston,TX,77004,225000,1,1.0,Southwood,823,9028,1945,1159,273,,Sold,,,http://www.redfin.com/TX/Houston/3450-Wichita-St-77004/home/102152140,HARMLS,52868122,N,Y,29.7152855,-95.3603232
PAST SALE,December-12-2018,Single Family Residential,3505 Rosedale St,Houston,TX,77004,145000,2,2.0,Tierwester Oaks,1284,6825,1954,902,113,21,Sold,,,http://www.redfin.com/TX/Houston/3505-Rosedale-St-77004/home/29784880,HARMLS,98696289,N,Y,29.7162242,-95.3590975
PAST SALE,June-28-2019,Multi-Family (2-4 Unit),3014 Wentworth St,Houston,TX,77004,410000,0,,Feldman Court,2800,,1935,704,146,,Sold,,,http://www.redfin.com/TX/Houston/3014-Wentworth-St-77004/home/29847415,HARMLS,43849333,N,Y,29.7208079,-95.3673551
PAST SALE,September-14-2020,Condo/Co-op,1111 Hermann Dr Unit 11D,Houston,TX,77004,830000,2,2.5,Warwick Towers,2187,,1983,260,380,2220,Sold,,,http://www.redfin.com/TX/Houston/1111-Hermann-Dr-77004/unit-11D/home/147239742,HARMLS,84451346,N,Y,29.7235904,-95.3894153
PAST SALE,February-22-2020,Multi-Family (2-4 Unit),2811 Rosedale St #4,Houston,TX,77004,475000,0,1.0,Feldman Court,2808,5250,1945,465,169,,Sold,,,http://www.redfin.com/TX/Houston/2811-Rosedale-St-77004/unit-4/home/29847440,HARMLS,56330795,N,Y,29.7209777,-95.369849
PAST SALE,August-30-2019,Single Family Residential,2814 Arbor St,Houston,TX,77004,215000,2,1.0,Riverside Terrace,1216,5250,1945,641,177,,Sold,,,http://www.redfin.com/TX/Houston/2814-Arbor-St-77004/home/29847444,HARMLS,63996992,N,Y,29.721225,-95.369606
PAST SALE,September-26-2018,Multi-Family (2-4 Unit),2810 Wentworth St,Houston,TX,77004,365000,0,,Feldman Court,2476,5250,1945,979,147,,Sold,,,http://www.redfin.com/TX/Houston/2810-Wentworth-St-77004/home/29847470,HARMLS,79996234,N,Y,29.7219499,-95.3692357
PAST SALE,June-27-2019,Multi-Family (2-4 Unit),2715 Palm St #1,Houston,TX,77004,225000,0,,Riverside Ext,2725,5250,1935,705,83,,Sold,,,http://www.redfin.com/TX/Houston/2715-Palm-St-77004/unit-1/home/29888724,HARMLS,30561565,N,Y,29.7208565,-95.371207
PAST SALE,June-29-2020,Single Family Residential,3339 Palm St,Houston,TX,77004,225000,4,3.0,Southwood,2452,6900,1930,337,92,,Sold,,,http://www.redfin.com/TX/Houston/3339-Palm-St-77004/home/29897450,HARMLS,31973613,N,Y,29.7158653,-95.3635123
PAST SALE,April-22-2020,Single Family Residential,3318 Wichita St,Houston,TX,77004,349999,3,2.0,Southwood,2026,6900,1955,405,173,,Sold,,,http://www.redfin.com/TX/Houston/3318-Wichita-St-77004/home/29897465,HARMLS,82367371,N,Y,29.7165107,-95.364289
PAST SALE,May-1-2019,Single Family Residential,3411 Wichita St,Houston,TX,77004,299000,3,1.5,Southwood,2328,6900,1948,762,128,,Sold,,,http://www.redfin.com/TX/Houston/3411-Wichita-St-77004/home/29897486,HARMLS,76114523,N,Y,29.7162439,-95.3619589
PAST SALE,September-23-2020,Multi-Family (2-4 Unit),3420 Rosedale St,Houston,TX,77004,299999,0,1.0,Southwood,2830,6900,1945,251,106,,Sold,,,http://www.redfin.com/TX/Houston/3420-Rosedale-St-77004/home/29897497,HARMLS,6716712,N,Y,29.7164893,-95.3614684
PAST SALE,May-29-2020,Single Family Residential,3305 Palm St,Houston,TX,77004,245000,2,1.0,Southwood,1496,8050,1948,368,164,,Sold,,,http://www.redfin.com/TX/Houston/3305-Palm-St-77004/home/29897474,HARMLS,70720250,N,Y,29.7163857,-95.3651475
PAST SALE,June-30-2020,Multi-Family (2-4 Unit),3430 Rosedale St,Houston,TX,77004,299990,0,3.0,Southwood,2966,6900,1945,336,101,,Sold,,,http://www.redfin.com/TX/Houston/3430-Rosedale-St-77004/home/29897508,HARMLS,95405026,N,Y,29.7163521,-95.3609574
PAST SALE,September-23-2020,Multi-Family (2-4 Unit),3426 Rosedale St,Houston,TX,77004,325000,0,2.0,Southwood,2762,6900,1935,251,118,,Sold,,,http://www.redfin.com/TX/Houston/3426-Rosedale-St-77004/home/29897511,HARMLS,48235862,N,Y,29.7164123,-95.3611413
PAST SALE,September-27-2019,Single Family Residential,3416 Palm St,Houston,TX,77004,409000,3,2.5,Southwood,2294,6900,1930,613,178,,Sold,,,http://www.redfin.com/TX/Houston/3416-Palm-St-77004/home/29897549,HARMLS,30853659,N,Y,29.7150593,-95.3622451
PAST SALE,June-27-2019,Single Family Residential,3432 Palm St,Houston,TX,77004,599999,5,3.5,Southwood,3407,6900,2014,705,176,,Sold,,,http://www.redfin.com/TX/Houston/3432-Palm-St-77004/home/29897553,HARMLS,47543643,N,Y,29.7148167,-95.3615501
PAST SALE,June-21-2019,Single Family Residential,3411 Oakdale St,Houston,TX,77004,499900,4,3.5,Southwood,3240,5750,1930,711,154,,Sold,,,http://www.redfin.com/TX/Houston/3411-Oakdale-St-77004/unit-A/home/29897595,HARMLS,41375037,N,Y,29.7139952,-95.3628991
PAST SALE,July-12-2019,Single Family Residential,3434 Southmore Blvd,Houston,TX,77004,425900,5,3.0,Southwood,6936,13125,1930,690,61,,Sold,,,http://www.redfin.com/TX/Houston/3434-Southmore-Blvd-77004/home/29897609,HARMLS,27997957,N,Y,29.7138828,-95.3617749
PAST SALE,September-22-2020,Single Family Residential,2142 Dennis St,Houston,TX,77004,389990,3,3.5,La Ville St Emanuel,2370,1971,2020,252,165,150,Sold,,,http://www.redfin.com/TX/Houston/2142-Dennis-St-77004/home/112814284,HARMLS,70671790,N,Y,29.7385865,-95.364767
PAST SALE,July-19-2019,Townhouse,2314 Saint Charles Unit C St Unit C,Houston,TX,77004,330000,3,3.5,Saint Charles Villas,2153,1850,2015,683,153,,Sold,,,http://www.redfin.com/TX/Houston/2314-St-Charles-St-77004/unit-C/home/69355707,HARMLS,9455983,N,Y,29.7389997,-95.3603647
PAST SALE,March-23-2020,Single Family Residential,2407 Anita St Unit D,Houston,TX,77004,339900,3,3.5,Dowling Vista,1862,2143,2019,435,183,100,Sold,,,http://www.redfin.com/TX/Houston/2407-Anita-St-77004/unit-D/home/112827356,HARMLS,70924973,N,Y,29.73564,-95.363369
PAST SALE,December-6-2019,Single Family Residential,3107 Saint Charles St Unit C,Houston,TX,77004,339000,3,3.5,Dumble Mary,2001,1796,2019,543,169,,Sold,,,http://www.redfin.com/TX/Houston/3107-St-Charles-St-77004/unit-C/home/167843524,HARMLS,66502008,N,Y,29.734399,-95.363454
PAST SALE,April-13-2020,Townhouse,2628 Bastrop St,Houston,TX,77004,329990,3,3.5,University Park Landing,1822,1675,2019,414,181,,Sold,,,http://www.redfin.com/TX/Houston/2628-Bastrop-St-77004/home/168617832,HARMLS,12861184,N,Y,29.738153,-95.3638197
PAST SALE,August-19-2020,Single Family Residential,2213 Francis St,Houston,TX,77004,458000,3,3.5,Skyline Terrace Villas,2365,2142,2020,286,194,,Sold,,,http://www.redfin.com/TX/Houston/2213-Francis-St-77004/home/112819687,HARMLS,14083464,N,Y,29.734082,-95.3671569
PAST SALE,October-5-2018,Condo/Co-op,4820 Caroline St #301,Houston,TX,77004,454900,2,2.0,Museum District,1447,,2017,970,314,306,Sold,,,http://www.redfin.com/TX/Houston/4820-Caroline-St-77004/unit-301/home/143335741,HARMLS,67500770,N,Y,29.7294366,-95.3831992
PAST SALE,February-26-2019,Townhouse,2340 Bastrop St,Houston,TX,77004,349900,3,3.5,Hutchins Street Square,2295,2432,2007,826,152,117,Sold,,,http://www.redfin.com/TX/Houston/2340-Bastrop-St-77004/home/29510882,HARMLS,91332366,N,Y,29.7401044,-95.3620779
PAST SALE,October-30-2020,Single Family Residential,3333 Calumet St,Houston,TX,77004,525000,3,2.5,Timber Crest,3154,15800,1956,214,166,8,Sold,,,http://www.redfin.com/TX/Houston/3333-Calumet-St-77004/home/29972765,HARMLS,9198695,N,Y,29.7127646,-95.3648818
PAST SALE,April-2-2019,Townhouse,2607 Mcilhenny St,Houston,TX,77004,359990,3,3.5,Emancipated Park Area Townhomes,2119,2000,2019,791,170,,Sold,,,http://www.redfin.com/TX/Houston/2607-McIlhenny-St-77004/home/167831621,HARMLS,39113118,N,Y,29.737986,-95.3594102
PAST SALE,March-4-2019,Single Family Residential,3434 Binz St,Houston,TX,77004,275000,3,3.0,Timber Crest,2446,10419,1960,820,112,,Sold,,,http://www.redfin.com/TX/Houston/3434-Binz-St-77004/home/29972697,HARMLS,69388136,N,Y,29.7116194,-95.3636349
PAST SALE,October-5-2018,Multi-Family (2-4 Unit),3404 Blodgett St,Houston,TX,77004,247000,0,,Haden Terace Sec 03,2100,6955,1950,970,118,,Sold,,,http://www.redfin.com/TX/Houston/3404-Blodgett-St-77004/home/29970322,HARMLS,88844675,N,Y,29.7188887,-95.361264
PAST SALE,July-15-2020,Single Family Residential,2605 Dennis St,Houston,TX,77004,349900,3,3.5,Live Oak Views,1900,,2019,321,184,,Sold,,,http://www.redfin.com/TX/Houston/2605-Dennis-St-77004/home/170676379,HARMLS,89087407,N,Y,29.7364303,-95.3606041
PAST SALE,December-27-2019,Single Family Residential,2211 Francis St,Houston,TX,77004,453000,3,3.5,Skyline Ter Villas,2365,2240,2019,522,192,,Sold,,,http://www.redfin.com/TX/Houston/2211-Francis-St-77004/home/112819660,HARMLS,79366418,N,Y,29.7341196,-95.3672198
PAST SALE,July-27-2020,Single Family Residential,3339 Arbor St,Houston,TX,77004,279600,4,2.5,Haden Terrace Sec 01,2420,7150,1948,309,116,,Sold,,,http://www.redfin.com/TX/Houston/3339-Arbor-St-77004/home/29970104,HARMLS,13527155,N,Y,29.7181107,-95.3626538
PAST SALE,September-21-2020,Single Family Residential,3235 Wentworth St,Houston,TX,77004,290000,3,2.5,Sutton Place R/p,1984,6300,1952,253,146,,Sold,,,http://www.redfin.com/TX/Houston/3235-Wentworth-St-77004/home/30002400,HARMLS,55087056,N,Y,29.7197809,-95.3648613
PAST SALE,September-27-2018,Single Family Residential,3210 Arbor St,Houston,TX,77004,339900,3,2.0,Sutton Place R/p,1922,12474,1952,978,177,,Sold,,,http://www.redfin.com/TX/Houston/3210-Arbor-St-77004/home/30002419,HARMLS,9771106,N,Y,29.7191867,-95.3661695
PAST SALE,October-21-2019,Single Family Residential,3534 Arbor St,Houston,TX,77004,365000,3,2.0,Tierwester Oaks Sec 01,1768,9009,1954,589,206,,Sold,,,http://www.redfin.com/TX/Houston/3534-Arbor-St-77004/home/30002173,HARMLS,15578098,N,Y,29.7164189,-95.3576259
PAST SALE,April-16-2019,Condo/Co-op,5925 Almeda Rd #11015,Houston,TX,77004,250000,1,1.5,Mosaic Residential North Condo,850,,2006,777,294,538,Sold,,,http://www.redfin.com/TX/Houston/5925-Almeda-Rd-77004/unit-11015/home/29609345,HARMLS,84746553,N,Y,29.714931,-95.38083
PAST SALE,February-14-2019,Condo/Co-op,5925 Almeda Rd #11202,Houston,TX,77004,335000,2,2.5,Mosaic Residential North Condo,1209,,2006,838,277,720,Sold,,,http://www.redfin.com/TX/Houston/5925-Almeda-Rd-77004/unit-11202/home/29609376,HARMLS,20466832,N,Y,29.714931,-95.38083
PAST SALE,December-14-2018,Condo/Co-op,5925 Almeda Rd #11403,Houston,TX,77004,209900,1,1.0,Mosaic Residential North Con,791,199943,2006,900,265,396,Sold,,,http://www.redfin.com/TX/Houston/5925-Almeda-Rd-77004/unit-11403/home/29609415,HARMLS,79222049,N,Y,29.714931,-95.38083
PAST SALE,May-20-2019,Condo/Co-op,5925 Almeda Rd #11404,Houston,TX,77004,234900,1,1.0,Mosaic Residential North Con,846,,2006,743,278,462,Sold,,,http://www.redfin.com/TX/Houston/5925-Almeda-Rd-77004/unit-11404/home/29609418,HARMLS,57207185,N,Y,29.714931,-95.38083
PAST SALE,May-18-2020,Condo/Co-op,5925 Almeda Rd #11416,Houston,TX,77004,209900,1,1.0,Mosaic Residential North Con,690,,2006,379,304,393,Sold,,,http://www.redfin.com/TX/Houston/5925-Almeda-Rd-77004/unit-11416/home/29609431,HARMLS,25367589,N,Y,29.714931,-95.38083
PAST SALE,June-16-2020,Condo/Co-op,5925 Almeda Rd #11507,Houston,TX,77004,224900,1,1.0,Mosaic Residential North Con,800,,2006,350,281,457,Sold,,,http://www.redfin.com/TX/Houston/5925-Almeda-Rd-77004/unit-11507/home/29609439,HARMLS,53934153,N,Y,29.714931,-95.38083
PAST SALE,May-31-2019,Condo/Co-op,5925 Almeda Rd #11705,Houston,TX,77004,339900,2,2.0,Mosaic Residential North Condo,1184,,2006,732,287,620,Sold,,,http://www.redfin.com/TX/Houston/5925-Almeda-Rd-77004/unit-11705/home/29609467,HARMLS,86418595,N,Y,29.714931,-95.38083
PAST SALE,September-22-2017,Condo/Co-op,5925 Almeda Rd #11710,Houston,TX,77004,219900,1,1.0,Mosaic Residential North Con,800,,2006,1348,275,515,Sold,,,http://www.redfin.com/TX/Houston/5925-Almeda-Rd-77004/unit-11710/home/29609482,HARMLS,41129934,N,Y,29.714931,-95.38083
PAST SALE,March-8-2019,Condo/Co-op,5925 Almeda Rd #11808,Houston,TX,77004,210000,1,1.5,Mosaic Residential North Condo,767,,2006,816,274,498,Sold,,,http://www.redfin.com/TX/Houston/5925-Almeda-Rd-77004/unit-11808/home/29609484,HARMLS,90162535,N,Y,29.714931,-95.38083
PAST SALE,May-21-2019,Condo/Co-op,5925 Almeda Rd #11902,Houston,TX,77004,320000,2,2.5,Mosaic Residential North Condo,1209,,2006,742,265,671,Sold,,,http://www.redfin.com/TX/Houston/5925-Almeda-Rd-77004/unit-11902/home/29609512,HARMLS,57254595,N,Y,29.714931,-95.38083
PAST SALE,June-19-2020,Condo/Co-op,5925 Almeda Rd #10913,Houston,TX,77004,195000,1,1.0,Mosaic on Hermann Park,748,,2006,347,261,411,Sold,,,http://www.redfin.com/TX/Houston/5925-Almeda-Rd-77004/unit-10913/home/29609658,HARMLS,3166270,N,Y,29.714931,-95.38083
PAST SALE,July-23-2020,Condo/Co-op,5925 Almeda Rd #10709,Houston,TX,77004,220000,1,1.0,Mosaic Residential North Condo,757,,2006,313,291,436,Sold,,,http://www.redfin.com/TX/Houston/5925-Almeda-Rd-77004/unit-10709/home/29609684,HARMLS,13428269,N,Y,29.714931,-95.38083
PAST SALE,August-24-2020,Condo/Co-op,5925 Almeda Rd #10803,Houston,TX,77004,194900,1,1.0,Mosaic Residential North Condo,791,,2006,281,246,435,Sold,,,http://www.redfin.com/TX/Houston/5925-Almeda-Rd-77004/unit-10803/home/29609696,HARMLS,40352416,N,Y,29.714931,-95.38083
PAST SALE,September-4-2019,Condo/Co-op,5925 Almeda Rd #10810,Houston,TX,77004,203000,1,1.0,Mosaic Residential North Condo,800,,2006,636,254,515,Sold,,,http://www.redfin.com/TX/Houston/5925-Almeda-Rd-77004/unit-10810/home/29609704,HARMLS,20828756,N,Y,29.714931,-95.38083
PAST SALE,October-31-2019,Condo/Co-op,5925 Almeda Rd #10805,Houston,TX,77004,279900,2,2.0,Mosaic Residential North Condo,1184,,2006,579,236,657,Sold,,,http://www.redfin.com/TX/Houston/5925-Almeda-Rd-77004/unit-10805/home/29609698,HARMLS,93198959,N,Y,29.714931,-95.38083
PAST SALE,October-5-2018,Condo/Co-op,5925 Almeda Rd #12001,Houston,TX,77004,324900,2,2.5,Mosaic Residl North Condo,1209,,2006,970,269,602,Sold,,,http://www.redfin.com/TX/Houston/5925-Almeda-Rd-77004/unit-12001/home/29610368,HARMLS,41242536,N,Y,29.714931,-95.38083
PAST SALE,March-27-2019,Condo/Co-op,5925 Almeda Rd #12016,Houston,TX,77004,198000,1,1.0,Mosaic on Hermann Park,690,,2006,797,287,345,Sold,,,http://www.redfin.com/TX/Houston/5925-Almeda-Rd-77004/unit-12016/home/29610399,HARMLS,76002307,N,Y,29.714931,-95.38083
PAST SALE,February-14-2020,Condo/Co-op,5925 Almeda Rd #12101,Houston,TX,77004,365900,2,2.5,Mosaic Residential North Condo,1209,,2006,473,303,665,Sold,,,http://www.redfin.com/TX/Houston/5925-Almeda-Rd-77004/unit-12101/home/29610373,HARMLS,15808117,N,Y,29.714931,-95.38083
PAST SALE,June-13-2019,Condo/Co-op,5925 Almeda Rd #12103,Houston,TX,77004,224990,1,1.0,Mosaic Residential North Condo,791,,2006,719,284,445,Sold,,,http://www.redfin.com/TX/Houston/5925-Almeda-Rd-77004/unit-12103/home/29610377,HARMLS,24303562,N,Y,29.714931,-95.38083
PAST SALE,March-20-2020,Condo/Co-op,5925 Almeda Rd #12318,Houston,TX,77004,500000,2,2.0,Mosaic Residential North Condo,1469,,2006,438,340,842,Sold,,,http://www.redfin.com/TX/Houston/5925-Almeda-Rd-77004/unit-12318/home/29610436,HARMLS,30515035,N,Y,29.714931,-95.38083
PAST SALE,May-6-2019,Condo/Co-op,5925 Almeda Rd #12312,Houston,TX,77004,219000,1,1.0,Mosaic Redisdential North,757,,2006,757,289,383,Sold,,,http://www.redfin.com/TX/Houston/5925-Almeda-Rd-77004/unit-12312/home/29610445,HARMLS,35758444,N,Y,29.714931,-95.38083
PAST SALE,November-18-2019,Condo/Co-op,5925 Almeda Rd #12609,Houston,TX,77004,229900,1,1.0,Mosaic Residential North Condo,757,,2006,561,304,413,Sold,,,http://www.redfin.com/TX/Houston/5925-Almeda-Rd-77004/unit-12609/home/29610484,HARMLS,53406746,N,Y,29.714931,-95.38083
PAST SALE,August-16-2019,Condo/Co-op,5925 Almeda Rd #12608,Houston,TX,77004,210000,1,1.5,Mosaic on Hermann Park,767,,2006,655,274,426,Sold,,,http://www.redfin.com/TX/Houston/5925-Almeda-Rd-77004/unit-12608/home/29610486,HARMLS,49451851,N,Y,29.714931,-95.38083
PAST SALE,February-10-2020,Condo/Co-op,5925 Almeda Rd #12614,Houston,TX,77004,319000,2,2.0,Mosaic Residential North Condo,1211,,2006,477,263,672,Sold,,,http://www.redfin.com/TX/Houston/5925-Almeda-Rd-77004/unit-12614/home/29610498,HARMLS,39104705,N,Y,29.714931,-95.38083
PAST SALE,September-11-2020,Condo/Co-op,5925 Almeda Rd #12715,Houston,TX,77004,244900,1,1.5,Mosaic Residential North Condo,850,,2006,263,288,489,Sold,,,http://www.redfin.com/TX/Houston/5925-Almeda-Rd-77004/unit-12715/home/29610533,HARMLS,12446542,N,Y,29.714931,-95.38083
PAST SALE,March-14-2019,Condo/Co-op,5925 Almeda Rd #12803,Houston,TX,77004,499900,2,2.5,Mosaic Residential North,1809,,2006,810,276,1020,Sold,,,http://www.redfin.com/TX/Houston/5925-Almeda-Rd-77004/unit-12803/home/29610535,HARMLS,71480305,N,Y,29.714931,-95.38083
PAST SALE,September-6-2019,Condo/Co-op,5925 Almeda Rd #12709,Houston,TX,77004,239900,1,1.0,Mosaic Residential North Condo,757,,2006,634,317,413,Sold,,,http://www.redfin.com/TX/Houston/5925-Almeda-Rd-77004/unit-12709/home/29610564,HARMLS,28836184,N,Y,29.714931,-95.38083
PAST SALE,February-4-2019,Condo/Co-op,5925 Almeda Rd #12907,Houston,TX,77004,699900,3,2.5,Mosaic Residential North Con,1859,,2006,848,376,929,Sold,,,http://www.redfin.com/TX/Houston/5925-Almeda-Rd-77004/unit-12907/home/29610598,HARMLS,69629968,N,Y,29.714931,-95.38083
PAST SALE,July-11-2019,Condo/Co-op,5925 Almeda Rd #11007,Houston,TX,77004,220000,1,1.0,Mosaic Residential North Condo,800,,2006,691,275,445,Sold,,,http://www.redfin.com/TX/Houston/5925-Almeda-Rd-77004/unit-11007/home/29609673,HARMLS,72320119,N,Y,29.714931,-95.38083
PAST SALE,July-30-2020,Single Family Residential,1716 Rosewood St Unit D,Houston,TX,77004,479000,3,3.5,Almeda Place Pt Rep 5,2331,2023,2020,306,205,,Sold,,,http://www.redfin.com/TX/Houston/1716-Rosewood-St-77004/unit-D/home/167107622,HARMLS,84616886,N,Y,29.7295375,-95.3770961
PAST SALE,August-6-2020,Condo/Co-op,4819 Caroline St #306,Houston,TX,77004,369000,2,2.5,Museum Park,1369,,2020,299,270,290,Sold,,,http://www.redfin.com/TX/Houston/4819-Caroline-St-77004/unit-306/home/172052409,HARMLS,51621129,N,Y,29.7292092,-95.382688
PAST SALE,August-23-2019,Single Family Residential,4831 Chenevert St,Houston,TX,77004,489500,3,3.5,Rosedale Villa,2235,1550,2019,648,219,,Sold,,,http://www.redfin.com/TX/Houston/4831-Chenevert-St-77004/home/167840846,HARMLS,34576152,N,Y,29.7265562,-95.3788079
PAST SALE,November-22-2019,Single Family Residential,2307 Berry St,Houston,TX,77004,415000,3,3.5,Chateaux on The Bastrop,2279,1650,2019,557,182,,Sold,,,http://www.redfin.com/TX/Houston/2307-Berry-St-77004/home/167833575,HARMLS,44297782,N,Y,29.7322688,-95.3675383
PAST SALE,January-30-2020,Townhouse,2327 Eagle St,Houston,TX,77004,329900,3,3.5,Holman Outlot,1917,1400,2019,488,172,120,Sold,,,http://www.redfin.com/TX/Houston/2327-Eagle-St-77004/home/168935286,HARMLS,24733030,N,Y,29.7284182,-95.3705177
PAST SALE,August-17-2020,Single Family Residential,4508 Jackson St,Houston,TX,77004,455000,3,3.5,Rosewood Street Court,2370,1778,2013,288,192,150,Sold,,,http://www.redfin.com/TX/Houston/4508-Jackson-St-77004/home/66048960,HARMLS,40220282,N,Y,29.7297108,-95.3777565
PAST SALE,October-24-2018,Townhouse,4718 Austin St,Houston,TX,77004,465000,3,3.5,Austin Street Lofts,2134,1563,2013,951,218,142,Sold,,,http://www.redfin.com/TX/Houston/4718-Austin-St-77004/home/66048976,HARMLS,9353777,N,Y,29.7299381,-95.3816851
PAST SALE,November-30-2018,Townhouse,4812 Chenevert St Unit B,Houston,TX,77004,435000,3,3.0,Museum Park Chenevert Street Ame,2520,1740,2014,914,173,,Sold,,,http://www.redfin.com/TX/Houston/4812-Chenevert-St-77004/unit-B/home/105493740,HARMLS,38307891,N,Y,29.7271563,-95.3788033
PAST SALE,April-17-2020,Single Family Residential,1812 Rosedale St Unit D,Houston,TX,77004,525000,3,3.5,Rosepark Place,2758,1750,2014,410,190,,Sold,,,http://www.redfin.com/TX/Houston/1812-Rosedale-St-77004/unit-D/home/110187986,HARMLS,64978443,N,Y,29.7258448,-95.3788851
PAST SALE,August-20-2019,Single Family Residential,3327 Arbor St,Houston,TX,77004,410000,3,2.5,University Area,2022,8800,1950,651,203,,Sold,,,http://www.redfin.com/TX/Houston/3327-Arbor-St-77004/home/29970089,HARMLS,95597236,N,Y,29.7183098,-95.3633079
PAST SALE,May-3-2019,Condo/Co-op,4820 Caroline St #503,Houston,TX,77004,474900,2,2.0,Oaks ON Caroline,1424,,2017,760,333,306,Sold,,,http://www.redfin.com/TX/Houston/4820-Caroline-St-77004/unit-503/home/113439449,HARMLS,71171999,N,Y,29.7294366,-95.3831992
PAST SALE,October-19-2018,Single Family Residential,4710 La Branch St,Houston,TX,77004,750000,4,3.5,La Branch Estates,3500,4290,2016,956,214,,Sold,,,http://www.redfin.com/TX/Houston/4710-La-Branch-St-77004/home/114070710,HARMLS,43436643,N,Y,29.729385,-95.3806978
PAST SALE,April-26-2019,Multi-Family (2-4 Unit),2109 E Berry St E #2,Houston,TX,77004,329000,0,,Holman Outlot 47,3336,6250,1946,767,99,,Sold,,,http://www.redfin.com/TX/Houston/2109-Berry-St-77004/unit-2/home/146122751,HARMLS,38511280,N,Y,29.733323,-95.3691131
PAST SALE,June-10-2019,Townhouse,4318 Crawford St,Houston,TX,77004,279900,2,2.0,Wheeler Place,1523,1404,2006,722,184,,Sold,,,http://www.redfin.com/TX/Houston/4318-Crawford-St-77004/home/29316029,HARMLS,33014198,N,Y,29.731345,-95.377883
PAST SALE,February-21-2020,Townhouse,4702 Austin St,Houston,TX,77004,389000,3,3.5,Blogett Park Twnhms,2501,1625,2004,466,156,150,Sold,,,http://www.redfin.com/TX/Houston/4702-Austin-St-77004/home/29318661,HARMLS,2280447,N,Y,29.730012,-95.381461
PAST SALE,September-6-2019,Single Family Residential,4828 Austin St,Houston,TX,77004,534900,3,3.5,Museum District,2585,1785,2006,634,207,87,Sold,,,http://www.redfin.com/TX/Houston/4828-Austin-St-77004/home/29394625,HARMLS,81969890,N,Y,29.7289435,-95.3825653
PAST SALE,July-29-2019,Townhouse,5306 La Branch St,Houston,TX,77004,739000,3,4.5,Museum Park,3799,1908,2009,673,195,97,Sold,,,http://www.redfin.com/TX/Houston/5306-La-Branch-St-77004/home/29506719,HARMLS,87092333,N,Y,29.7250885,-95.3840335
PAST SALE,December-31-2019,Townhouse,4616 Austin St Unit A,Houston,TX,77004,410000,3,3.5,Tuscan 01,2269,1950,2006,518,181,100,Sold,,,http://www.redfin.com/TX/Houston/4616-Austin-St-77004/unit-A/home/29535839,HARMLS,45076854,N,Y,29.7305119,-95.3811545
PAST SALE,April-10-2020,Single Family Residential,1913 Oakdale Ave,Houston,TX,77004,388000,3,3.0,Oakdale Ave Add,2142,2816,2007,417,181,,Sold,,,http://www.redfin.com/TX/Houston/1913-Oakdale-St-77004/home/29539658,HARMLS,23533551,N,Y,29.723089,-95.3798153
PAST SALE,February-10-2020,Townhouse,4619 Jackson St,Houston,TX,77004,439900,3,3.5,Jackson Street Place,2702,1610,2012,477,163,,Sold,,,http://www.redfin.com/TX/Houston/4619-Jackson-St-77004/home/29539804,HARMLS,33433395,N,Y,29.7287578,-95.3781241
PAST SALE,September-10-2020,Townhouse,4615 Jackson St,Houston,TX,77004,474900,3,3.5,Jackson Street Place,2261,2590,2012,264,210,,Sold,,,http://www.redfin.com/TX/Houston/4615-Jackson-St-77004/home/29539805,HARMLS,80448868,N,Y,29.7288327,-95.3780648
PAST SALE,June-1-2020,Single Family Residential,4704 Crawford St,Houston,TX,77004,399995,3,3.5,Macgregor Park,2218,1800,2011,365,180,,Sold,,,http://www.redfin.com/TX/Houston/4704-Crawford-St-77004/home/29582913,HARMLS,51162716,N,Y,29.7289979,-95.3796983
PAST SALE,June-4-2019,Townhouse,4806 Chenevert St,Houston,TX,77004,399999,3,3.5,Museum Walk,2659,1907,2007,728,150,191,Sold,,,http://www.redfin.com/TX/Houston/4806-Chenevert-St-77004/home/29593169,HARMLS,2728326,N,Y,29.7272097,-95.3785988
PAST SALE,June-28-2019,Townhouse,2443 Wentworth St,Houston,TX,77004,299700,2,2.0,Lofts/wentworth,1920,1600,2013,704,156,90,Sold,,,http://www.redfin.com/TX/Houston/2443-Wentworth-St-77004/home/29615675,HARMLS,68502815,N,Y,29.7241621,-95.3720689
PAST SALE,July-15-2020,Single Family Residential,1404 Ruth St,Houston,TX,77004,425000,3,3.5,Museum Park,2385,1542,2012,321,178,,Sold,,,http://www.redfin.com/TX/Houston/1404-Ruth-St-77004/home/29634692,HARMLS,66802881,N,Y,29.730543,-95.3804191
PAST SALE,June-25-2019,Multi-Family (2-4 Unit),1802 Blodgett St,Houston,TX,77004,655000,0,,Macgregor Blodgett Park Sec 03,3932,8500,1930,707,167,,Sold,,,http://www.redfin.com/TX/Houston/1802-Blodgett-St-77004/home/29715898,HARMLS,43093467,N,Y,29.727844,-95.3776199
PAST SALE,July-2-2020,Multi-Family (2-4 Unit),1709 Wentworth St,Houston,TX,77004,625000,0,6.0,Blodgett Park,4289,6650,1930,334,146,,Sold,,,http://www.redfin.com/TX/Houston/1709-Wentworth-St-77004/home/29715901,HARMLS,2666502,N,Y,29.7278703,-95.3785981
PAST SALE,August-10-2020,Multi-Family (2-4 Unit),1802 Wentworth St,Houston,TX,77004,650000,0,2.0,Blodgett Park Sec 2,3982,7000,1930,295,163,,Sold,,,http://www.redfin.com/TX/Houston/1802-Wentworth-St-77004/home/29715904,HARMLS,22479680,N,Y,29.7271845,-95.3781081
PAST SALE,January-31-2019,Single Family Residential,1815 Prospect St,Houston,TX,77004,450000,3,1.0,Sutton Place Patio Homes,1232,5000,1945,852,365,,Sold,,,http://www.redfin.com/TX/Houston/1815-Prospect-St-77004/home/29747494,HARMLS,47660229,N,Y,29.7229632,-95.3809705
PAST SALE,December-27-2019,Single Family Residential,2206 Ruth St,Houston,TX,77004,315000,2,2.0,Almeda Place,1366,5500,1930,522,231,,Sold,,,http://www.redfin.com/TX/Houston/2206-Ruth-St-77004/home/29817410,HARMLS,41348800,N,Y,29.7263793,-95.3734878
PAST SALE,May-30-2018,Single Family Residential,2712 Arbor St,Houston,TX,77004,240000,2,1.0,Wilmoth,1230,5250,1935,1098,195,,Sold,,,http://www.redfin.com/TX/Houston/2712-Arbor-St-77004/home/29876499,HARMLS,60852339,N,Y,29.7218485,-95.3706258
PAST SALE,May-12-2020,Multi-Family (2-4 Unit),2318 Arbor St,Houston,TX,77004,660000,0,2.0,Riverside Terrace Sec 01,5445,7200,1930,385,121,,Sold,,,http://www.redfin.com/TX/Houston/2318-Arbor-St-77004/home/29889503,HARMLS,21374857,N,Y,29.723575,-95.373895
PAST SALE,August-6-2020,Single Family Residential,2318 Wentworth St,Houston,TX,77004,410000,5,2.0,Riverside Terrace Sec 01,2920,7200,1940,299,140,,Sold,,,http://www.redfin.com/TX/Houston/2318-Wentworth-St-77004/home/29889529,HARMLS,65620040,N,Y,29.7242623,-95.373406
PAST SALE,July-2-2019,Single Family Residential,2014 Wentworth St,Houston,TX,77004,499500,3,2.5,Riverside Terrace Sec 01,2168,6000,1938,700,230,,Sold,,,http://www.redfin.com/TX/Houston/2014-Wentworth-St-77004/home/29889584,HARMLS,65734799,N,Y,29.7259575,-95.3761046
PAST SALE,March-19-2019,Single Family Residential,1918 Wentworth St,Houston,TX,77004,319000,2,1.5,Riverside Terrace Sec 01,1279,6000,1938,805,249,,Sold,,,http://www.redfin.com/TX/Houston/1918-Wentworth-St-77004/home/29889586,HARMLS,18908848,N,Y,29.726337,-95.3767588
PAST SALE,July-2-2020,Multi-Family (2-4 Unit),2414 Wentworth St,Houston,TX,77004,390000,0,2.0,Riverside Terrace,2550,6000,1935,334,153,,Sold,,,http://www.redfin.com/TX/Houston/2414-Wentworth-St-77004/home/29889686,HARMLS,59223882,N,Y,29.723759,-95.3724656
PAST SALE,January-23-2019,Single Family Residential,2403 Arbor St,Houston,TX,77004,430000,3,2.5,Riverside Terrace Sec 01,2548,7200,1940,860,169,,Sold,,,http://www.redfin.com/TX/Houston/2403-Arbor-St-77004/home/29889696,HARMLS,55794217,N,Y,29.7237276,-95.3732425
PAST SALE,April-12-2019,Single Family Residential,2417 Rosewood St,Houston,TX,77004,190000,3,2.0,Washington Terrace,1146,5250,1930,781,166,,Sold,,,http://www.redfin.com/TX/Houston/2417-Rosewood-St-77004/home/29892328,HARMLS,22393727,N,Y,29.7260457,-95.3705849
PAST SALE,August-6-2020,Single Family Residential,2409 Barbee St,Houston,TX,77004,284900,3,1.5,Washington Terrace,1769,6300,1941,299,161,,Sold,,,http://www.redfin.com/TX/Houston/2409-Barbee-St-77004/home/29892358,HARMLS,80730370,N,Y,29.7274727,-95.36989
PAST SALE,April-22-2019,Multi-Family (2-4 Unit),2421 Cleburne St St,Houston,TX,77004,309999,0,,Washington Terrace,2547,5775,1930,771,122,,Sold,,,http://www.redfin.com/TX/Houston/2421-Cleburne-St-77004/home/29892408,HARMLS,84094923,N,Y,29.7284775,-95.3684589
PAST SALE,January-15-2020,Single Family Residential,2517 Isabelle St,Houston,TX,77004,239000,3,1.5,Washington Terrace,1866,5250,1935,503,128,,Sold,,,http://www.redfin.com/TX/Houston/2517-Isabella-St-77004/home/29892424,HARMLS,80753914,N,Y,29.7287043,-95.3673142
PAST SALE,November-20-2018,Single Family Residential,2621 Ruth St,Houston,TX,77004,299900,3,2.0,Washington Terrace,1940,5775,1942,924,155,,Sold,,,http://www.redfin.com/TX/Houston/2621-Ruth-St-77004/home/29893617,HARMLS,450930,N,Y,29.7242941,-95.3692766
PAST SALE,June-25-2019,Single Family Residential,2615 Ruth St,Houston,TX,77004,275000,3,1.0,Washington Terrace,1379,5775,1939,707,199,,Sold,,,http://www.redfin.com/TX/Houston/2615-Ruth-St-77004/home/29893619,HARMLS,85068758,N,Y,29.7244647,-95.3695219
PAST SALE,March-18-2019,Single Family Residential,2718 Ruth St,Houston,TX,77004,210000,3,1.0,Washington Terrace,1312,5250,1940,806,160,,Sold,,,http://www.redfin.com/TX/Houston/2718-Ruth-St-77004/home/29893624,HARMLS,806793,N,Y,29.7235889,-95.3688678
PAST SALE,March-15-2019,Single Family Residential,2706 Barbee St,Houston,TX,77004,295000,4,2.5,Washington Terrace,1975,5250,1940,809,149,,Sold,,,http://www.redfin.com/TX/Houston/2706-Barbee-St-77004/home/29893679,HARMLS,77295034,N,Y,29.7256636,-95.3677639
PAST SALE,September-3-2020,Single Family Residential,2615 Live Oak St,Houston,TX,77004,349900,3,2.5,Live Oak Views,1700,,2019,271,206,,Sold,,,http://www.redfin.com/TX/Houston/2615-Live-Oak-St-77004/home/170676192,HARMLS,46818254,N,Y,29.7365097,-95.3605569
PAST SALE,November-7-2018,Single Family Residential,1316 Eagle St,Houston,TX,77004,642200,3,1.5,Museum District / Midtown,2072,5000,1920,937,310,,Sold,,,http://www.redfin.com/TX/Houston/1316-Eagle-St-77004/home/34243346,HARMLS,26074258,N,Y,29.7332781,-95.3791304
PAST SALE,October-12-2018,Single Family Residential,3327 Rosedale St,Houston,TX,77004,389000,4,2.5,Haden Terrace,2326,6050,1950,963,167,,Sold,,,http://www.redfin.com/TX/Houston/3327-Rosedale-St-77004/home/29970052,HARMLS,13504141,N,Y,29.7175764,-95.3635941
PAST SALE,November-11-2019,Single Family Residential,3506 Southmore Blvd,Houston,TX,77004,225000,3,1.5,Oakmere,2122,11563,1945,568,106,,Sold,,,http://www.redfin.com/TX/Houston/3506-Southmore-Blvd-77004/home/29967544,HARMLS,81573334,N,Y,29.7139789,-95.3602318
