SALE TYPE,SOLD DATE,PROPERTY TYPE,ADDRESS,CITY,STATE OR PROVINCE,ZIP OR POSTAL CODE,PRICE,BEDS,BATHS,LOCATION,SQUARE FEET,LOT SIZE,YEAR BUILT,DAYS ON MARKET,$/SQUARE FEET,HOA/MONTH,STATUS,NEXT OPEN HOUSE START TIME,NEXT OPEN HOUSE END TIME,URL (SEE http://www.redfin.com/buy-a-home/comparative-market-analysis FOR INFO ON PRICING),SOURCE,MLS#,FAVORITE,INTERESTED,LATITUDE,LONGITUDE
PAST SALE,,Single Family Residential,4106 Balmorhea Ave,Houston,TX,77039,,3,1.5,,1048,6552,1980,,,,Sold,,,http://www.redfin.com/TX/Houston/4106-Balmorhea-Ave-77039/home/30405299,HARMLS,,N,Y,29.9148186,-95.3334737
PAST SALE,,Single Family Residential,5611 Daun St,Houston,TX,77039,,3,1.0,,1264,17400,1960,,,,Sold,,,http://www.redfin.com/TX/Houston/5611-Daun-St-77039/home/30012167,HARMLS,,N,Y,29.8929941,-95.3081471
PAST SALE,September-26-2016,Single Family Residential,2603 Balmorhea Ave,Houston,TX,77039,76000,3,2.0,Castlewood Tr B U/r,1688,8800,1968,1709,45,,Sold,,,http://www.redfin.com/TX/Houston/2603-Balmorhea-Ave-77039/home/30185165,HARMLS,58307041,N,Y,29.9149172,-95.3455281
PAST SALE,,Single Family Residential,2203 Melissa,Houston,TX,77039,,3,1.0,,1008,8100,1950,,,,Sold,,,http://www.redfin.com/TX/Houston/2203-Melissa-St-77039/home/30064304,HARMLS,,N,Y,29.9270814,-95.3521898
PAST SALE,December-7-2017,Single Family Residential,12410 Sudeley Ln,Houston,TX,77039,134000,3,1.5,High Meadows Sec 08,1495,6448,1973,1272,90,,Sold,,,http://www.redfin.com/TX/Houston/12410-Sudeley-Ln-77039/home/30278770,HARMLS,12994535,N,Y,29.904678,-95.3447108
PAST SALE,,Single Family Residential,12411 Deergrove St,Houston,TX,77039,,4,2.5,,1605,5720,1972,,,,Sold,,,http://www.redfin.com/TX/Houston/12411-Deergrove-St-77039/home/30278776,HARMLS,,N,Y,29.9040621,-95.344343
PAST SALE,September-19-2016,Single Family Residential,1006 Verhalen,Houston,TX,77039,50000,3,2.0,Greenwood Place,1754,9720,1972,1716,29,,Sold,,,http://www.redfin.com/TX/Houston/1006-Verhalen-Ave-77039/home/30301751,HARMLS,80532740,N,Y,29.9150816,-95.3736922
PAST SALE,June-15-2018,Single Family Residential,4915 Otterbury Dr,Houston,TX,77039,139900,3,2.0,Eastex Fwy Forest Sec 01,1710,6600,1962,1082,82,,Sold,,,http://www.redfin.com/TX/Houston/4915-Otterbury-Dr-77039/home/30148081,HARMLS,86148716,N,Y,29.9046493,-95.3180518
PAST SALE,November-20-2017,Townhouse,12343 W Village Dr Unit A,Houston,TX,77039,35000,2,2.0,Pine Village North T/h Sec 0,1704,1406,1979,1289,21,168,Sold,,,http://www.redfin.com/TX/Houston/12343-W-Village-Dr-77039/unit-A/home/30304634,HARMLS,21149645,N,Y,29.9050064,-95.3064494
PAST SALE,March-29-2018,Townhouse,12318 Wild Pine Dr Unit C,Houston,TX,77039,59900,2,2.0,Pine Village North T/h,1533,2346,1979,1160,39,167,Sold,,,http://www.redfin.com/TX/Houston/12318-Wild-Pine-Dr-77039/unit-C/home/30305104,HARMLS,31143171,N,Y,29.902319,-95.303067
PAST SALE,April-2-2018,Single Family Residential,14522 Reeveston Rd,Houston,TX,77039,179000,3,1.5,Aldine Gardens Sec 01,1376,23379,1962,1156,130,,Sold,,,http://www.redfin.com/TX/Houston/14522-Reeveston-Rd-77039/home/29647714,HARMLS,73580052,N,Y,29.927138,-95.367595
PAST SALE,May-4-2018,Single Family Residential,3714 Marquita Ln,Houston,TX,77039,127500,3,1.5,High Meadows,990,6930,1968,1124,129,,Sold,,,http://www.redfin.com/TX/Houston/3714-Marquita-Ln-77039/home/30223573,HARMLS,5124291,N,Y,29.9006339,-95.3355166
PAST SALE,June-28-2018,Single Family Residential,12714 Ponder Ln,Houston,TX,77039,120000,4,2.5,High Meadows Sec 05,1464,7280,1970,1069,82,,Sold,,,http://www.redfin.com/TX/Houston/12714-Ponder-Ln-77039/home/30239802,HARMLS,38525065,N,Y,29.9072027,-95.3268142
PAST SALE,April-28-2017,Single Family Residential,4618 Sandydale Ln,Houston,TX,77039,150000,3,2.0,Fairgreen Sec 04,2025,6930,1971,1495,74,,Sold,,,http://www.redfin.com/TX/Houston/4618-Sandydale-Ln-77039/home/30261912,HARMLS,17538347,N,Y,29.9064493,-95.3253843
PAST SALE,December-29-2017,Single Family Residential,12515 Boreas Dr,Houston,TX,77039,127500,3,2.0,Eastex Fwy Forest,1376,7345,1960,1250,93,,Sold,,,http://www.redfin.com/TX/Houston/12515-Boreas-Dr-77039/home/30150541,HARMLS,28278871,N,Y,29.9057903,-95.322729
PAST SALE,June-15-2018,Single Family Residential,3903 Bridgedale Dr,Houston,TX,77039,150000,4,2.0,Fairgreen,1890,6448,2001,1082,79,12,Sold,,,http://www.redfin.com/TX/Houston/3903-Bridgedale-Dr-77039/home/30405836,HARMLS,97509792,N,Y,29.9166965,-95.3349446
PAST SALE,September-21-2017,Single Family Residential,2606 Sandydale Ln,Houston,TX,77039,135000,3,1.5,Holston Place,1555,44000,1957,1349,87,,Sold,,,http://www.redfin.com/TX/Houston/2606-Sandydale-Ln-77039/home/30132056,HARMLS,64630402,N,Y,29.9060731,-95.3447516
PAST SALE,December-29-2017,Single Family Residential,1211 Balmorhea Ave,Houston,TX,77039,155000,3,2.0,Aldine Forest R/p,1793,7038,1973,1250,86,,Sold,,,http://www.redfin.com/TX/Houston/1211-Balmorhea-Ave-77039/home/30300468,HARMLS,8237245,N,Y,29.9149886,-95.3671098
PAST SALE,June-22-2018,Single Family Residential,12037 Eastex Fwy,Houston,TX,77039,220000,4,2.0,Hillside Gdns,,81400,1980,1075,,,Sold,,,http://www.redfin.com/TX/Houston/12037-Eastex-Fwy-77039/home/66054574,HARMLS,90793515,N,Y,29.9008178,-95.3140201
PAST SALE,March-19-2018,Townhouse,5810 Twisted Pine Ct Unit E,Houston,TX,77039,45000,2,2.5,Pine Village North T/h Sec 0,1274,1359,1979,1170,35,167,Sold,,,http://www.redfin.com/TX/Houston/5810-Twisted-Pine-Ct-77039/unit-E/home/173686654,HARMLS,11357491,N,Y,29.9022983,-95.30307
PAST SALE,February-23-2018,Townhouse,5791 Easthampton Dr Unit B,Houston,TX,77039,34900,2,1.0,Pine Village North T/h Sec 0,1056,2156,1979,1194,33,168,Sold,,,http://www.redfin.com/TX/Houston/5791-Easthampton-Dr-77039/unit-B/home/30304877,HARMLS,61723313,N,Y,29.902172,-95.3053769
PAST SALE,July-6-2017,Single Family Residential,2822 Anice St,Houston,TX,77039,175000,3,2.0,Castlewood,1903,18060,1977,1426,92,,Sold,,,http://www.redfin.com/TX/Houston/2822-Anice-St-77039/home/30224724,HARMLS,95220303,N,Y,29.9085401,-95.3422384
PAST SALE,July-9-2018,Single Family Residential,5034 Hollybrook Ln,Houston,TX,77039,99999,3,2.0,Fairgreen Sec 03,1740,8840,1969,1058,57,,Sold,,,http://www.redfin.com/TX/Houston/5034-Hollybrook-Ln-77039/home/30232285,HARMLS,13196816,N,Y,29.9090138,-95.31652
PAST SALE,December-20-2017,Single Family Residential,4011 Balmorhea Ave,Houston,TX,77039,58000,3,1.5,Fairgreen Sec 05,1320,6552,1980,1259,44,12,Sold,,,http://www.redfin.com/TX/Houston/4011-Balmorhea-Ave-77039/home/30405294,HARMLS,12503259,N,Y,29.9151742,-95.333872
PAST SALE,January-9-2018,Single Family Residential,4102 Sandydale Ln,Houston,TX,77039,114900,3,1.5,High Meadows Sec 06,1424,9534,1971,1239,81,,Sold,,,http://www.redfin.com/TX/Houston/4102-Sandydale-Ln-77039/home/30249001,HARMLS,97215710,N,Y,29.906272,-95.33425
PAST SALE,,Single Family Residential,13515 Homestead Rd,Houston,TX,77039,,,,,,7443,1983,,,,Sold,,,http://www.redfin.com/TX/Houston/13515-Homestead-Rd-77039/home/109075430,HARMLS,,N,Y,29.9150179,-95.3022052
PAST SALE,,Townhouse,12314 Wild Pine Dr Unit D,Houston,TX,77039,,2,2.0,,1313,2141,1979,,,,Sold,,,http://www.redfin.com/TX/Houston/12314-Wild-Pine-Dr-77039/unit-D/home/30305084,HARMLS,,N,Y,29.902319,-95.303067
PAST SALE,May-22-2018,Single Family Residential,5106 Debeney Dr,Houston,TX,77039,127000,3,1.5,Fairgreen Sec 01 R/p,928,7130,1966,1106,137,,Sold,,,http://www.redfin.com/TX/Houston/5106-Debeney-Dr-77039/home/30211891,HARMLS,12229599,N,Y,29.9050498,-95.3153763
PAST SALE,December-11-2017,Single Family Residential,12822 Magic Dr,Houston,TX,77039,149000,3,2.0,Fairgreen Sec 03,2600,6696,1967,1268,57,,Sold,,,http://www.redfin.com/TX/Houston/12822-Magic-Dr-77039/home/30232236,HARMLS,36691880,N,Y,29.9085938,-95.3146411
PAST SALE,December-19-2017,Townhouse,12255 W Village Dr Unit C,Houston,TX,77039,32000,2,2.0,Pine Village North T/h Sec 02,1340,1875,1979,1260,24,167,Sold,,,http://www.redfin.com/TX/Houston/12255-W-Village-Dr-77039/unit-C/home/30304708,HARMLS,10876326,N,Y,29.902643,-95.307476
PAST SALE,September-28-2017,Single Family Residential,2125 Myra St,Houston,TX,77039,75000,4,2.0,Aldine Place Sec 01,1582,8375,1952,1342,47,,Sold,,,http://www.redfin.com/TX/Houston/2125-Myra-St-77039/home/30052933,HARMLS,57745292,N,Y,29.9305818,-95.3525168
PAST SALE,October-16-2017,Single Family Residential,14908 Yarberry St,Houston,TX,77039,179000,3,1.0,Town of Aldine,3412,29350,1956,1324,52,,Sold,,,http://www.redfin.com/TX/Houston/14908-Yarberry-St-77039/home/29647936,HARMLS,39108043,N,Y,29.932403,-95.376052
PAST SALE,July-22-2017,Single Family Residential,4410 Hollybrook Ln,Houston,TX,77039,169900,4,4.0,High Meadows Sec 06,2249,6448,1970,1410,76,,Sold,,,http://www.redfin.com/TX/Houston/4410-Hollybrook-Ln-77039/home/30248501,HARMLS,55508024,N,Y,29.9078569,-95.3301438
PAST SALE,July-6-2016,Condo/Co-op,5726 Easthampton Unit D,Houston,TX,77309,42000,2,2.0,Pine Village North,5155,,1979,1791,8,150,Sold,,,http://www.redfin.com/TX/Houston/5726-Easthampton-Dr-77039/unit-D/home/30305485,HARMLS,55123544,N,Y,29.90096,-95.306478
PAST SALE,September-25-2017,Townhouse,12227 West Village Dr Unit A,Houston,TX,77039,55000,2,2.0,Pine Village,1135,2415,1979,1345,48,168,Sold,,,http://www.redfin.com/TX/Houston/12227-W-Village-Dr-77039/unit-A/home/30304904,HARMLS,75702313,N,Y,29.902643,-95.307476
PAST SALE,November-28-2016,Single Family Residential,13402 E Hardy Rd,Houston,TX,77039,139900,3,1.5,Aldine Gardens Sec 02,1272,19477,1967,1646,110,,Sold,,,http://www.redfin.com/TX/Houston/13402-E-Hardy-Rd-77039/home/29647655,HARMLS,39962239,N,Y,29.9082687,-95.3733856
PAST SALE,August-8-2017,Single Family Residential,5207 Sandydale Ln,Houston,TX,77039,125000,3,2.0,Fairgreen,1206,7936,1967,1393,104,,Sold,,,http://www.redfin.com/TX/Houston/5207-Sandydale-Ln-77039/home/30219815,HARMLS,32409005,N,Y,29.9078057,-95.3140693
PAST SALE,August-9-2016,Single Family Residential,4407 Debeney Dr,Houston,TX,77039,109999,3,1.5,High Meadows Sec 05,1118,6552,1969,1757,98,,Sold,,,http://www.redfin.com/TX/Houston/4407-Debeney-Dr-77039/home/30239901,HARMLS,68634824,N,Y,29.9050132,-95.3297148
PAST SALE,,Townhouse,5743 Easthampton Dr Unit D,Houston,TX,77039,,2,1.5,,1698,2151,1979,,,,Sold,,,http://www.redfin.com/TX/Houston/5743-Easthampton-Dr-77039/unit-D/home/30305044,HARMLS,,N,Y,29.902172,-95.3053769
PAST SALE,April-20-2018,Single Family Residential,2618 Verhalen Ave,Houston,TX,77039,80000,3,1.5,Castlewood Tr B U/r,1367,8800,1968,1138,59,,Sold,,,http://www.redfin.com/TX/Houston/2618-Verhalen-Ave-77039/home/30185197,HARMLS,28058263,N,Y,29.9155244,-95.3449968
PAST SALE,August-15-2017,Single Family Residential,2818 Balmorhea Ave,Houston,TX,77039,215000,4,2.0,Castlewood,1828,29350,1965,1386,118,,Sold,,,http://www.redfin.com/TX/Houston/2818-Balmorhea-Ave-77039/home/30194785,HARMLS,55476105,N,Y,29.9144671,-95.3421771
PAST SALE,November-10-2017,Single Family Residential,3531 Marquita Ln,Houston,TX,77039,118000,3,1.5,High Meadows Sec 04,990,6820,1968,1299,119,,Sold,,,http://www.redfin.com/TX/Houston/3531-Marquita-Ln-77039/home/30223711,HARMLS,98127548,N,Y,29.9010025,-95.3386629
PAST SALE,November-13-2017,Single Family Residential,3607 Bethany Ln,Houston,TX,77039,99500,3,1.5,High Meadows Sec 04,990,6820,1969,1296,101,,Sold,,,http://www.redfin.com/TX/Houston/3607-Bethany-Ln-77039/home/30223679,HARMLS,74252114,N,Y,29.8994552,-95.3379274
PAST SALE,April-13-2018,Single Family Residential,12411 Sudeley Ln,Houston,TX,77039,108700,3,1.5,High Meadows Sec 08,1017,6240,1973,1145,107,,Sold,,,http://www.redfin.com/TX/Houston/12411-Sudeley-Ln-77039/home/30278717,HARMLS,85700288,N,Y,29.9046599,-95.3451603
PAST SALE,May-7-2018,Single Family Residential,12414 Sudeley Ln,Houston,TX,77039,154900,3,2.0,High Meadows Sec 08,2269,5720,1973,1121,68,,Sold,,,http://www.redfin.com/TX/Houston/12414-Sudeley-Ln-77039/home/30278769,HARMLS,13745110,N,Y,29.9048566,-95.3447516
PAST SALE,March-29-2018,Single Family Residential,3815 Woodgate St,Houston,TX,77039,120000,3,2.0,High Meadows,1061,6577,1978,1160,113,,Sold,,,http://www.redfin.com/TX/Houston/3815-Woodgate-St-77039/home/30333000,HARMLS,96560638,N,Y,29.9114571,-95.3352715
PAST SALE,,Single Family Residential,3806 Balmorhea Ave,Houston,TX,77039,,4,2.0,,1625,6552,1980,,,,Sold,,,http://www.redfin.com/TX/Houston/3806-Balmorhea-Ave-77039/home/30405337,HARMLS,,N,Y,29.9147477,-95.3352306
PAST SALE,May-11-2018,Single Family Residential,4006 Lochmire Ln,Houston,TX,77039,125000,3,1.5,Fairgreen,1264,6448,1981,1117,99,12,Sold,,,http://www.redfin.com/TX/Houston/4006-Lochmire-Ln-77039/home/30405478,HARMLS,12805928,N,Y,29.9133087,-95.3340457
PAST SALE,,Single Family Residential,13903 Lanceoak Ct,Houston,TX,77039,,4,3.0,,2680,9900,2001,,,,Sold,,,http://www.redfin.com/TX/Houston/13903-Lanceoak-Ct-77039/home/30405883,HARMLS,,N,Y,29.9169932,-95.3342908
PAST SALE,June-16-2017,Townhouse,5739 Easthampton Dr Unit A,Houston,TX,77039,48500,2,1.0,Pine Village North.,1056,2489,1979,1446,46,,Sold,,,http://www.redfin.com/TX/Houston/5739-Easthampton-Dr-77039/unit-A/home/30305045,HARMLS,21926390,N,Y,29.902172,-95.3053769
PAST SALE,,Single Family Residential,2215 Melissa,Houston,TX,77039,,2,1.0,,888,8100,1950,,,,Sold,,,http://www.redfin.com/TX/Houston/2215-Melissa-St-77039/home/30064306,HARMLS,,N,Y,29.9270595,-95.3516176
PAST SALE,June-29-2016,Condo/Co-op,12250 Wild Pne Unit A,Houston,TX,77039,47000,3,3.0,Pine Village North,1623,,1979,1798,29,,Sold,,,http://www.redfin.com/TX/Houston/12250-Wild-Pine-Dr-77039/unit-A/home/30304964,HARMLS,18568347,N,Y,29.902319,-95.303067
PAST SALE,,Single Family Residential,4103 Linden Glen Ln,Houston,TX,77039,,3,2.0,,1116,7130,1982,,,,Sold,,,http://www.redfin.com/TX/Houston/4103-Linden-Glen-Ln-77039/home/30405537,HARMLS,,N,Y,29.9129648,-95.3336371
PAST SALE,June-22-2018,Single Family Residential,5010 Otterbury Dr,Houston,TX,77039,110000,3,1.0,High Meadows,1600,13200,1961,1075,69,,Sold,,,http://www.redfin.com/TX/Houston/5010-Otterbury-Dr-77039/home/30147966,HARMLS,87511547,N,Y,29.9042681,-95.3168876
PAST SALE,November-3-2017,Single Family Residential,4719 Charriton,Houston,TX,77039,139900,3,2.0,Eastex Fwy Forest Sec 2,1676,6600,1962,1306,83,,Sold,,,http://www.redfin.com/TX/Houston/4719-Charriton-Dr-77039/home/30150600,HARMLS,60160594,N,Y,29.906155,-95.3215035
PAST SALE,January-22-2018,Single Family Residential,13822 Russ Dr,Houston,TX,77039,90000,4,3.0,Castlewood Tr A Unr,2072,17663,1970,1226,43,,Sold,,,http://www.redfin.com/TX/Houston/13822-Russ-Dr-77039/home/30185199,HARMLS,53767267,N,Y,29.9164083,-95.3482049
PAST SALE,October-18-2017,Single Family Residential,3907 Blue Meadow Ln,Houston,TX,77039,128000,3,1.0,High Meadows Sec 02,1388,6480,1965,1322,92,,Sold,,,http://www.redfin.com/TX/Houston/3907-Blue-Meadow-Ln-77039/home/30189630,HARMLS,10831511,N,Y,29.898594,-95.3341478
PAST SALE,May-29-2018,Single Family Residential,4531 Otterbury Dr,Houston,TX,77039,125000,3,1.5,High Mdws Sec 05,1452,6552,1969,1099,86,,Sold,,,http://www.redfin.com/TX/Houston/4531-Otterbury-Dr-77039/home/30239759,HARMLS,52846005,N,Y,29.9043141,-95.3269367
PAST SALE,May-30-2017,Townhouse,12327 W Village Dr Unit C,Houston,TX,77039,65000,3,2.0,Pine Village North T/h Sec 0,1698,1704,1979,1463,38,,Sold,,,http://www.redfin.com/TX/Houston/12327-W-Village-Dr-77039/unit-C/home/30304734,HARMLS,92174805,N,Y,29.905164,-95.307166
PAST SALE,June-28-2017,Single Family Residential,2411 Sandydale Ln,Houston,TX,77039,169900,3,3.0,Holston Place,2286,43700,1957,1434,74,,Sold,,,http://www.redfin.com/TX/Houston/2411-Sandydale-Ln-77039/home/30132068,HARMLS,52078304,N,Y,29.9065266,-95.348021
PAST SALE,July-12-2017,Townhouse,12235 W Village Dr Unit D,Houston,TX,77039,30000,2,2.0,Pine Village North T/h Sec 0,1563,2156,1979,1420,19,168,Sold,,,http://www.redfin.com/TX/Houston/12235-W-Village-Dr-77039/unit-D/home/30304908,HARMLS,71155394,N,Y,29.902643,-95.307476
PAST SALE,May-2-2017,Single Family Residential,3506 Sandydale Ln,Houston,TX,77039,135000,4,2.0,High Meadows Sec 10,2132,7720,1976,1491,63,,Sold,,,http://www.redfin.com/TX/Houston/3506-Sandydale-Ln-77039/home/30333017,HARMLS,41969366,N,Y,29.9057648,-95.3378865
PAST SALE,September-2-2016,Single Family Residential,4110 Verhalen Ave,Houston,TX,77039,121000,4,2.0,Fairgreen Sec 05,1404,5296,1980,1733,86,200,Sold,,,http://www.redfin.com/TX/Houston/4110-Verhalen-Ave-77039/home/30405271,HARMLS,20657192,N,Y,29.915571,-95.333249
PAST SALE,September-1-2016,Multi-Family (2-4 Unit),2514 Lauder Rd,Houston,TX,77039,189900,0,,Castlewood Sec 03,2808,9600,2005,1734,68,,Sold,,,http://www.redfin.com/TX/Houston/2514-Lauder-Rd-77039/home/30199184,HARMLS,94406714,N,Y,29.9127816,-95.3459776
PAST SALE,July-12-2016,Single Family Residential,3710 Debeney Dr,Houston,TX,77039,104995,3,1.5,High Meadows Sec 07,1223,6136,1970,1785,86,,Sold,,,http://www.redfin.com/TX/Houston/3710-Debeney-Dr-77039/home/30263104,HARMLS,77947324,N,Y,29.904,-95.3358435
PAST SALE,,Single Family Residential,12402 Russ Dr,Houston,TX,77039,,3,1.5,,1038,6136,1973,,,,Sold,,,http://www.redfin.com/TX/Houston/12402-Russ-Dr-77039/home/30278708,HARMLS,,N,Y,29.9035263,-95.3481232
PAST SALE,,Townhouse,5787 Easthampton Dr Unit B,Houston,TX,77039,,3,2.5,,1304,1785,1979,,,,Sold,,,http://www.redfin.com/TX/Houston/5787-Easthampton-Dr-77039/unit-B/home/30304872,HARMLS,,N,Y,29.902172,-95.3053769
PAST SALE,August-18-2017,Single Family Residential,12407 Bichester Ln,Houston,TX,77039,134900,3,1.5,High Meadows Sec 08,1415,5720,1973,1383,95,,Sold,,,http://www.redfin.com/TX/Houston/12407-Bichester-Ln-77039/home/30278730,HARMLS,82449741,N,Y,29.904535,-95.3460185
PAST SALE,,Townhouse,12223 Wild Pine Dr Unit B,Houston,TX,77039,,3,1.5,,1527,1875,1979,,,,Sold,,,http://www.redfin.com/TX/Houston/12223-Wild-Pine-Dr-77039/unit-B/home/30304830,HARMLS,,N,Y,29.9021726,-95.3053897
PAST SALE,February-10-2017,Vacant Land,5763 East Hampton,Houston,TX,77039,20000,,,Pine Village North Th3a,,8624,,1572,,152,Sold,,,http://www.redfin.com/TX/Houston/5763-Easthampton-Dr-77039/unit-A/home/30304860,HARMLS,17995932,N,Y,29.902172,-95.3053769
PAST SALE,April-17-2017,Single Family Residential,4007 Bridgedale,Houston,TX,77039,139900,3,2.0,Fairgreen,1645,6448,1984,1506,85,29,Sold,,,http://www.redfin.com/TX/Houston/4007-Bridgedale-Dr-77039/home/30405831,HARMLS,13078246,N,Y,29.916691,-95.333964
PAST SALE,,Single Family Residential,13110 Chrisman Rd,Houston,TX,77039,,3,2.0,,1778,9360,1965,,,,Sold,,,http://www.redfin.com/TX/Houston/13110-Chrisman-Rd-77039/home/30135288,HARMLS,,N,Y,29.9041751,-95.3632466
PAST SALE,June-21-2016,Single Family Residential,2435 Toyah Ave,Houston,TX,77039,69900,2,1.5,Castlewood Tr A U/r,1340,7800,1968,1806,52,,Sold,,,http://www.redfin.com/TX/Houston/2435-Toyah-Ave-77039/home/30185218,HARMLS,92700245,N,Y,29.9140484,-95.3469585
PAST SALE,September-28-2016,Single Family Residential,2803 Rosebury Dr,Houston,TX,77039,249999,4,2.5,Castlewood Tr C U/r,2997,49148,1973,1707,83,,Sold,,,http://www.redfin.com/TX/Houston/2803-Rosebury-Dr-77039/home/30194768,HARMLS,16756868,N,Y,29.9171338,-95.3430762
PAST SALE,August-4-2017,Single Family Residential,4907 Sandydale Ln,Houston,TX,77039,121000,3,2.0,Fairgreen Sec 02,1451,7715,1968,1397,83,,Sold,,,http://www.redfin.com/TX/Houston/4907-Sandydale-Ln-77039/home/30219940,HARMLS,1335541,N,Y,29.9069525,-95.3184807
PAST SALE,February-22-2017,Single Family Residential,2806 Ridgeland Ave,Houston,TX,77039,172500,3,2.0,Castlewood Sec 04,1380,17280,1977,1560,125,,Sold,,,http://www.redfin.com/TX/Houston/2806-Ridgeland-Ave-77039/home/30224964,HARMLS,77814888,N,Y,29.9110116,-95.3429536
PAST SALE,October-31-2016,Single Family Residential,3511 Hollybrook Ln,Houston,TX,77039,140000,3,2.0,High Meadows Sec 10,1522,6696,1977,1674,92,,Sold,,,http://www.redfin.com/TX/Houston/3511-Hollybrook-Ln-77039/home/30333236,HARMLS,61525764,N,Y,29.9077104,-95.3376822
PAST SALE,,Single Family Residential,13601 Luthe Rd,Houston,TX,77039,,2,1.0,,1128,86684,1960,,,,Sold,,,http://www.redfin.com/TX/Houston/13601-Luthe-Rd-77039/home/29647642,HARMLS,,N,Y,29.9108382,-95.3722407
PAST SALE,October-18-2017,Townhouse,12331 W Village Dr Unit C,Houston,TX,77039,49999,2,2.0,Pine Village North Th 1,1440,1750,1979,1322,35,152,Sold,,,http://www.redfin.com/TX/Houston/12331-W-Village-Dr-77039/unit-C/home/30304749,HARMLS,35544024,N,Y,29.905164,-95.307166
PAST SALE,,Townhouse,12214 Wild Pine Dr Unit D,Houston,TX,77039,,2,1.5,,1511,2417,1979,,,,Sold,,,http://www.redfin.com/TX/Houston/12214-Wild-Pine-Dr-77039/unit-D/home/30305063,HARMLS,,N,Y,29.902319,-95.303067
PAST SALE,January-5-2018,Single Family Residential,2802 Rosebury Dr,Houston,TX,77039,79000,3,1.5,Castlewood Tr C U/r,1216,20000,1976,1243,65,,Sold,,,http://www.redfin.com/TX/Houston/2802-Rosebury-Dr-77039/home/30194765,HARMLS,62057036,N,Y,29.9164114,-95.343117
PAST SALE,June-10-2016,Single Family Residential,12011 Fall Meadow Ln,Houston,TX,77039,110000,4,1.5,High Meadows Sec 03,1348,6600,1967,1817,82,,Sold,,,http://www.redfin.com/TX/Houston/12011-Fall-Meadow-Ln-77039/home/30216944,HARMLS,15192594,N,Y,29.8987254,-95.3403791
PAST SALE,,Single Family Residential,5223 Sandydale Ln,Houston,TX,77039,,3,2.0,,1900,7920,1968,,,,Sold,,,http://www.redfin.com/TX/Houston/5223-Sandydale-Ln-77039/home/30219804,HARMLS,,N,Y,29.9077935,-95.3132524
PAST SALE,May-30-2018,Single Family Residential,4418 Otterbury Dr,Houston,TX,77039,109700,3,1.5,High Meadows Sec 05,1056,6448,1969,1098,104,,Sold,,,http://www.redfin.com/TX/Houston/4418-Otterbury-Dr-77039/home/30239766,HARMLS,34266641,N,Y,29.9039065,-95.3292246
PAST SALE,October-17-2016,Single Family Residential,4435 Sandydale Ln,Houston,TX,77039,120000,3,1.0,High Meadows Sec 05,1002,6240,1970,1688,120,,Sold,,,http://www.redfin.com/TX/Houston/4435-Sandydale-Ln-77039/home/30239808,HARMLS,55659543,N,Y,29.9068217,-95.3289999
PAST SALE,September-26-2017,Single Family Residential,4415 Anice St,Houston,TX,77039,155000,5,1.5,High Meadows Sec 06,2140,6448,1970,1344,72,,Sold,,,http://www.redfin.com/TX/Houston/4415-Anice-St-77039/home/30248549,HARMLS,98035349,N,Y,29.9090349,-95.3299804
PAST SALE,May-29-2018,Single Family Residential,3614 Anice St,Houston,TX,77039,149999,3,2.0,High Meadows Sec 10,1475,7020,1976,1099,102,,Sold,,,http://www.redfin.com/TX/Houston/3614-Anice-St-77039/home/30333160,HARMLS,13214656,N,Y,29.9081305,-95.3367629
PAST SALE,September-20-2016,Single Family Residential,13910 Long Gln,Houston,TX,77039,164500,3,2.5,Fairgreen,2427,6656,2001,1715,68,13,Sold,,,http://www.redfin.com/TX/Houston/13910-Long-Glen-Dr-77039/home/30405394,HARMLS,97668299,N,Y,29.916924,-95.3326565
PAST SALE,March-23-2018,Single Family Residential,13518 Hillside Dr,Houston,TX,77039,65000,4,1.0,Hillside Gardens,1235,11839,1940,1166,53,,Sold,,,http://www.redfin.com/TX/Houston/13518-Hillside-Dr-77039/home/30009743,HARMLS,14141739,N,Y,29.9146841,-95.3065952
PAST SALE,July-18-2016,Single Family Residential,12514 Buckland Ln,Houston,TX,77039,85000,3,1.5,High Meadows Sec 8,969,,1972,1779,88,,Sold,,,http://www.redfin.com/TX/Houston/12514-Buckland-Ln-77039/home/30278787,HARMLS,36675455,N,Y,29.9048809,-95.3430353
PAST SALE,,Single Family Residential,5107 Celestial Ln,Houston,TX,77039,,3,2.0,,1737,6600,1967,,,,Sold,,,http://www.redfin.com/TX/Houston/5107-Celestial-Ln-77039/home/30219908,HARMLS,,N,Y,29.9070106,-95.3153559
PAST SALE,July-18-2018,Single Family Residential,3706 Bethany Ln,Houston,TX,77039,145000,3,2.0,High Meadows,1312,6930,1968,1049,111,,Sold,,,http://www.redfin.com/TX/Houston/3706-Bethany-Ln-77039/home/30223509,HARMLS,63283063,N,Y,29.8990404,-95.3359252
PAST SALE,December-4-2017,Single Family Residential,13135 S Dakton Dr,Houston,TX,77039,139900,3,2.0,High Meadow,1504,9289,1971,1275,93,,Sold,,,http://www.redfin.com/TX/Houston/13135-Dakton-Dr-77039/home/30248667,HARMLS,83951742,N,Y,29.9110028,-95.33425
PAST SALE,December-21-2017,Single Family Residential,4531 Sandydale Ln,Houston,TX,77039,125000,3,2.5,High Meadows Sec 05,1598,6968,1970,1258,78,,Sold,,,http://www.redfin.com/TX/Houston/4531-Sandydale-Ln-77039/home/30239799,HARMLS,15931119,N,Y,29.9068941,-95.3272023
PAST SALE,August-3-2017,Single Family Residential,1728 Connorvale Rd,Houston,TX,77039,235000,6,4.0,Roberts,2983,12920,1950,1398,79,,Sold,,,http://www.redfin.com/TX/Houston/1728-Connorvale-Rd-77039/home/30063533,HARMLS,13123827,N,Y,29.9092549,-95.3585252
PAST SALE,August-5-2018,Vacant Land,2706 Anice St,Houston,TX,77039,55000,,,Castlewood Sec 04,,9590,,1031,,,Sold,,,http://www.redfin.com/TX/Houston/2706-Anice-St-77039/home/148107992,HARMLS,72857351,N,Y,29.908516,-95.3445065
PAST SALE,November-3-2017,Single Family Residential,2526 Sandydale Ln,Houston,TX,77039,269000,4,1.0,Holston Place,2499,60488,1970,1306,108,,Sold,,,http://www.redfin.com/TX/Houston/2526-Sandydale-Ln-77039/home/29481368,HARMLS,35080578,N,Y,29.9059499,-95.345569
PAST SALE,January-5-2018,Single Family Residential,1626 Gault Rd,Houston,TX,77039,189500,3,2.0,Magnolia Gardens,1957,52799,1965,1243,97,,Sold,,,http://www.redfin.com/TX/Houston/1626-Gault-Rd-77039/home/29716058,HARMLS,68891084,N,Y,29.9200694,-95.3608995
PAST SALE,,Single Family Residential,2211 Melissa,Houston,TX,77039,,2,1.0,,2262,8100,1950,,,,Sold,,,http://www.redfin.com/TX/Houston/2211-Melissa-St-77039/home/30064305,HARMLS,,N,Y,29.9270979,-95.3517811
PAST SALE,July-19-2018,Single Family Residential,2519 Ladin Dr,Houston,TX,77039,185000,3,2.0,Holston Place,1280,21754,1940,1048,145,,Sold,,,http://www.redfin.com/TX/Houston/2519-Ladin-Dr-77039/home/30132041,HARMLS,74924971,N,Y,29.9079559,-95.3461002
PAST SALE,July-25-2018,Single Family Residential,3802 Blue Mdw,Houston,TX,77039,130000,3,1.5,High Meadows,1522,7020,1965,1042,85,,Sold,,,http://www.redfin.com/TX/Houston/3802-Blue-Meadow-Ln-77039/home/30189574,HARMLS,90334276,N,Y,29.8981706,-95.3351489
PAST SALE,July-28-2018,Single Family Residential,3802 Connervale Rd,Houston,TX,77039,95000,3,1.5,High Mead0ws,1060,6634,1976,1039,90,,Sold,,,http://www.redfin.com/TX/Houston/3802-Connorvale-Rd-77039/home/30333150,HARMLS,76722690,N,Y,29.9088709,-95.3357209
PAST SALE,August-30-2018,Single Family Residential,3906 Toyah Ave,Houston,TX,77039,130000,3,2.0,Fairgreen Sec 05,1216,6656,1979,1006,107,12,Sold,,,http://www.redfin.com/TX/Houston/3906-Toyah-Ave-77039/home/30405369,HARMLS,37250296,N,Y,29.9140499,-95.3346586
PAST SALE,September-21-2018,Single Family Residential,14010 Long Glen Dr,Houston,TX,77039,199000,5,3.0,Fairgreen Sec 05,2697,6696,2001,984,74,12,Sold,,,http://www.redfin.com/TX/Houston/14010-Long-Glen-Dr-77039/home/30405387,HARMLS,87003728,N,Y,29.9177665,-95.3324318
PAST SALE,February-28-2018,Single Family Residential,4726 Sandydale Ln,Houston,TX,77039,115000,3,2.0,Eastex Fwy Forest,1597,6600,1962,1189,72,,Sold,,,http://www.redfin.com/TX/Houston/4726-Sandydale-Ln-77039/home/30150704,HARMLS,54310415,N,Y,29.9064622,-95.3217077
PAST SALE,June-27-2018,Single Family Residential,4635 Quachita St,Houston,TX,77039,140000,6,2.0,Fairgreen Sec 04,1782,8234,1972,1070,79,,Sold,,,http://www.redfin.com/TX/Houston/4635-Quachita-St-77039/home/30261626,HARMLS,25292684,N,Y,29.9105339,-95.324649
PAST SALE,April-27-2018,Single Family Residential,4810 Anice St,Houston,TX,77039,134500,3,2.0,Fairgreen Sec 03,1448,6820,1970,1131,93,,Sold,,,http://www.redfin.com/TX/Houston/4810-Anice-St-77039/home/30232295,HARMLS,9861582,N,Y,29.9088291,-95.319992
PAST SALE,May-11-2018,Townhouse,5738 Easthampton Dr Unit B,Houston,TX,77039,32000,2,1.5,Pine Village North T/h Sec 03,1493,2113,1979,1117,21,167,Sold,,,http://www.redfin.com/TX/Houston/5738-Easthampton-Dr-77039/unit-B/home/30305464,HARMLS,78587638,N,Y,29.90096,-95.306478
PAST SALE,August-15-2018,Single Family Residential,2443 Lauder Rd,Houston,TX,77039,99000,4,3.0,Castlewood Tr A U/r,2134,7020,1973,1021,46,,Sold,,,http://www.redfin.com/TX/Houston/2443-Lauder-Rd-77039/home/30185120,HARMLS,80854276,N,Y,29.9132594,-95.3475306
PAST SALE,,Townhouse,5771 Easthampton Dr Unit D,Houston,TX,77039,,2,1.5,,1056,2362,1979,,,,Sold,,,http://www.redfin.com/TX/Houston/5771-Easthampton-Dr-77039/unit-D/home/30304864,HARMLS,,N,Y,29.902172,-95.3053769
PAST SALE,August-30-2018,Single Family Residential,2802 Toyah Ave,Houston,TX,77039,165000,3,2.5,Castlewood Tr C U/r,1498,14688,1970,1006,110,,Sold,,,http://www.redfin.com/TX/Houston/2802-Toyah-Ave-77039/home/30194756,HARMLS,23620622,N,Y,29.9136652,-95.3430426
PAST SALE,September-16-2016,Single Family Residential,13503 Russ Dr,Houston,TX,77039,164999,3,2.0,Castlewood Sec 03,1479,8330,1967,1719,112,,Sold,,,http://www.redfin.com/TX/Houston/13503-Russ-Dr-77039/home/30199272,HARMLS,88665989,N,Y,29.9098308,-95.3487567
PAST SALE,July-20-2018,Single Family Residential,13607 Green Teal Ln,Houston,TX,77039,145000,4,1.5,Fairgreen Sec 05,1625,6514,1979,1047,89,12,Sold,,,http://www.redfin.com/TX/Houston/13607-Green-Teal-Ln-77039/home/30405505,HARMLS,63038862,N,Y,29.9144482,-95.3370693
PAST SALE,March-29-2018,Single Family Residential,1330 Erwin Rd,Houston,TX,77039,270000,3,2.0,Hahl Sites,2277,53665,1955,1160,119,,Sold,,,http://www.redfin.com/TX/Houston/1330-Erwin-Rd-77039/home/29939599,HARMLS,82586469,N,Y,29.8933345,-95.3689087
PAST SALE,June-29-2018,Single Family Residential,13107 Chrisman Rd,Houston,TX,77039,155000,3,1.0,Aldine Gardens Sec 01,,12250,1960,1068,,,Sold,,,http://www.redfin.com/TX/Houston/13107-Chrisman-Rd-77039/home/144620096,HARMLS,61350241,N,Y,29.903456,-95.3637576
PAST SALE,May-21-2018,Single Family Residential,5102 Sandydale Ln,Houston,TX,77039,165000,3,2.0,Fairgreen Sec 02,1632,7370,1968,1107,101,,Sold,,,http://www.redfin.com/TX/Houston/5102-Sandydale-Ln-77039/home/30219922,HARMLS,34950732,N,Y,29.9073395,-95.3155805
PAST SALE,July-31-2017,Single Family Residential,1815 Connorvale Rd,Houston,TX,77039,269000,3,2.0,Magnolia Gardens,1813,103237,1969,1401,148,,Sold,,,http://www.redfin.com/TX/Houston/1815-Connorvale-Rd-77039/home/29716074,HARMLS,11535845,N,Y,29.9098436,-95.3573398
PAST SALE,April-29-2017,Single Family Residential,4807 Sandydale Ln,Houston,TX,77039,98000,3,2.0,Eastex Fwy Forest Sec 02,1209,6600,1962,1494,81,,Sold,,,http://www.redfin.com/TX/Houston/4807-Sandydale-Ln-77039/home/30150698,HARMLS,35607795,N,Y,29.9069301,-95.3201554
PAST SALE,,Single Family Residential,12830 Magic Dr,Houston,TX,77039,,3,2.5,,1452,6634,1969,,,,Sold,,,http://www.redfin.com/TX/Houston/12830-Magic-Dr-77039/home/30232238,HARMLS,,N,Y,29.9089325,-95.3146207
PAST SALE,June-20-2017,Multi-Family (2-4 Unit),4542 Otterbury Dr,Houston,TX,77039,375000,0,,High Meadows Sec 05,4736,6968,2003,1442,79,,Sold,,,http://www.redfin.com/TX/Houston/4542-Otterbury-Dr-77039/home/30239795,HARMLS,70436384,N,Y,29.9039767,-95.3263648
PAST SALE,July-5-2017,Single Family Residential,12514 Determined Dr,Houston,TX,77039,149900,4,2.5,High Meadows Sec 05,2042,5720,1974,1427,73,,Sold,,,http://www.redfin.com/TX/Houston/12514-Determined-Dr-77039/home/30239004,HARMLS,85874794,N,Y,29.9055267,-95.3259154
PAST SALE,,Single Family Residential,4411 Hollybrook Ln,Houston,TX,77039,,3,1.5,,1024,6448,1970,,,,Sold,,,http://www.redfin.com/TX/Houston/4411-Hollybrook-Ln-77039/home/30248512,HARMLS,,N,Y,29.908239,-95.3301643
PAST SALE,August-15-2017,Single Family Residential,4631 Anice St,Houston,TX,77039,149900,3,2.0,Fairgreen Sec 04,1776,6760,1972,1386,84,,Sold,,,http://www.redfin.com/TX/Houston/4631-Anice-St-77039/home/30261581,HARMLS,83149254,N,Y,29.9090855,-95.3248124
PAST SALE,June-5-2017,Single Family Residential,4607 Quachita St,Houston,TX,77039,115000,4,2.0,Fairgreen Sec 04,1872,6552,1972,1457,61,,Sold,,,http://www.redfin.com/TX/Houston/4607-Quachita-St-77039/home/30261619,HARMLS,49784834,N,Y,29.9106098,-95.3261197
PAST SALE,,Single Family Residential,4629 Mount Houston Rd,Houston,TX,77093,,3,1.0,,1003,54629,1955,,,,Sold,,,http://www.redfin.com/TX/Houston/4629-E-Mt-Houston-Rd-77093/home/29727178,HARMLS,,N,Y,29.8912139,-95.3244039
PAST SALE,May-24-2017,Single Family Residential,13833 Reeveston Rd,Houston,TX,77039,525000,6,2.5,Murray Homestead,4768,202990,1960,1469,110,,Sold,,,http://www.redfin.com/TX/Houston/13833-Reeveston-Rd-77039/home/29647786,HARMLS,12910548,N,Y,29.9161184,-95.3678559
PAST SALE,,Townhouse,5783 Easthampton Dr Unit B,Houston,TX,77039,,3,2.5,,1685,1682,1979,,,,Sold,,,http://www.redfin.com/TX/Houston/5783-Easthampton-Dr-77039/unit-B/home/30304854,HARMLS,,N,Y,29.902172,-95.3053769
PAST SALE,June-8-2017,Townhouse,12238 Wild Pine Dr Unit A,Houston,TX,77039,29000,1,1.5,Pine Village North Un C Rese,1101,1750,1979,1454,26,168,Sold,,,http://www.redfin.com/TX/Houston/12238-Wild-Pine-Dr-77039/unit-A/home/30304979,HARMLS,98302148,N,Y,29.902319,-95.303067
PAST SALE,August-17-2017,Townhouse,12447 W Village Dr Unit D,Houston,TX,77039,30000,2,2.0,Pine Village North T/h Sec 0,1544,1406,1979,1384,19,167,Sold,,,http://www.redfin.com/TX/Houston/12447-W-Village-Dr-77039/unit-D/home/30304675,HARMLS,49803404,N,Y,29.905164,-95.307166
PAST SALE,December-21-2016,Single Family Residential,2403 Ladin Dr,Houston,TX,77039,71400,3,2.5,Holston Place,1325,22750,1965,1623,54,,Sold,,,http://www.redfin.com/TX/Houston/2403-Ladin-Dr-77039/home/30132036,HARMLS,44051264,N,Y,29.9079567,-95.3483071
PAST SALE,August-22-2017,Single Family Residential,2603 Anice,Houston,TX,77039,165000,3,1.5,Castlewood,1448,23400,1975,1379,114,150,Sold,,,http://www.redfin.com/TX/Houston/2603-Anice-St-77039/home/30199215,HARMLS,44544226,N,Y,29.9089419,-95.3456711
PAST SALE,June-9-2017,Single Family Residential,12418 Swinbrook Ln,Houston,TX,77039,129900,3,2.0,High Meadows,1767,6968,1973,1453,74,,Sold,,,http://www.redfin.com/TX/Houston/12418-Swinbrook-Ln-77039/home/30278742,HARMLS,43158508,N,Y,29.9050141,-95.3464272
PAST SALE,July-30-2017,Single Family Residential,12819 Patel Ln,Houston,TX,77039,125000,3,1.5,High Meadows Sec 10,1207,6760,1976,1402,104,,Sold,,,http://www.redfin.com/TX/Houston/12819-Patel-Ln-77039/home/30333021,HARMLS,17626863,N,Y,29.9075856,-95.3385403
PAST SALE,,Single Family Residential,3503 Hollybrook Ln,Houston,TX,77039,,4,2.5,,2721,7236,1977,,,,Sold,,,http://www.redfin.com/TX/Houston/3503-Hollybrook-Ln-77039/home/30333234,HARMLS,,N,Y,29.9077139,-95.3381521
PAST SALE,,Single Family Residential,2414 Ridgeland St,Houston,TX,77039,,4,1.5,,1734,7800,1970,,,,Sold,,,http://www.redfin.com/TX/Houston/2414-Ridgeland-Ave-77039/home/30199168,HARMLS,,N,Y,29.9109952,-95.3478167
PAST SALE,,Single Family Residential,3614 Charriton Dr,Houston,TX,77039,,4,1.5,,1331,6448,1971,,,,Sold,,,http://www.redfin.com/TX/Houston/3614-Charriton-Dr-77039/home/30263055,HARMLS,,N,Y,29.9047263,-95.3368241
PAST SALE,July-14-2017,Single Family Residential,3615 Sandydale Ln,Houston,TX,77039,109800,3,1.5,High Meadows Sec 10,1022,6955,1976,1418,107,,Sold,,,http://www.redfin.com/TX/Houston/3615-Sandydale-Ln-77039/home/30333474,HARMLS,21911084,N,Y,29.9062198,-95.3366607
PAST SALE,April-13-2017,Single Family Residential,4010 Cypress Knee,Houston,TX,77039,163000,3,2.0,Fairgreen,,,2000,1510,,350,Sold,,,http://www.redfin.com/TX/Houston/4010-Cypress-Knee-Ln-77039/home/30405413,HARMLS,11613934,N,Y,29.9187299,-95.333678
PAST SALE,July-27-2017,Single Family Residential,14007 Honey Bee Ct,Houston,TX,77039,157500,3,2.0,Fairgreen Sec 05,1905,7440,2001,1405,83,12,Sold,,,http://www.redfin.com/TX/Houston/14007-Honey-Bee-Ct-77039/home/30405777,HARMLS,18356057,N,Y,29.9177683,-95.336293
PAST SALE,,Single Family Residential,14002 Hunters Cove Ct,Houston,TX,77039,,3,2.5,,2096,7440,2001,,,,Sold,,,http://www.redfin.com/TX/Houston/14002-Hunters-Cove-Ct-77039/home/30405873,HARMLS,,N,Y,29.9175107,-95.3348629
PAST SALE,August-14-2017,Vacant Land,2222 Sandydale Ln,Houston,TX,77039,290000,3,1.0,Magnolia Gardens,,,1977,1387,,,Sold,,,http://www.redfin.com/TX/Houston/2222-Sandydale-Ln-77039/home/29716078,HARMLS,4389288,N,Y,29.9056246,-95.3502689
PAST SALE,November-21-2016,Condo/Co-op,12435 W Village Dr Unit A,Houston,TX,77039,37000,2,2.0,Pine Village North Reserv,1234,1406,1979,1653,30,153,Sold,,,http://www.redfin.com/TX/Houston/12435-W-Village-Dr-77039/unit-A/home/30304776,HARMLS,8798894,N,Y,29.9059002,-95.306572
PAST SALE,,Townhouse,5703 Easthampton Dr Unit A,Houston,TX,77039,,2,1.5,,1698,2156,1979,,,,Sold,,,http://www.redfin.com/TX/Houston/5703-Easthampton-Dr-77039/unit-A/home/30305025,HARMLS,,N,Y,29.902172,-95.3053769
PAST SALE,January-23-2017,Townhouse,5711 Easthampton Dr Unit C,Houston,TX,77039,35000,2,1.5,Pine Village North T/h Sec 0,1056,2156,1979,1590,33,152,Sold,,,http://www.redfin.com/TX/Houston/5711-Easthampton-Dr-77039/unit-C/home/30305074,HARMLS,17973693,N,Y,29.902172,-95.3053769
PAST SALE,May-4-2018,Single Family Residential,12334 Countrywood Ln,Houston,TX,77039,135000,3,1.5,Fairgreen Sec 01 R/p,990,8600,1967,1124,136,,Sold,,,http://www.redfin.com/TX/Houston/12334-Countrywood-Ln-77039/home/30211841,HARMLS,53426376,N,Y,29.9042087,-95.3127623
PAST SALE,August-8-2018,Single Family Residential,4739 Anice St,Houston,TX,77039,135000,4,2.0,Fairgreen Sec 03,1342,7370,1970,1028,101,,Sold,,,http://www.redfin.com/TX/Houston/4739-Anice-St-77039/home/30232057,HARMLS,32911325,N,Y,29.9092918,-95.320809
PAST SALE,February-15-2017,Townhouse,5791 Easthampton Dr Unit C,Houston,TX,77039,35000,2,1.0,Pine Village North Twnhms Se,1056,2156,1979,1567,33,168,Sold,,,http://www.redfin.com/TX/Houston/5791-Easthampton-Dr-77039/unit-C/home/30304876,HARMLS,19614742,N,Y,29.902172,-95.3053769
PAST SALE,August-13-2018,Townhouse,5722 Easthampton Dr Unit B,Houston,TX,77039,59900,3,2.5,Pine Village North T/h Sec 03,1527,1896,1979,1023,39,167,Sold,,,http://www.redfin.com/TX/Houston/5722-Easthampton-Dr-77039/unit-B/home/30305479,HARMLS,8946893,N,Y,29.90096,-95.306478
PAST SALE,,Single Family Residential,13814 Long Glen Dr,Houston,TX,77039,,4,3.0,,2680,6848,2001,,,,Sold,,,http://www.redfin.com/TX/Houston/13814-Long-Glen-Dr-77039/home/30405379,HARMLS,,N,Y,29.9164234,-95.3327791
PAST SALE,,Single Family Residential,1235 Balmorhea Ave,Houston,TX,77039,,3,2.0,,1225,7038,1973,,,,Sold,,,http://www.redfin.com/TX/Houston/1235-Balmorhea-Ave-77039/home/30300470,HARMLS,,N,Y,29.9149984,-95.3657607
PAST SALE,May-29-2020,Single Family Residential,11830 Connor St,Houston,TX,77039,187000,3,1.5,Orange Grove Britton R/p,1552,21780,1960,368,120,,Sold,,,http://www.redfin.com/TX/Houston/11830-Connor-St-77039/home/29727157,HARMLS,31072586,N,Y,29.8952959,-95.3271001
PAST SALE,October-8-2020,Single Family Residential,4226 Orange Grove Dr,Houston,TX,77039,210000,4,2.0,Orange Grove Britton R/p,2446,27744,1966,236,86,,Sold,,,http://www.redfin.com/TX/Houston/4226-Orange-Grove-Dr-77039/home/29727257,HARMLS,59657526,N,Y,29.8939515,-95.3313899
PAST SALE,June-12-2019,Single Family Residential,4802 Cicada Ln,Houston,TX,77039,165000,3,2.0,Eastex Fwy Forest,1224,7150,1962,720,135,,Sold,,,http://www.redfin.com/TX/Houston/4802-Cicada-Ln-77039/home/30150700,HARMLS,78408860,N,Y,29.9072807,-95.3204005
PAST SALE,March-9-2020,Single Family Residential,4710 Hollybrook Ln,Houston,TX,77039,129900,4,2.0,Eastex Fwy Forest Sec 02,2392,6600,1964,449,54,,Sold,,,http://www.redfin.com/TX/Houston/4710-Hollybrook-Ln-77039/home/30150732,HARMLS,53575694,N,Y,29.9080661,-95.3221571
PAST SALE,September-1-2020,Single Family Residential,4806 Beau Ln,Houston,TX,77039,99000,3,1.0,Eastex Fwy Forest Sec 03,1227,6692,1960,273,81,,Sold,,,http://www.redfin.com/TX/Houston/4806-Beau-Ln-77039/home/30151948,HARMLS,20457852,N,Y,29.9004804,-95.3203188
PAST SALE,February-22-2019,Single Family Residential,12022 Macnaughton Dr,Houston,TX,77039,115000,4,1.0,Eastex Fwy Forest Sec 03,1267,6780,1960,830,91,,Sold,,,http://www.redfin.com/TX/Houston/12022-Macnaughton-Dr-77039/home/30152033,HARMLS,20681288,N,Y,29.9001239,-95.3185419
PAST SALE,February-1-2019,Single Family Residential,3714 Blue Meadow Ln,Houston,TX,77039,144899,3,1.5,High Meadows Sec 02,1348,7020,1966,851,107,,Sold,,,http://www.redfin.com/TX/Houston/3714-Blue-Meadow-Ln-77039/home/30189572,HARMLS,27478876,N,Y,29.8982008,-95.3355166
PAST SALE,February-15-2019,Vacant Land,12410 Countrywood Lane Ln,Houston,TX,77039,21500,,,Fairgreen Sec 01 R/p,,7475,,837,,,Sold,,,http://www.redfin.com/TX/Houston/12410-Countrywood-Ln-77039/home/30211882,HARMLS,59861700,N,Y,29.9049763,-95.3127214
PAST SALE,October-26-2018,Single Family Residential,5114 Celestial Ln,Houston,TX,77039,145000,4,2.0,Fairgreen Sec 02,1420,7068,1967,949,102,,Sold,,,http://www.redfin.com/TX/Houston/5114-Celestial-Ln-77039/home/30219814,HARMLS,27976813,N,Y,29.9065531,-95.3149679
PAST SALE,October-7-2019,Single Family Residential,12714 Blue Haven Rd,Houston,TX,77039,155000,3,2.0,Fairgreen Sec 02,1206,6900,1968,603,129,,Sold,,,http://www.redfin.com/TX/Houston/12714-Blue-Haven-Rd-77039/home/30219784,HARMLS,84512818,N,Y,29.9069679,-95.3164179
PAST SALE,November-6-2019,Single Family Residential,5207 Celestial Ln,Houston,TX,77039,129900,3,2.0,Fairgreen Sec 02,1662,6600,1967,573,78,,Sold,,,http://www.redfin.com/TX/Houston/5207-Celestial-Ln-77039/home/30219913,HARMLS,37533666,N,Y,29.9070414,-95.3140284
PAST SALE,October-18-2018,Single Family Residential,5007 Sandydale Ln,Houston,TX,77039,154900,3,2.0,Fairgreen Sec 02,1220,8052,1968,957,127,,Sold,,,http://www.redfin.com/TX/Houston/5007-Sandydale-Ln-77039/home/30219942,HARMLS,66129733,N,Y,29.9075457,-95.3171735
PAST SALE,December-21-2018,Single Family Residential,3710 Beau Ln,Houston,TX,77039,135000,3,1.5,High Meadows Sec 04,1338,6820,1968,893,101,,Sold,,,http://www.redfin.com/TX/Houston/3710-Beau-Ln-77039/home/30223605,HARMLS,16658379,N,Y,29.8999047,-95.3357209
PAST SALE,August-1-2018,Single Family Residential,12903 Blue Haven Rd,Houston,TX,77039,145000,3,2.0,Fairgreen Sec 03,1427,7840,1969,1035,102,,Sold,,,http://www.redfin.com/TX/Houston/12903-Blue-Haven-Rd-77039/home/30231991,HARMLS,75607685,N,Y,29.9086597,-95.3186032
PAST SALE,December-30-2020,Single Family Residential,12911 Ciceter Rd,Houston,TX,77039,169750,3,2.0,Fairgreen,2154,8563,1969,153,79,,Sold,,,http://www.redfin.com/TX/Houston/12911-Ciceter-Rd-77039/home/30232252,HARMLS,14188059,N,Y,29.9093151,-95.3179905
PAST SALE,August-5-2020,Single Family Residential,4827 Anice St,Houston,TX,77039,169900,4,2.0,Fairgreen Sec 03,2190,9191,1970,300,78,,Sold,,,http://www.redfin.com/TX/Houston/4827-Anice-St-77039/home/30232273,HARMLS,7471366,N,Y,29.9091757,-95.3192159
PAST SALE,November-1-2019,Single Family Residential,5010 Hollybrook Ln,Houston,TX,77039,152000,4,2.0,Fairgreen Sec 03,1700,6820,1969,578,89,,Sold,,,http://www.redfin.com/TX/Houston/5010-Hollybrook-Ln-77039/home/30232310,HARMLS,25196880,N,Y,29.9086541,-95.3176229
PAST SALE,August-20-2019,Single Family Residential,4427 Debeney Dr,Houston,TX,77039,132000,3,1.5,High Meadows Sec 05,1182,6448,1969,651,112,,Sold,,,http://www.redfin.com/TX/Houston/4427-Debeney-Dr-77039/home/30239906,HARMLS,61966211,N,Y,29.9050076,-95.3287343
PAST SALE,March-8-2021,Single Family Residential,4538 Charriton Dr,Houston,TX,77039,150000,3,1.5,High Meadows,2362,9666,1969,85,64,,Sold,,,http://www.redfin.com/TX/Houston/4538-Charriton-Dr-77039/home/30239921,HARMLS,8229561,N,Y,29.9055405,-95.3266916
PAST SALE,December-31-2020,Single Family Residential,4635 Hollybrook Ln,Houston,TX,77039,215000,3,2.0,Fairgreen Sec 04,1906,6760,1972,152,113,,Sold,,,http://www.redfin.com/TX/Houston/4635-Hollybrook-Ln-77039/home/30261544,HARMLS,30878978,N,Y,29.9083278,-95.3246081
PAST SALE,January-11-2019,Single Family Residential,4623 Connorvale Rd,Houston,TX,77039,90000,3,2.0,Fairgreen Sec 04,1579,6448,1972,872,57,,Sold,,,http://www.redfin.com/TX/Houston/4623-Connorvale-Rd-77039/home/30261590,HARMLS,11863285,N,Y,29.9097866,-95.3253026
PAST SALE,June-5-2020,Single Family Residential,4642 Sandydale Ln,Houston,TX,77039,169000,3,2.0,Fairgreen,1640,7040,1971,361,103,,Sold,,,http://www.redfin.com/TX/Houston/4642-Sandydale-Ln-77039/home/30261937,HARMLS,38132362,N,Y,29.9064753,-95.3241792
PAST SALE,August-28-2020,Single Family Residential,3811 Debeney Dr,Houston,TX,77039,122000,3,1.5,High Meadows Sec 07,969,5720,1972,277,126,,Sold,,,http://www.redfin.com/TX/Houston/3811-Debeney-Dr-77039/home/30263469,HARMLS,96449257,N,Y,29.9044151,-95.3350467
PAST SALE,February-25-2021,Condo/Co-op,12427 W Village Dr Unit A,Houston,TX,77039,68000,2,1.5,Pine Village North T/h Sec 01,1201,2396,1979,96,57,167,Sold,,,http://www.redfin.com/TX/Houston/12427-W-Village-Dr-77039/unit-A/home/30304664,HARMLS,82378070,N,Y,29.905164,-95.307166
PAST SALE,March-10-2021,Townhouse,12447 W Village Dr Unit C,Houston,TX,77039,50000,2,2.0,Pine Village North Un C Reserve D,1544,1372,1979,83,32,167,Sold,,,http://www.redfin.com/TX/Houston/12447-W-Village-Dr-77039/unit-C/home/30304676,HARMLS,22173782,N,Y,29.905164,-95.307166
PAST SALE,September-18-2020,Townhouse,12343 W Village Dr Unit C,Houston,TX,77039,98000,2,2.0,Pine Village North Twnhms Sec 01,1609,1892,1979,256,61,168,Sold,,,http://www.redfin.com/TX/Houston/12343-W-Village-Dr-77039/unit-C/home/30304753,HARMLS,56968372,N,Y,29.9050064,-95.3064494
PAST SALE,April-8-2021,Townhouse,12459 W Village Dr Unit D,Houston,TX,77039,92500,2,1.5,Pine Village North T/h Sec 01,1410,2439,1979,54,66,168,Sold,,,http://www.redfin.com/TX/Houston/12459-W-Village-Dr-77039/unit-D/home/30304775,HARMLS,6632821,N,Y,29.905164,-95.307166
PAST SALE,August-5-2019,Townhouse,12239 Wild Pine Dr Unit C,Houston,TX,77039,74000,3,2.5,Pine Village North Un C Reserve D,1659,1725,1979,666,45,167,Sold,,,http://www.redfin.com/TX/Houston/12239-Wild-Pine-Dr-77039/unit-C/home/30304842,HARMLS,65095793,N,Y,29.9025842,-95.3038755
PAST SALE,May-21-2021,Townhouse,5767 Easthampton Dr Unit A,Houston,TX,77039,95900,3,2.0,Pine Village North T/h Sec 03a,1623,1785,1979,11,59,168,Sold,,,http://www.redfin.com/TX/Houston/5767-Easthampton-Dr-77039/unit-A/home/30304865,HARMLS,4859410,N,Y,29.902172,-95.3053769
PAST SALE,March-19-2021,Townhouse,5751 Easthampton Dr Unit A,Houston,TX,77039,85000,4,2.5,Pine Village North T/h Sec 03a,1031,1693,1979,74,82,168,Sold,,,http://www.redfin.com/TX/Houston/5751-Easthampton-Dr-77039/unit-A/home/30304857,HARMLS,71628087,N,Y,29.902172,-95.3053769
PAST SALE,November-9-2020,Townhouse,12203 Wild Pine Dr Unit B,Houston,TX,77039,87000,3,2.5,Pine Village North T/h Sec 03a,1560,1795,1979,204,56,167,Sold,,,http://www.redfin.com/TX/Houston/12203-Wild-Pine-Dr-77039/unit-B/home/30304883,HARMLS,51331001,N,Y,29.9021726,-95.3053897
PAST SALE,October-18-2019,Townhouse,12203 W Village Dr Unit D,Houston,TX,77039,51500,2,1.5,Pine Village North T/h Sec 02,1613,2288,1979,592,32,169,Sold,,,http://www.redfin.com/TX/Houston/12203-W-Village-Dr-77039/unit-D/home/30304936,HARMLS,63198841,N,Y,29.9017451,-95.3073508
PAST SALE,February-18-2020,Townhouse,12238 Wild Pine Dr Unit B,Houston,TX,77039,54900,2,1.5,Pine Village North T/h Sec 04a,992,1791,1979,469,55,167,Sold,,,http://www.redfin.com/TX/Houston/12238-Wild-Pine-Dr-77039/unit-B/home/30304957,HARMLS,80839226,N,Y,29.902319,-95.303067
PAST SALE,December-18-2020,Townhouse,5759 Easthampton Dr Unit B,Houston,TX,77039,65000,2,1.5,Pine Village North T/h Sec 03a,1056,1948,1979,165,62,168,Sold,,,http://www.redfin.com/TX/Houston/5759-Easthampton-Dr-77039/unit-B/home/30305035,HARMLS,51651729,N,Y,29.902172,-95.3053769
PAST SALE,December-28-2020,Townhouse,12214 Wild Pine Dr Unit A,Houston,TX,77039,89900,2,1.5,Pine Village North Th 4a,1511,2432,1979,155,59,167,Sold,,,http://www.redfin.com/TX/Houston/12214-Wild-Pine-Dr-77039/unit-A/home/30305058,HARMLS,79626440,N,Y,29.902319,-95.303067
PAST SALE,March-24-2020,Townhouse,12326 Wild Pine Dr Unit C,Houston,TX,77039,79999,2,2.5,Pine Village North T/h Sec 04a,1350,1775,1979,434,59,168,Sold,,,http://www.redfin.com/TX/Houston/12326-Wild-Pine-Dr-77039/unit-C/home/30305096,HARMLS,19963337,N,Y,29.902319,-95.303067
PAST SALE,March-6-2020,Townhouse,5618 Easthampton Dr Unit B,Houston,TX,77039,55000,3,1.5,Pine Village North T/h Sec 03,1527,1883,1979,452,36,167,Sold,,,http://www.redfin.com/TX/Houston/5618-Easthampton-Dr-77039/unit-B/home/30305494,HARMLS,85499170,N,Y,29.90096,-95.306478
PAST SALE,November-27-2018,Single Family Residential,3610 Orange Grove Dr,Houston,TX,77039,130000,3,1.5,High Meadows Sec 09 R/p,969,7512,1974,917,134,,Sold,,,http://www.redfin.com/TX/Houston/3610-Orange-Grove-Dr-77039/home/30315696,HARMLS,75621222,N,Y,29.8945966,-95.3366198
PAST SALE,May-20-2021,Single Family Residential,3611 Connorvale Rd,Houston,TX,77039,155000,3,1.5,High Meadows Sec 10,1060,6448,1976,12,146,,Sold,,,http://www.redfin.com/TX/Houston/3611-Connorvale-Rd-77039/home/30333175,HARMLS,15965573,N,Y,29.9092252,-95.3369876
PAST SALE,February-24-2021,Single Family Residential,3815 Anice St,Houston,TX,77039,199000,5,2.0,High Meadows,1761,7776,1977,97,113,,Sold,,,http://www.redfin.com/TX/Houston/3815-Anice-St-77039/home/30333154,HARMLS,64341870,N,Y,29.9085335,-95.3351489
PAST SALE,January-6-2021,Townhouse,12242 W Village Dr Unit E,Houston,TX,77039,70000,2,1.5,Pine Village North T/h,1285,1437,1987,146,54,168,Sold,,,http://www.redfin.com/TX/Houston/12242-W-Village-Dr-77039/unit-E/home/34239155,HARMLS,7804782,N,Y,29.9033263,-95.3061256
PAST SALE,June-6-2019,Single Family Residential,14027 Reeveston Rd,Houston,TX,77039,315000,3,2.0,Murray Homestead,2114,83831,1964,726,149,,Sold,,,http://www.redfin.com/TX/Houston/14027-Reeveston-Rd-77039/home/29647789,HARMLS,1061741,N,Y,29.9198427,-95.3684998
PAST SALE,July-2-2019,Single Family Residential,1618 Sandydale Ln,Houston,TX,77039,125000,3,2.0,Western Homes Sec 01 R/p,980,6222,1960,700,128,,Sold,,,http://www.redfin.com/TX/Houston/1618-Sandydale-Ln-77039/home/30135213,HARMLS,50438898,N,Y,29.905748,-95.3605691
PAST SALE,October-18-2019,Single Family Residential,1207 Verhalen Ave,Houston,TX,77039,150000,4,3.0,Aldine Forest R/p,1495,7072,1973,592,100,,Sold,,,http://www.redfin.com/TX/Houston/1207-Verhalen-Ave-77039/home/30300451,HARMLS,56223404,N,Y,29.9156544,-95.3673551
PAST SALE,February-21-2019,Single Family Residential,1230 Verhalen Ave,Houston,TX,77039,128700,3,2.0,Ethans Glen Th,1265,7038,1990,831,102,,Sold,,,http://www.redfin.com/TX/Houston/1230-Verhalen-Ave-77039/home/30300476,HARMLS,74895443,N,Y,29.9152354,-95.3660264
PAST SALE,August-6-2019,Single Family Residential,2227 Ladin Dr,Houston,TX,77039,220000,3,2.0,Magnolia Gardens,1771,35550,1971,665,124,,Sold,,,http://www.redfin.com/TX/Houston/2227-Ladin-Dr-77039/home/29716185,HARMLS,5646643,N,Y,29.9072309,-95.3504693
PAST SALE,August-3-2020,Single Family Residential,1827 1/2 Isom St,Houston,TX,77039,179000,4,2.0,Magnolia Gardens,2800,12375,1989,302,64,,Sold,,,http://www.redfin.com/TX/Houston/1827-1-2-Isom-St-77039/home/29716209,HARMLS,3881186,N,Y,29.9001009,-95.357625
PAST SALE,December-7-2020,Single Family Residential,1814 Charriton Dr,Houston,TX,77039,107000,4,1.0,Western Homes Sec 01 R/p,1353,6969,1965,176,79,,Sold,,,http://www.redfin.com/TX/Houston/1814-Charriton-Dr-77039/home/30135300,HARMLS,40482022,N,Y,29.905017,-95.357207
PAST SALE,October-9-2020,Single Family Residential,2515 Rosebury Dr,Houston,TX,77039,285000,5,3.5,Castlewood Tr B U/r,2672,36380,1979,235,107,,Sold,,,http://www.redfin.com/TX/Houston/2515-Rosebury-Dr-77039/home/30185210,HARMLS,7100762,N,Y,29.9168348,-95.3465702
PAST SALE,September-12-2019,Single Family Residential,2418 Toyah Ave,Houston,TX,77039,175000,4,2.0,Castlewood Tr,1608,15800,1970,628,109,,Sold,,,http://www.redfin.com/TX/Houston/2418-Toyah-Ave-77039/home/30185225,HARMLS,35075495,N,Y,29.9135665,-95.347735
PAST SALE,January-22-2021,Single Family Residential,11922 Shady Meadow St,Houston,TX,77039,120000,3,1.5,High Meadows Sec 03,1654,6820,1967,130,73,,Sold,,,http://www.redfin.com/TX/Houston/11922-Shady-Meadow-St-77039/home/30216828,HARMLS,91121833,N,Y,29.8975194,-95.3378865
PAST SALE,April-12-2019,Single Family Residential,11830 Fall Meadow Ln,Houston,TX,77039,144500,3,1.5,High Meadows,1348,7245,1968,781,107,,Sold,,,http://www.redfin.com/TX/Houston/11830-Fall-Meadow-Ln-77039/home/30216851,HARMLS,45763327,N,Y,29.8956829,-95.3398479
PAST SALE,January-31-2020,Single Family Residential,11807 Shady Meadow St,Houston,TX,77039,125000,3,1.5,High Meadows Sec 03,1334,6820,1967,487,94,,Sold,,,http://www.redfin.com/TX/Houston/11807-Shady-Meadow-St-77039/home/30216889,HARMLS,30067890,N,Y,29.8949508,-95.3373349
PAST SALE,January-21-2021,Single Family Residential,2623 Woodgate St,Houston,TX,77039,218499,4,2.0,Castlewood Sec 04,2467,8970,1999,131,89,,Sold,,,http://www.redfin.com/TX/Houston/2623-Woodgate-St-77039/home/30224946,HARMLS,14674982,N,Y,29.9122972,-95.3445882
PAST SALE,September-16-2019,Single Family Residential,3511 Charriton Dr,Houston,TX,77039,169900,4,2.0,High Meadows,1700,6136,1971,624,100,,Sold,,,http://www.redfin.com/TX/Houston/3511-Charriton-Dr-77039/home/30263008,HARMLS,95134015,N,Y,29.9050939,-95.3377639
PAST SALE,July-2-2020,Single Family Residential,12410 Ladbroke Ln,Houston,TX,77039,140000,3,1.5,High Meadows Sec 08,1015,6448,1972,334,138,,Sold,,,http://www.redfin.com/TX/Houston/12410-Ladbroke-Ln-77039/home/30278040,HARMLS,90403074,N,Y,29.9039808,-95.3413394
PAST SALE,December-23-2020,Single Family Residential,2819 Charriton Dr,Houston,TX,77039,159990,3,1.5,High Meadows Sec 08,1677,6136,1972,160,95,,Sold,,,http://www.redfin.com/TX/Houston/2819-Charriton-Dr-77039/home/30278663,HARMLS,88271855,N,Y,29.9054334,-95.3433009
PAST SALE,April-3-2018,Single Family Residential,12307 Steeple Ln,Houston,TX,77039,159000,4,1.5,High Meadows Sec 08,1034,7053,1973,1155,154,,Sold,,,http://www.redfin.com/TX/Houston/12307-Steeple-Ln-77039/home/30278744,HARMLS,43060827,N,Y,29.9033338,-95.3467541
PAST SALE,September-25-2020,Single Family Residential,12503 Deergrove St,Houston,TX,77039,154500,4,1.5,High Meadows Sec 08,1500,6240,1972,249,103,,Sold,,,http://www.redfin.com/TX/Houston/12503-Deergrove-St-77039/home/30278778,HARMLS,63378286,N,Y,29.9043792,-95.3443021
PAST SALE,July-16-2018,Single Family Residential,12406 Buckland Ln,Houston,TX,77039,144900,3,1.5,High Meadows Sec 08,1497,6136,1972,1051,97,,Sold,,,http://www.redfin.com/TX/Houston/12406-Buckland-Ln-77039/home/30278793,HARMLS,25273935,N,Y,29.9037545,-95.3430353
PAST SALE,January-19-2021,Single Family Residential,12511 Buckland Ln,Houston,TX,77039,189900,4,1.5,High Meadows Sec 08,2061,6240,1972,133,92,,Sold,,,http://www.redfin.com/TX/Houston/12511-Buckland-Ln-77039/home/30278829,HARMLS,22062694,N,Y,29.9047059,-95.3434644
PAST SALE,October-30-2019,Single Family Residential,3602 Sandydale Ln,Houston,TX,77039,135000,3,2.0,High Meadows,1329,7720,1976,580,102,,Sold,,,http://www.redfin.com/TX/Houston/3602-Sandydale-Ln-77039/home/30333016,HARMLS,77992343,N,Y,29.9058362,-95.3372328
PAST SALE,June-15-2020,Single Family Residential,3510 Anice St,Houston,TX,77039,170000,3,2.0,High Meadows Sec 10,1568,6696,1976,351,108,,Sold,,,http://www.redfin.com/TX/Houston/3510-Anice-St-77039/home/30333155,HARMLS,48040317,N,Y,29.9080675,-95.3377639
PAST SALE,September-27-2018,Single Family Residential,3602 Anice St,Houston,TX,77039,149900,3,2.0,High Meadows Sec 10,1475,6696,1976,978,102,,Sold,,,http://www.redfin.com/TX/Houston/3602-Anice-St-77039/home/30333157,HARMLS,9951862,N,Y,29.9080857,-95.3373145
PAST SALE,October-16-2019,Vacant Land,11701 Gloger St,Houston,TX,77039,275000,,,Orange Grove Britton R/p,,68977,,594,,,Sold,,,http://www.redfin.com/TX/Houston/11701-Gloger-St-77039/home/29481374,HARMLS,53220881,N,Y,29.8911089,-95.3321031
PAST SALE,September-25-2020,Single Family Residential,2326 Ladin Dr,Houston,TX,77039,184900,3,1.5,Magnolia Gardens,1752,11400,1966,249,106,,Sold,,,http://www.redfin.com/TX/Houston/2326-Ladin-Dr-77039/home/29716013,HARMLS,10738732,N,Y,29.9068424,-95.3491245
PAST SALE,March-12-2019,Single Family Residential,2127 Maurine St,Houston,TX,77039,179900,4,2.5,Aldine Place,4575,26100,1975,812,39,,Sold,,,http://www.redfin.com/TX/Houston/2127-Maurine-St-77039/home/30064768,HARMLS,54536175,N,Y,29.9252429,-95.3525372
PAST SALE,September-28-2018,Single Family Residential,2422 Toyah Ave,Houston,TX,77039,154900,4,2.0,Castlewood Tr A U/r,2322,7020,1971,977,67,,Sold,,,http://www.redfin.com/TX/Houston/2422-Toyah-Ave-77039/home/30185125,HARMLS,24472235,N,Y,29.9136198,-95.3475306
PAST SALE,July-27-2018,Single Family Residential,2618 Balmorhea Ave,Houston,TX,77039,110000,3,1.5,Castlewood Tr B U/r,1330,7200,1972,1040,83,,Sold,,,http://www.redfin.com/TX/Houston/2618-Balmorhea-Ave-77039/home/30185161,HARMLS,24690708,N,Y,29.9144932,-95.3448742
PAST SALE,March-11-2020,Single Family Residential,2819 Verhalen Ave,Houston,TX,77039,219000,4,3.5,Castlewood Tr C U/r,2412,19166,1966,447,91,,Sold,,,http://www.redfin.com/TX/Houston/2819-Verhalen-Ave-77039/home/30194719,HARMLS,16929466,N,Y,29.9160889,-95.3421771
PAST SALE,August-30-2019,Single Family Residential,2517 Woodgate St,Houston,TX,77039,195000,3,2.0,Castlewood Sec 03,1518,7800,2002,641,128,,Sold,,,http://www.redfin.com/TX/Houston/2517-Woodgate-St-77039/home/30199193,HARMLS,10846727,N,Y,29.912241,-95.3459776
PAST SALE,April-18-2017,Single Family Residential,2503 N Bluerock St,Houston,TX,77039,160000,3,2.0,Castlewood Sec 03,1781,15000,1966,1505,90,,Sold,,,http://www.redfin.com/TX/Houston/2503-Bluerock-St-77039/home/30199246,HARMLS,24633325,N,Y,29.910616,-95.346992
PAST SALE,May-15-2019,Single Family Residential,2810 Anice St,Houston,TX,77039,180000,3,2.0,Castlewood Sec 04,1989,9170,1997,748,90,,Sold,,,http://www.redfin.com/TX/Houston/2810-Anice-St-77039/home/30224726,HARMLS,90019036,N,Y,29.9085169,-95.3428105
PAST SALE,November-16-2018,Single Family Residential,13510 Rockshire Dr,Houston,TX,77039,154400,3,2.0,Castlewood,1217,8280,1977,928,127,,Sold,,,http://www.redfin.com/TX/Houston/13510-Rockshire-Dr-77039/home/30224742,HARMLS,70562407,N,Y,29.9101651,-95.341605
PAST SALE,September-30-2020,Single Family Residential,12326 Russ Dr,Houston,TX,77039,130000,3,1.5,High Meadows,1319,6240,1973,244,99,,Sold,,,http://www.redfin.com/TX/Houston/12326-Russ-Dr-77039/home/30278705,HARMLS,26828531,N,Y,29.9033694,-95.3481028
PAST SALE,March-23-2020,Single Family Residential,12302 Swinbrook Ln,Houston,TX,77039,160000,3,2.0,High Meadows Sec 08,1032,9006,1973,435,155,,Sold,,,http://www.redfin.com/TX/Houston/12302-Swinbrook-Ln-77039/home/30278750,HARMLS,74425221,N,Y,29.9035723,-95.3464272
PAST SALE,March-9-2018,Single Family Residential,3706 Verhalen Ave,Houston,TX,77039,119900,3,2.0,Fairgreen Sec 05,1505,6552,1983,1180,80,17,Sold,,,http://www.redfin.com/TX/Houston/3706-Verhalen-Ave-77039/home/30405306,HARMLS,72181354,N,Y,29.9154438,-95.3358435
PAST SALE,January-25-2021,Single Family Residential,3706 Toyah Ave,Houston,TX,77039,180000,6,4.0,Fairgreen Sec 05,2506,6656,1979,127,72,13,Sold,,,http://www.redfin.com/TX/Houston/3706-Toyah-Ave-77039/home/30405375,HARMLS,93975490,N,Y,29.9140238,-95.3358639
PAST SALE,October-25-2019,Single Family Residential,13602 Long Glen Dr,Houston,TX,77039,139900,3,2.0,Fairgreen Sec 05,1436,6448,1979,585,97,,Sold,,,http://www.redfin.com/TX/Houston/13602-Long-Glen-Dr-77039/home/30405407,HARMLS,21357820,N,Y,29.914351,-95.3327791
PAST SALE,May-4-2021,Single Family Residential,3910 Lochmire Ln,Houston,TX,77039,185000,3,2.0,Fairgreen Sec 05,1976,6448,1981,28,94,25,Sold,,,http://www.redfin.com/TX/Houston/3910-Lochmire-Ln-77039/home/30405476,HARMLS,10109422,N,Y,29.9133373,-95.3344543
PAST SALE,June-27-2019,Single Family Residential,4106 Lochmire Ln,Houston,TX,77039,135000,3,2.0,Fairgreen,1436,6448,1981,705,94,,Sold,,,http://www.redfin.com/TX/Houston/4106-Lochmire-Ln-77039/home/30405479,HARMLS,50031174,N,Y,29.9133318,-95.3334737
PAST SALE,August-25-2020,Single Family Residential,5541 Etheline Dr,Houston,TX,77039,162000,3,2.0,Kenwood Place,1566,26250,1980,280,103,,Sold,,,http://www.redfin.com/TX/Houston/5541-Etheline-St-77039/home/29954696,HARMLS,36632655,N,Y,29.9097165,-95.3068811
PAST SALE,November-1-2019,Townhouse,12423 W Village Dr Unit A,Houston,TX,77039,83000,2,2.5,Pine Village North T/h Sec 01,1320,2671,1979,578,63,167,Sold,,,http://www.redfin.com/TX/Houston/12423-W-Village-Dr-77039/unit-A/home/30304668,HARMLS,89130067,N,Y,29.9056176,-95.3073772
PAST SALE,October-1-2018,Townhouse,12451 W Village Dr Unit D,Houston,TX,77039,65000,2,1.5,Pine Village North,1410,1953,1979,974,46,166,Sold,,,http://www.redfin.com/TX/Houston/12451-W-Village-Dr-77039/unit-D/home/30304684,HARMLS,58018845,N,Y,29.905164,-95.307166
PAST SALE,January-31-2020,Townhouse,12311 W Village Dr Unit A,Houston,TX,77039,35000,2,2.0,Pine Village North T/h Sec 01,1256,2472,1979,487,28,167,Sold,,,http://www.redfin.com/TX/Houston/12311-W-Village-Dr-77039/unit-A/home/30304719,HARMLS,56442692,N,Y,29.905164,-95.307166
PAST SALE,March-6-2020,Townhouse,12239 Wild Pine Dr Unit B,Houston,TX,77039,67000,3,2.5,Pine Village North T/h Sec 03a,1560,1800,1979,452,43,175,Sold,,,http://www.redfin.com/TX/Houston/12239-Wild-Pine-Dr-77039/unit-B/home/30304841,HARMLS,32312318,N,Y,29.9025842,-95.3038755
PAST SALE,September-15-2020,Townhouse,12203 Wild Pine Dr Unit A,Houston,TX,77039,75000,3,2.5,Pine Village North T/h Sec 03a,1876,1685,1979,259,40,168,Sold,,,http://www.redfin.com/TX/Houston/12203-Wild-Pine-Dr-77039/unit-A/home/30304884,HARMLS,75829324,N,Y,29.9021726,-95.3053897
PAST SALE,September-25-2020,Townhouse,12231 W Village Dr Unit A,Houston,TX,77039,79999,2,2.0,Pine Village North T/h Sec 02,1659,2654,1979,249,48,168,Sold,,,http://www.redfin.com/TX/Houston/12231-W-Village-Dr-77039/unit-A/home/30304900,HARMLS,10332798,N,Y,29.9026496,-95.3072691
PAST SALE,May-24-2019,Townhouse,5747 Easthampton Dr Unit A,Houston,TX,77039,49900,2,1.5,Pine Village North T/h Sec 03a,1511,2425,1979,739,33,168,Sold,,,http://www.redfin.com/TX/Houston/5747-Easthampton-Dr-77039/unit-A/home/30304930,HARMLS,16874600,N,Y,29.902172,-95.3053769
PAST SALE,October-31-2019,Townhouse,12242 Wild Pine Dr Unit B,Houston,TX,77039,55000,3,2.5,Pine Village North T/h Sec 04a,1516,1800,1979,579,36,168,Sold,,,http://www.redfin.com/TX/Houston/12242-Wild-Pine-Dr-77039/unit-B/home/30304958,HARMLS,10240195,N,Y,29.902319,-95.303067
PAST SALE,May-17-2019,Townhouse,12234 Wild Pine Dr Unit B,Houston,TX,77039,64900,2,2.0,Pine Village North T/h Sec 04a,1069,2086,1979,746,61,167,Sold,,,http://www.redfin.com/TX/Houston/12234-Wild-Pine-Dr-77039/unit-B/home/30304976,HARMLS,44336826,N,Y,29.9025181,-95.3029974
PAST SALE,August-20-2019,Townhouse,5731 Easthampton Dr Unit A,Houston,TX,77039,40000,3,2.0,Pine Village North T/h,1623,1774,1979,651,25,167,Sold,,,http://www.redfin.com/TX/Houston/5731-Easthampton-Dr-77039/unit-A/home/30305020,HARMLS,18793088,N,Y,29.902172,-95.3053769
PAST SALE,March-12-2019,Townhouse,5703 Easthampton Dr Unit D,Houston,TX,77039,65000,3,2.0,Pine Village North T/h Sec 03a,1698,2156,1979,812,38,170,Sold,,,http://www.redfin.com/TX/Houston/5703-Easthampton-Dr-77039/unit-D/home/30305026,HARMLS,57409103,N,Y,29.902172,-95.3053769
PAST SALE,May-7-2020,Townhouse,12202 Wild Pine Dr Unit B,Houston,TX,77039,64500,3,2.5,Pine Village North T/h Sec 04a,1544,1533,1979,390,42,168,Sold,,,http://www.redfin.com/TX/Houston/12202-Wild-Pine-Dr-77039/unit-B/home/30305075,HARMLS,70268118,N,Y,29.902319,-95.303067
PAST SALE,September-8-2020,Townhouse,12306 Wild Pine Dr Unit C,Houston,TX,77039,59500,2,2.5,Pine Village North,936,1387,1979,266,64,168,Sold,,,http://www.redfin.com/TX/Houston/12306-Wild-Pine-Dr-77039/unit-C/home/30305092,HARMLS,49698852,N,Y,29.902319,-95.303067
PAST SALE,September-8-2020,Townhouse,12306 Wild Pine Dr Unit A,Houston,TX,77039,59500,2,2.5,Pine Village North,1196,1238,1979,266,50,168,Sold,,,http://www.redfin.com/TX/Houston/12306-Wild-Pine-Dr-77039/unit-A/home/30305086,HARMLS,37988104,N,Y,29.902319,-95.303067
PAST SALE,May-15-2020,Townhouse,12330 Wild Pine Dr Unit D,Houston,TX,77039,57000,2,2.5,Pine Village North T/h Sec 04a,1196,1238,1979,382,48,167,Sold,,,http://www.redfin.com/TX/Houston/12330-Wild-Pine-Dr-77039/unit-D/home/30305100,HARMLS,49307751,N,Y,29.902319,-95.303067
PAST SALE,March-20-2020,Townhouse,12326 Wild Pine Dr Unit B,Houston,TX,77039,79999,2,1.5,Pine Village North T/h Sec 04a,1273,1697,1979,438,63,168,Sold,,,http://www.redfin.com/TX/Houston/12326-Wild-Pine-Dr-77039/unit-B/home/30305107,HARMLS,89518163,N,Y,29.9031719,-95.3024905
PAST SALE,November-21-2019,Townhouse,5610 Easthampton Dr Unit C,Houston,TX,77039,49500,2,2.0,Pine Village North T/h Sec 03,1623,2113,1979,558,30,167,Sold,,,http://www.redfin.com/TX/Houston/5610-Easthampton-Dr-77039/unit-C/home/30305506,HARMLS,56991516,N,Y,29.90096,-95.306478
PAST SALE,May-23-2019,Single Family Residential,4807 Bethany Ln,Houston,TX,77039,146500,3,1.0,Eastex Fwy Forest Sec 03,1047,6692,1955,740,140,,Sold,,,http://www.redfin.com/TX/Houston/4807-Bethany-Ln-77039/home/30152062,HARMLS,11617997,N,Y,29.900165,-95.3203188
PAST SALE,June-22-2020,Single Family Residential,11818 Plum Meadow Ln,Houston,TX,77039,150000,3,1.5,High Meadows Sec 01,1052,5928,1964,344,143,,Sold,,,http://www.redfin.com/TX/Houston/11818-Plum-Meadow-Ln-77039/home/30152677,HARMLS,42528685,N,Y,29.8950873,-95.333392
PAST SALE,February-21-2019,Single Family Residential,3806 Orange Grove Dr,Houston,TX,77039,99900,3,1.5,High Meadows Sec 01,1295,6099,1961,831,77,,Sold,,,http://www.redfin.com/TX/Houston/3806-Orange-Grove-Dr-77039/home/30152699,HARMLS,59989363,N,Y,29.8943922,-95.3349854
PAST SALE,August-28-2018,Single Family Residential,4815 Winfield Rd,Houston,TX,77039,95000,3,2.0,Eastex Fwy Forest Sec 04,1696,13200,1968,1008,56,,Sold,,,http://www.redfin.com/TX/Houston/4815-Winfield-Rd-77039/home/30156026,HARMLS,37849403,N,Y,29.899447,-95.3196857
PAST SALE,February-28-2019,Single Family Residential,3714 Pear Meadow Ln,Houston,TX,77039,95000,3,1.5,High Meadows,1277,6588,1966,824,74,,Sold,,,http://www.redfin.com/TX/Houston/3714-Pear-Meadow-Ln-77039/home/30189336,HARMLS,90717666,N,Y,29.8966787,-95.3352715
PAST SALE,July-31-2018,Single Family Residential,11910 Plum Meadow Ln,Houston,TX,77039,85000,3,1.5,High Meadows Sec 02,978,6955,1965,1036,87,,Sold,,,http://www.redfin.com/TX/Houston/11910-Plum-Meadow-Ln-77039/home/30189390,HARMLS,31709080,N,Y,29.8974271,-95.3334737
PAST SALE,June-30-2020,Single Family Residential,3715 Pear Meadow Ln,Houston,TX,77039,165900,3,2.0,High Meadows,1455,7020,1966,336,114,,Sold,,,http://www.redfin.com/TX/Houston/3715-Pear-Meadow-Ln-77039/home/30189539,HARMLS,5926771,N,Y,29.8971059,-95.3352919
PAST SALE,December-20-2019,Single Family Residential,3607 Pear Meadow Ln,Houston,TX,77039,175000,4,2.5,High Meadows Sec 02,1468,6634,1966,529,119,,Sold,,,http://www.redfin.com/TX/Houston/3607-Pear-Meadow-Ln-77039/home/30189549,HARMLS,35733237,N,Y,29.896988,-95.3365381
PAST SALE,January-26-2019,Single Family Residential,3706 Sandy Meadow Ln,Houston,TX,77039,139900,3,1.5,High Meadows Sec 02,1249,7020,1966,857,112,,Sold,,,http://www.redfin.com/TX/Houston/3706-Sandy-Meadow-Ln-77039/home/30189556,HARMLS,43471551,N,Y,29.89744,-95.3359456
PAST SALE,April-30-2019,Single Family Residential,3607 Sandy Meadow Ln,Houston,TX,77039,155900,3,2.0,High Meadows Sec 02,1400,6588,1965,763,111,,Sold,,,http://www.redfin.com/TX/Houston/3607-Sandy-Meadow-Ln-77039/home/30189627,HARMLS,34178009,N,Y,29.8976958,-95.336865
PAST SALE,September-29-2020,Single Family Residential,11814 Fall Meadow Ln,Houston,TX,77039,165000,4,2.0,High Meadows Sec 03,1278,6615,1968,245,129,,Sold,,,http://www.redfin.com/TX/Houston/11814-Fall-Meadow-Ln-77039/home/30216863,HARMLS,86345071,N,Y,29.895007,-95.3398479
PAST SALE,December-19-2019,Single Family Residential,3510 Pine Meadow Ln,Houston,TX,77039,165000,3,2.5,High Meadows Sec 03,1726,6488,1968,530,96,,Sold,,,http://www.redfin.com/TX/Houston/3510-Pine-Meadow-Ln-77039/home/30216869,HARMLS,14294510,N,Y,29.8950551,-95.3392145
PAST SALE,December-31-2018,Single Family Residential,3523 Blue Meadow Ln,Houston,TX,77039,139900,4,1.5,High Meadows Sec 03,1114,8094,1967,883,126,,Sold,,,http://www.redfin.com/TX/Houston/3523-Blue-Meadow-Ln-77039/home/30216923,HARMLS,62288731,N,Y,29.89766,-95.3388672
PAST SALE,August-28-2020,Single Family Residential,11946 Shady Meadow St,Houston,TX,77039,139000,3,1.5,High Meadows Sec 03,1309,7891,1967,277,106,,Sold,,,http://www.redfin.com/TX/Houston/11946-Shady-Meadow-St-77039/home/30216961,HARMLS,46627928,N,Y,29.8984474,-95.338336
PAST SALE,August-18-2020,Single Family Residential,3714 Beau Ln,Houston,TX,77039,219000,5,2.5,High Meadows Sec 04,2614,6820,1968,287,84,,Sold,,,http://www.redfin.com/TX/Houston/3714-Beau-Ln-77039/home/30223604,HARMLS,37240113,N,Y,29.8998896,-95.335537
PAST SALE,May-18-2018,Single Family Residential,3602 Marquita Ln,Houston,TX,77039,110000,3,1.5,High Meadows Sec 04,958,6820,1968,1110,115,,Sold,,,http://www.redfin.com/TX/Houston/3602-Marquita-Ln-77039/home/30223620,HARMLS,77915527,N,Y,29.9006185,-95.3381317
PAST SALE,November-28-2018,Single Family Residential,13221 Chrisman Rd,Houston,TX,77039,499000,4,2.0,Aldine Gardens,1892,139562,1955,916,264,,Sold,,,http://www.redfin.com/TX/Houston/13221-Chrisman-Rd-77039/home/146532542,HARMLS,44553797,N,Y,29.9056704,-95.3641459
PAST SALE,May-1-2020,Single Family Residential,12535 Chrisman Rd,Houston,TX,77039,299900,3,3.0,Hahl Sites,2368,15000,1970,396,127,,Sold,,,http://www.redfin.com/TX/Houston/12535-Chrisman-Rd-77039/home/147775529,HARMLS,95894908,N,Y,29.8971265,-95.3637371
PAST SALE,December-13-2018,Single Family Residential,13213 Chrisman Rd,Houston,TX,77039,74900,3,2.0,Aldine Gardens Sec 01,1418,11630,1974,901,53,,Sold,,,http://www.redfin.com/TX/Houston/13213-Chrisman-Rd-77039/home/29647731,HARMLS,10664747,N,Y,29.9047159,-95.3637985
PAST SALE,April-29-2020,Vacant Land,"13181/2, 1324 Aldine Mail Route Rd",Houston,TX,77039,340000,,,Aldine Gardens,,43420,,398,,,Sold,,,http://www.redfin.com/TX/Houston/1324-Aldine-Mail-Rte-Rd-77039/home/29647778,HARMLS,86256688,N,Y,29.9020465,-95.3662922
PAST SALE,November-6-2020,Single Family Residential,1501 Connorvale Rd,Houston,TX,77039,189900,3,1.0,Magnolia Gardens,1680,17931,1945,207,113,,Sold,,,http://www.redfin.com/TX/Houston/1501-Connorvale-Rd-77039/home/29716066,HARMLS,72046018,N,Y,29.9098269,-95.3633079
PAST SALE,January-14-2020,Single Family Residential,1546 Erwin Rd,Houston,TX,77039,410000,5,4.0,Hahl Site,3034,137214,1970,504,135,,Sold,,,http://www.redfin.com/TX/Houston/1546-Erwin-Rd-77039/home/29939603,HARMLS,68941753,N,Y,29.8933787,-95.3650453
PAST SALE,April-6-2020,Single Family Residential,1618 Charriton Dr,Houston,TX,77039,66500,3,1.0,Western Homes Sec 01 R/p,1360,7575,1963,421,49,,Sold,,,http://www.redfin.com/TX/Houston/1618-Charriton-Dr-77039/home/30135170,HARMLS,72041623,N,Y,29.9049955,-95.3607939
PAST SALE,February-28-2020,Single Family Residential,13413 Champaign St,Houston,TX,77039,144900,3,2.0,Mackey,1452,8001,1960,459,100,,Sold,,,http://www.redfin.com/TX/Houston/13413-Champaign-St-77039/home/30149408,HARMLS,28340469,N,Y,29.9088572,-95.3627765
PAST SALE,April-24-2020,Single Family Residential,12903 Slater Ln,Houston,TX,77039,190000,4,3.0,Slater Park,1794,14175,1965,403,106,,Sold,,,http://www.redfin.com/TX/Houston/12903-Slater-Ln-77039/home/30208990,HARMLS,77156852,N,Y,29.9005561,-95.3652701
PAST SALE,,Single Family Residential,1203 Balmorhea Ave,Houston,TX,77039,67000,3,2.0,,1348,7446,1973,,50,,,,,http://www.redfin.com/TX/Houston/1203-Balmorhea-Ave-77039/home/30300428,,,N,Y,29.9149704,-95.3675595
PAST SALE,July-20-2018,Single Family Residential,1231 Verhalen Ave,Houston,TX,77039,104900,3,2.0,Aldine Forest R/p,1293,7072,1973,1047,81,,Sold,,,http://www.redfin.com/TX/Houston/1231-Verhalen-Ave-77039/home/30300460,HARMLS,45074334,N,Y,29.9156826,-95.3661082
PAST SALE,September-30-2019,Single Family Residential,1827A Isom St,Houston,TX,77039,235900,4,2.5,Magnolia Gardens,3738,25161,1990,610,63,,Sold,,,http://www.redfin.com/TX/Houston/1827A-Isom-St-77039/home/146161571,HARMLS,5148163,N,Y,29.899871,-95.357434
PAST SALE,April-29-2019,Vacant Land,1807 Charriton Dr,Houston,TX,77039,55000,,,Western Homes Sec 01 R/p,,6969,,764,,,Sold,,,http://www.redfin.com/TX/Houston/1807-Charriton-Dr-77039/home/147784604,HARMLS,35068349,N,Y,29.905444,-95.357655
PAST SALE,November-9-2018,Single Family Residential,2118 Ladin Dr,Houston,TX,77039,78000,3,1.0,Magnolia Gardens,1008,11400,1960,935,77,,Sold,,,http://www.redfin.com/TX/Houston/2118-Ladin-Dr-77039/home/29716003,HARMLS,29319148,N,Y,29.906867,-95.3529663
PAST SALE,July-27-2020,Single Family Residential,1827 Isom St,Houston,TX,77039,205000,3,2.0,Magnolia Gardens,1914,12371,2008,309,107,,Sold,,,http://www.redfin.com/TX/Houston/1827A-Isom-St-77039/home/29716206,HARMLS,58354200,N,Y,29.8998832,-95.3574216
PAST SALE,April-9-2019,Single Family Residential,2101 Maximilian St,Houston,TX,77039,98500,3,1.0,Aldine Place Sec 02,1012,23400,1950,784,97,,Sold,,,http://www.redfin.com/TX/Houston/2101-Maximilian-St-77039/home/30064758,HARMLS,12230114,N,Y,29.9243672,-95.3535794
PAST SALE,December-23-2019,Single Family Residential,13023 Robertcrest St,Houston,TX,77039,65000,3,1.0,Western Homes Sec 01 R/p,1380,10800,1961,526,47,,Sold,,,http://www.redfin.com/TX/Houston/13023-Robertcrest-St-77039/home/30135234,HARMLS,22523195,N,Y,29.9034424,-95.3568698
PAST SALE,June-21-2019,Single Family Residential,1926 Debeney Dr,Houston,TX,77039,167000,3,1.0,Western Homes Sec 01 R/p,1380,10800,1959,711,121,,Sold,,,http://www.redfin.com/TX/Houston/1926-Debeney-Dr-77039/home/30135238,HARMLS,86938350,N,Y,29.9041545,-95.3554187
PAST SALE,October-2-2019,Single Family Residential,4731 Otterbury Dr,Houston,TX,77039,85300,3,2.0,Eastex Fwy Forest,1399,6600,1962,608,61,,Sold,,,http://www.redfin.com/TX/Houston/4731-Otterbury-Dr-77039/home/30148027,HARMLS,88177516,N,Y,29.9046461,-95.3209316
PAST SALE,March-23-2020,Single Family Residential,12339 Boreas Dr,Houston,TX,77039,159900,3,2.0,Eastex Fwy Forest Sec 01,1408,6600,1962,435,114,,Sold,,,http://www.redfin.com/TX/Houston/12339-Boreas-Dr-77039/home/30148050,HARMLS,32470611,N,Y,29.9042583,-95.322729
PAST SALE,September-11-2019,Single Family Residential,4806 Debeney Dr,Houston,TX,77039,146000,3,1.0,Eastex Fwy Forest Sec 02,1700,6600,1961,629,86,,Sold,,,http://www.redfin.com/TX/Houston/4806-Debeney-Dr-77039/home/30150558,HARMLS,10800043,N,Y,29.9049829,-95.3204005
PAST SALE,April-9-2020,Single Family Residential,4707 Hollybrook Ln,Houston,TX,77039,169000,4,2.0,Eastex Fwy Forest Sec 02,1890,6900,1962,418,89,,Sold,,,http://www.redfin.com/TX/Houston/4707-Hollybrook-Ln-77039/home/30150686,HARMLS,43463546,N,Y,29.908465,-95.3223205
PAST SALE,May-29-2020,Single Family Residential,5222 Charriton Dr,Houston,TX,77039,143000,4,1.5,Fairgreen Sec 01 R/p,1670,8050,1967,368,86,,Sold,,,http://www.redfin.com/TX/Houston/5222-Charriton-Dr-77039/home/30211766,HARMLS,3218950,N,Y,29.9058127,-95.3132116
PAST SALE,January-31-2019,Single Family Residential,12402 Countrywood Ln,Houston,TX,77039,149900,3,1.5,Fairgreen Sec 01 R/p,1449,7475,1967,852,103,,Sold,,,http://www.redfin.com/TX/Houston/12402-Countrywood-Ln-77039/home/30211884,HARMLS,74236301,N,Y,29.9045925,-95.3127419
PAST SALE,July-30-2020,Single Family Residential,4926 Sandydale Ln,Houston,TX,77039,169900,3,2.0,Fairgreen 2,1100,8808,1968,306,154,,Sold,,,http://www.redfin.com/TX/Houston/4926-Sandydale-Ln-77039/home/30219763,HARMLS,24298251,N,Y,29.9064979,-95.3174595
PAST SALE,January-11-2019,Single Family Residential,5215 Sandydale Ln,Houston,TX,77039,110000,3,2.0,Fairgreen Sec 02,1210,7872,1967,872,91,,Sold,,,http://www.redfin.com/TX/Houston/5215-Sandydale-Ln-77039/home/30219806,HARMLS,57969047,N,Y,29.9078222,-95.3136608
PAST SALE,December-11-2019,Single Family Residential,12702 Blue Haven Rd,Houston,TX,77039,143000,3,2.0,Fairgreen Sec 02,1212,6823,1968,538,118,,Sold,,,http://www.redfin.com/TX/Houston/12702-Blue-Haven-Rd-77039/home/30219785,HARMLS,35984683,N,Y,29.9065107,-95.3165813
PAST SALE,May-13-2019,Single Family Residential,4735 Connorvale Rd,Houston,TX,77039,155995,4,2.0,Fairgreen Sec 03,1684,8248,1971,750,93,,Sold,,,http://www.redfin.com/TX/Houston/4735-Connorvale-Rd-77039/home/30232019,HARMLS,73222924,N,Y,29.9101748,-95.3212584
PAST SALE,August-20-2019,Single Family Residential,5123 Cicada Ln,Houston,TX,77039,159000,3,2.0,Fairgreen Sec 03,2078,8375,1969,651,77,,Sold,,,http://www.redfin.com/TX/Houston/5123-Cicada-Ln-77039/home/30232203,HARMLS,54860171,N,Y,29.9086425,-95.3151108
PAST SALE,November-5-2019,Single Family Residential,12910 Blue Haven Rd,Houston,TX,77039,169900,3,2.0,Fairgreen Sec 03,1405,8531,1969,574,121,,Sold,,,http://www.redfin.com/TX/Houston/12910-Blue-Haven-Rd-77039/home/30232263,HARMLS,42102301,N,Y,29.9091684,-95.3182764
PAST SALE,May-27-2020,Single Family Residential,5122 Hollybrook Ln,Houston,TX,77039,159900,4,2.0,Fairgreen Sec 03,1872,8375,1969,370,85,,Sold,,,http://www.redfin.com/TX/Houston/5122-Hollybrook-Ln-77039/home/30232298,HARMLS,25524451,N,Y,29.9090246,-95.3151313
PAST SALE,August-27-2018,Single Family Residential,4803 Anice St,Houston,TX,77039,107500,5,2.0,Fairgreen Sec 03,2624,7370,1970,1009,41,,Sold,,,http://www.redfin.com/TX/Houston/4803-Anice-St-77039/home/30232283,HARMLS,33103011,N,Y,29.9093082,-95.3204005
PAST SALE,January-14-2019,Single Family Residential,4523 Cicada Ln,Houston,TX,77039,149900,3,1.5,High Meadows Sec 05,1320,6448,1970,869,114,,Sold,,,http://www.redfin.com/TX/Houston/4523-Cicada-Ln-77039/home/30239584,HARMLS,51382140,N,Y,29.9075236,-95.3277947
PAST SALE,March-6-2019,Vacant Land,4403 Cicada Ln,Houston,TX,77039,58000,,,High Meadows Sec 05,,6968,,818,,,Sold,,,http://www.redfin.com/TX/Houston/4403-Cicada-Ln-77039/home/30239599,HARMLS,43660385,N,Y,29.9075701,-95.3305524
PAST SALE,November-6-2020,Single Family Residential,4527 Otterbury Dr,Houston,TX,77039,154500,4,1.5,High Meadows Sec 05,2338,6552,1969,207,66,,Sold,,,http://www.redfin.com/TX/Houston/4527-Otterbury-Dr-77039/home/30239762,HARMLS,84612595,N,Y,29.9043509,-95.327141
PAST SALE,April-12-2019,Single Family Residential,4403 Charriton Dr,Houston,TX,77039,159900,3,1.5,High Meadows Sec 05,1470,6656,1970,781,109,,Sold,,,http://www.redfin.com/TX/Houston/4403-Charriton-Dr-77039/home/30239882,HARMLS,85941589,N,Y,29.9057275,-95.3298783
PAST SALE,November-26-2019,Single Family Residential,4414 Debeney Dr,Houston,TX,77039,167900,3,2.0,High Meadows Sec 05,1563,6448,1969,553,107,,Sold,,,http://www.redfin.com/TX/Houston/4414-Debeney-Dr-77039/home/30239896,HARMLS,53914509,N,Y,29.9046241,-95.3293063
PAST SALE,July-8-2020,Single Family Residential,4431 Debeney Dr,Houston,TX,77039,155000,3,1.5,High Meadows,1338,6448,1969,328,116,,Sold,,,http://www.redfin.com/TX/Houston/4431-Debeney-Dr-77039/home/30239908,HARMLS,66708426,N,Y,29.9050159,-95.32853
PAST SALE,October-30-2020,Single Family Residential,4431 Hollybrook Ln,Houston,TX,77039,215000,3,2.0,High Meadows,,6448,,214,,,Sold,,,http://www.redfin.com/TX/Houston/4431-Hollybrook-Ln-77039/home/30248505,HARMLS,24556922,N,Y,29.908307,-95.329188
PAST SALE,January-11-2019,Single Family Residential,13115 Plum Meadow Ln,Houston,TX,77039,145000,4,2.0,High Meadows Sec 06,1470,6840,1971,872,99,,Sold,,,http://www.redfin.com/TX/Houston/13115-Plum-Meadow-Ln-77039/home/30248654,HARMLS,63728710,N,Y,29.9101347,-95.3334328
PAST SALE,July-22-2019,Single Family Residential,13011 Reality Rd,Houston,TX,77039,164990,3,1.5,High Meadows Sec 06,1468,7296,1970,680,112,,Sold,,,http://www.redfin.com/TX/Houston/13011-Reality-Rd-77039/home/30248790,HARMLS,919866,N,Y,29.9091723,-95.3310427
PAST SALE,October-18-2019,Single Family Residential,4226 Sandydale Ln,Houston,TX,77039,159900,3,1.5,High Meadows,1424,11239,1971,592,112,,Sold,,,http://www.redfin.com/TX/Houston/4226-Sandydale-Ln-77039/home/30249037,HARMLS,76722948,N,Y,29.9064127,-95.3318802
PAST SALE,June-29-2020,Single Family Residential,4646 Cicada Ln,Houston,TX,77039,179900,3,2.0,Fairgreen Sec 04,1758,7904,1971,337,102,,Sold,,,http://www.redfin.com/TX/Houston/4646-Cicada-Ln-77039/home/30261509,HARMLS,71514923,N,Y,29.9072261,-95.3239953
PAST SALE,December-10-2018,Single Family Residential,4638 Hollybrook Ln,Houston,TX,77039,135000,3,2.0,Fairgreen Sec 04,1289,6760,1971,904,105,,Sold,,,http://www.redfin.com/TX/Houston/4638-Hollybrook-Ln-77039/home/30261534,HARMLS,81953885,N,Y,29.9079756,-95.3244039
PAST SALE,April-30-2019,Single Family Residential,4643 Hollybrook Ln,Houston,TX,77039,149000,5,3.0,Fairgreen Sec 04,2547,6760,1972,763,59,,Sold,,,http://www.redfin.com/TX/Houston/4643-Hollybrook-Ln-77039/home/30261542,HARMLS,44685598,N,Y,29.9083676,-95.3241792
PAST SALE,July-26-2019,Single Family Residential,4638 Connorvale Rd,Houston,TX,77039,165000,4,2.5,Fairgreen Sec 04,1639,6760,1970,676,101,,Sold,,,http://www.redfin.com/TX/Houston/4638-Connorvale-Rd-77039/home/30261580,HARMLS,4057179,N,Y,29.9093707,-95.3244447
PAST SALE,August-23-2019,Single Family Residential,13111 Vickery St,Houston,TX,77039,169900,4,2.0,Fairgreen Sec 04,1686,7440,1972,648,101,,Sold,,,http://www.redfin.com/TX/Houston/13111-Vickery-St-77039/home/30261633,HARMLS,8870523,N,Y,29.9101498,-95.3241179
PAST SALE,October-30-2018,Single Family Residential,4631 Ouachita St,Houston,TX,77039,118000,3,2.0,Fairgreen Sec 04,1318,7175,1972,945,90,,Sold,,,http://www.redfin.com/TX/Houston/4631-Quachita-St-77039/home/30261625,HARMLS,5331267,N,Y,29.910569,-95.3248941
PAST SALE,September-22-2020,Single Family Residential,4639 Ouachita St,Houston,TX,77039,167900,3,2.0,Fairgreen Sec 04,1338,8318,1972,252,125,,Sold,,,http://www.redfin.com/TX/Houston/4639-Quachita-St-77039/home/30261627,HARMLS,19798664,N,Y,29.9103602,-95.3244856
PAST SALE,November-9-2018,Single Family Residential,4603 Sandydale Ln,Houston,TX,77039,175000,3,2.0,Fairgreen,1782,14656,1971,935,98,,Sold,,,http://www.redfin.com/TX/Houston/4603-Sandydale-Ln-77039/home/30261918,HARMLS,65795717,N,Y,29.9068202,-95.3262422
PAST SALE,June-1-2020,Single Family Residential,4611 Sandydale Ln,Houston,TX,77039,159900,3,2.0,Fairgreen Sec 04,1289,6760,1971,365,124,,Sold,,,http://www.redfin.com/TX/Houston/4611-Sandydale-Ln-77039/home/30261920,HARMLS,28278418,N,Y,29.90686,-95.3258133
PAST SALE,November-1-2019,Single Family Residential,3802 Charriton Dr,Houston,TX,77039,99900,4,2.0,High Meadows Sec 07,1136,6448,1971,578,88,,Sold,,,http://www.redfin.com/TX/Houston/3802-Charriton-Dr-77039/home/30263443,HARMLS,21126789,N,Y,29.9047374,-95.3354349
PAST SALE,February-21-2020,Single Family Residential,3903 Otterbury Dr,Houston,TX,77039,129999,3,1.5,High Meadows,1030,6136,1970,466,126,,Sold,,,http://www.redfin.com/TX/Houston/3903-Otterbury-Dr-77039/home/30263482,HARMLS,25075048,N,Y,29.903634,-95.3348629
PAST SALE,March-16-2020,Single Family Residential,3511 Woodgate St,Houston,TX,77039,154900,3,2.0,High Meadows Sec 10,1493,7384,1977,442,104,,Sold,,,http://www.redfin.com/TX/Houston/3511-Woodgate-St-77039/home/30333045,HARMLS,20069194,N,Y,29.9114334,-95.3380908
PAST SALE,August-14-2019,Single Family Residential,3606 Bluerock St,Houston,TX,77039,169900,3,1.5,High Meadows Sec 10,1381,6448,1976,657,123,,Sold,,,http://www.redfin.com/TX/Houston/3606-Bluerock-St-77039/home/30333098,HARMLS,13167643,N,Y,29.909556,-95.337165
PAST SALE,October-5-2018,Single Family Residential,3803 Cicada Ln,Houston,TX,77039,135000,4,2.0,High Meadows Sec 10,1410,6804,1975,970,96,,Sold,,,http://www.redfin.com/TX/Houston/3803-Cicada-Ln-77039/home/30333213,HARMLS,62625367,N,Y,29.9070236,-95.3357209
PAST SALE,July-10-2020,Single Family Residential,3607 Balmorhea Ave,Houston,TX,77039,164900,3,1.5,Fairgreen Sec 05,1503,6552,1980,326,110,13,Sold,,,http://www.redfin.com/TX/Houston/3607-Balmorhea-Ave-77039/home/30405308,HARMLS,98258655,N,Y,29.9151487,-95.3364564
PAST SALE,February-28-2020,Single Family Residential,3603 Toyah Ave,Houston,TX,77039,179900,3,2.0,Fairgreen Sec 05,2039,9158,1980,459,88,36,Sold,,,http://www.redfin.com/TX/Houston/3603-Toyah-Ave-77039/home/30405345,HARMLS,31516012,N,Y,29.9144213,-95.3366198
PAST SALE,June-29-2020,Single Family Residential,3606 Balmorhea Ave,Houston,TX,77039,139000,3,2.0,Fairgreen Sec 05,1282,6448,1980,337,108,13,Sold,,,http://www.redfin.com/TX/Houston/3606-Balmorhea-Ave-77039/home/30405347,HARMLS,44915744,N,Y,29.9147432,-95.3364564
PAST SALE,August-28-2020,Single Family Residential,4111 Lochmire Ln,Houston,TX,77039,169900,4,2.0,Fairgreen Sec 05,1493,7072,1979,277,114,13,Sold,,,http://www.redfin.com/TX/Houston/4111-Lochmire-Ln-77039/home/30405362,HARMLS,63074117,N,Y,29.9137455,-95.3332694
PAST SALE,November-21-2018,Single Family Residential,3903 Lochmire Ln,Houston,TX,77039,131000,3,2.0,Fairgreen Sec 05,1216,6656,1980,923,108,,Sold,,,http://www.redfin.com/TX/Houston/3903-Lochmire-Ln-77039/home/30405354,HARMLS,19583723,N,Y,29.9137029,-95.3348833
PAST SALE,January-15-2019,Single Family Residential,13915 Honey Bee Ct,Houston,TX,77039,205575,5,3.0,Fairgreen Sec 05,2616,7440,2001,868,79,41,Sold,,,http://www.redfin.com/TX/Houston/13915-Honey-Bee-Ct-77039/home/30405775,HARMLS,36151476,N,Y,29.9174079,-95.336293
PAST SALE,November-6-2019,Single Family Residential,4002 Bridgedale Dr,Houston,TX,77039,145000,3,2.0,Fairgreen Sec 05,1216,6760,1984,573,119,,Sold,,,http://www.redfin.com/TX/Houston/4002-Bridgedale-Dr-77039/home/30405822,HARMLS,26883776,N,Y,29.916274,-95.33425
PAST SALE,August-7-2018,Single Family Residential,14015 Lanceoak Ct,Houston,TX,77039,207521,5,3.0,Fairgreen Sec 05,2640,7920,2001,1029,79,41,Sold,,,http://www.redfin.com/TX/Houston/14015-Lanceoak-Ct-77039/home/30405869,HARMLS,32196255,N,Y,29.9180244,-95.3344134
PAST SALE,,Single Family Residential,13705 Darjean St,Houston,TX,77039,29000,2,1.0,,960,7100,1955,,30,,,,,http://www.redfin.com/TX/Houston/13705-Darjean-St-77039/home/30005862,,,N,Y,29.9163175,-95.2995713
PAST SALE,December-22-2020,Vacant Land,2022 Connorvale Rd,Houston,TX,77039,3200000,,,Magnolia Gardens,909,1089000,1940,161,3520,,Sold,,,http://www.redfin.com/TX/Houston/2022-Connorvale-Rd-77039/home/29716118,HARMLS,81705192,N,Y,29.9092461,-95.3535691
PAST SALE,April-8-2019,Single Family Residential,14629 Maeline St,Houston,TX,77039,175000,3,2.0,Aldine Place Sec 01,1964,21031,1957,785,89,,Sold,,,http://www.redfin.com/TX/Houston/14629-Maeline-St-77039/home/30053022,HARMLS,28203105,N,Y,29.9291191,-95.3541516
PAST SALE,February-1-2019,Single Family Residential,1630 Charriton Dr,Houston,TX,77039,58000,3,1.0,Western Homes Sec 01 R/p,1400,8080,1959,851,41,,Sold,,,http://www.redfin.com/TX/Houston/1630-Charriton-Dr-77039/home/30135169,HARMLS,10682835,N,Y,29.9050052,-95.3599968
PAST SALE,December-13-2019,Single Family Residential,13006 Robertcrest St,Houston,TX,77039,165000,3,2.0,Western Homes Sec 01 R/p,1668,6780,1962,536,99,,Sold,,,http://www.redfin.com/TX/Houston/13006-Robertcrest-St-77039/home/30135243,HARMLS,81012024,N,Y,29.9027648,-95.3563588
PAST SALE,August-16-2019,Single Family Residential,1806 Charriton Dr,Houston,TX,77039,210000,3,1.0,Western Homes Sec 01 R/p,1864,6969,1965,655,113,,Sold,,,http://www.redfin.com/TX/Houston/1806-Charriton-Dr-77039/home/30135298,HARMLS,51242028,N,Y,29.9050313,-95.3576873
PAST SALE,January-29-2021,Single Family Residential,2623 Lauder Rd,Houston,TX,77039,150000,0,1.0,Castlewood Tr B U/r,1204,7020,1972,123,125,,Sold,,,http://www.redfin.com/TX/Houston/2623-Lauder-Rd-77039/home/147786156,HARMLS,62751877,N,Y,29.9133768,-95.344629
PAST SALE,,Single Family Residential,2226 Maximilian St,Houston,TX,77039,140000,4,2.0,,2042,108900,1955,,69,,,,,http://www.redfin.com/TX/Houston/2226-Maximilian-St-77039/home/29716279,,,N,Y,29.9235972,-95.3509023
PAST SALE,March-18-2021,Vacant Land,11769 Gloger St,Houston,TX,77039,90000,,,Orange Grove Britton R/p,,21259,,75,,,Sold,,,http://www.redfin.com/TX/Houston/11769-Gloger-St-77039/home/29727250,HARMLS,41540544,N,Y,29.893835,-95.3320437
PAST SALE,February-5-2021,Multi-Family (2-4 Unit),2726 Ladin Dr,Houston,TX,77039,254900,0,2.0,Holston Place,1959,38708,1965,116,130,,Sold,,,http://www.redfin.com/TX/Houston/2726-Ladin-Dr-77039/home/30132033,HARMLS,89771194,N,Y,29.9072679,-95.3408286
PAST SALE,March-30-2020,Single Family Residential,4826 Otterbury Dr,Houston,TX,77039,169900,4,1.5,Eastex Freeway Forest,1558,6600,1961,428,109,,Sold,,,http://www.redfin.com/TX/Houston/4826-Otterbury-Dr-77039/home/30147994,HARMLS,30711659,N,Y,29.9042113,-95.3194202
PAST SALE,May-29-2020,Single Family Residential,4707 Otterbury Dr,Houston,TX,77039,157490,3,2.0,Eastex Fwy Forest Sec 01,1369,6600,1962,368,115,,Sold,,,http://www.redfin.com/TX/Houston/4707-Otterbury-Dr-77039/home/30148031,HARMLS,10029263,N,Y,29.9046,-95.3220754
PAST SALE,January-28-2021,Single Family Residential,4739 Hollybrook Ln,Houston,TX,77039,140000,3,2.0,Eastex Fwy Forest Sec 02,1486,8050,1962,124,94,,Sold,,,http://www.redfin.com/TX/Houston/4739-Hollybrook-Ln-77039/home/30150678,HARMLS,10458765,N,Y,29.9084824,-95.3207682
PAST SALE,December-14-2018,Single Family Residential,4823 Beau Ln,Houston,TX,77039,114000,4,1.0,Eastex Fwy Forest Sec 03,1098,6600,1960,900,104,,Sold,,,http://www.redfin.com/TX/Houston/4823-Beau-Ln-77039/home/30151955,HARMLS,58112077,N,Y,29.9009155,-95.3195836
PAST SALE,May-23-2019,Single Family Residential,3815 Orange Grove Dr,Houston,TX,77039,95000,3,1.5,High Meadows Sec 01,1156,6042,1962,740,82,,Sold,,,http://www.redfin.com/TX/Houston/3815-Orange-Grove-Dr-77039/home/30152719,HARMLS,58742570,N,Y,29.8947925,-95.3345564
PAST SALE,November-27-2018,Single Family Residential,2423 Balmorhea Ave,Houston,TX,77039,159900,3,1.5,Castlewood Tr A U/r,1518,7200,1963,917,105,,Sold,,,http://www.redfin.com/TX/Houston/2423-Balmorhea-Ave-77039/home/30185231,HARMLS,22044281,N,Y,29.9149136,-95.3478607
PAST SALE,October-15-2018,Single Family Residential,2434 Verhalen Ave,Houston,TX,77039,150000,3,2.0,Castlewood Tr A U/r,1538,7200,1965,960,98,,Sold,,,http://www.redfin.com/TX/Houston/2434-Verhalen-Ave-77039/home/30185204,HARMLS,27077542,N,Y,29.9152502,-95.347878
PAST SALE,March-30-2021,Single Family Residential,2713 Balmorhea Ave,Houston,TX,77039,180000,3,2.0,Castlewood Tr C U/r,1504,19200,1973,63,120,,Sold,,,http://www.redfin.com/TX/Houston/2713-Balmorhea-Ave-77039/home/30194708,HARMLS,9938325,N,Y,29.914999,-95.3439058
PAST SALE,August-31-2020,Single Family Residential,2615 Woodgate St,Houston,TX,77039,164990,4,3.0,Castlewood Sec 03,2212,9800,1968,274,75,,Sold,,,http://www.redfin.com/TX/Houston/2615-Woodgate-St-77039/home/30199175,HARMLS,85887543,N,Y,29.912279,-95.3450377
PAST SALE,July-17-2020,Single Family Residential,2614 Anice St,Houston,TX,77039,109900,2,1.0,Castlewood,984,9800,1968,319,112,,Sold,,,http://www.redfin.com/TX/Houston/2614-Anice-St-77039/home/30199214,HARMLS,40761302,N,Y,29.9085346,-95.3451603
PAST SALE,October-12-2018,Single Family Residential,2507 Connorvale Rd,Houston,TX,77039,200000,3,2.0,Castlewood,1693,15000,1975,963,118,,Sold,,,http://www.redfin.com/TX/Houston/2507-Connorvale-Rd-77039/home/30199240,HARMLS,77174283,N,Y,29.9097899,-95.3464272
