SALE TYPE,SOLD DATE,PROPERTY TYPE,ADDRESS,CITY,STATE OR PROVINCE,ZIP OR POSTAL CODE,PRICE,BEDS,BATHS,LOCATION,SQUARE FEET,LOT SIZE,YEAR BUILT,DAYS ON MARKET,$/SQUARE FEET,HOA/MONTH,STATUS,NEXT OPEN HOUSE START TIME,NEXT OPEN HOUSE END TIME,URL (SEE http://www.redfin.com/buy-a-home/comparative-market-analysis FOR INFO ON PRICING),SOURCE,MLS#,FAVORITE,INTERESTED,LATITUDE,LONGITUDE
PAST SALE,May-24-2021,Single Family Residential,13007 Porter Meadow Ln,Houston,TX,77014,269000,4,2.5,Silverglen North Sec 01,2928,6600,2003,8,92,48,Sold,,,http://www.redfin.com/TX/Houston/13007-Porter-Meadow-Ln-77014/home/29230835,HARMLS,36778163,N,Y,29.9747172,-95.4614198
PAST SALE,September-18-2020,Single Family Residential,1746 Bonnyton Ln,Houston,TX,77014,194900,4,2.5,Glen Abbey,1859,4400,2010,256,105,33,Sold,,,http://www.redfin.com/TX/Houston/1746-Bonnyton-Ln-77014/home/40207876,HARMLS,12858262,N,Y,29.986641,-95.4496278
PAST SALE,September-8-2020,Single Family Residential,13819 Bink Ct,Houston,TX,77014,230000,4,2.5,Briarchase,3008,9039,2002,266,76,39,Sold,,,http://www.redfin.com/TX/Houston/13819-Bink-Ct-77014/home/29141377,HARMLS,28499592,N,Y,29.9817595,-95.47944
PAST SALE,October-14-2016,Single Family Residential,13922 Crestbourne Ct,Houston,TX,77014,145000,3,2.0,Glen Abbey Sec 05,1510,4945,2008,1691,96,,Sold,,,http://www.redfin.com/TX/Houston/13922-Crestbourne-Ct-77014/home/29579095,HARMLS,15152204,N,Y,29.9845109,-95.4477855
PAST SALE,June-18-2016,Single Family Residential,14407 Fairbuff Ln,Houston,TX,77014,98500,3,2.5,Villas At Northpark Sec 02,1733,2910,2005,1809,57,14,Sold,,,http://www.redfin.com/TX/Houston/14407-Fairbuff-Ln-77014/home/29259988,HARMLS,83071094,N,Y,29.9956596,-95.4729378
PAST SALE,,Single Family Residential,13722 Lynx Dr,Houston,TX,77014,,3,2.0,,1116,4400,1998,,,,Sold,,,http://www.redfin.com/TX/Houston/13722-Lynx-Dr-77014/home/30582751,HARMLS,,N,Y,29.9831195,-95.4672758
PAST SALE,September-30-2016,Single Family Residential,2627 Aspen Tree,Houston,TX,77014,175000,4,2.5,Silverglen North,2251,6325,2014,1705,78,,Sold,,,http://www.redfin.com/TX/Houston/2627-Aspen-Tree-Ct-77014/home/108306816,HARMLS,96208095,N,Y,29.9743527,-95.4549912
PAST SALE,November-20-2016,Single Family Residential,15431 Bammel Oaks Ct,Houston,TX,77014,119000,3,2.5,Bammel Village Sec 02 Rep 01,2050,3364,2013,1654,58,366,Sold,,,http://www.redfin.com/TX/Houston/15431-Bammel-Oaks-Ct-77014/home/66036809,HARMLS,72000408,N,Y,29.9979328,-95.4653408
PAST SALE,June-27-2017,Townhouse,3222 Palston Bend Ln,Houston,TX,77014,116900,3,2.5,Villas AT Northpark,1684,3051,2006,1435,69,165,Sold,,,http://www.redfin.com/TX/Houston/3222-Palston-Bend-Ln-77014/home/29219368,HARMLS,81743499,N,Y,29.9949849,-95.4764499
PAST SALE,March-31-2017,Townhouse,3211 Palston Bend Ln,Houston,TX,77014,110000,3,2.5,Villas at Northpark,1686,2660,2005,1523,65,165,Sold,,,http://www.redfin.com/TX/Houston/3211-Palston-Bend-Ln-77014/home/29219250,HARMLS,73602284,N,Y,29.9947702,-95.4759277
PAST SALE,,Townhouse,14411 Mooreview Ln,Houston,TX,77014,,3,2.5,,1722,3275,2006,,,,Sold,,,http://www.redfin.com/TX/Houston/14411-Mooreview-Ln-77014/home/29259983,HARMLS,,N,Y,29.994173,-95.475545
PAST SALE,February-6-2018,Single Family Residential,14731 Treborway Dr,Houston,TX,77014,177900,4,2.5,Torrey Pines,2332,8491,1982,1211,76,42,Sold,,,http://www.redfin.com/TX/Houston/14731-Treborway-Dr-77014/home/30496680,HARMLS,20101646,N,Y,29.9883712,-95.4871822
PAST SALE,April-17-2018,Single Family Residential,13534 N Peachfield Cir,Houston,TX,77014,145000,3,2.0,Sableridge,1242,8991,1982,1141,117,38,Sold,,,http://www.redfin.com/TX/Houston/13534-N-Peachfield-Cir-77014/home/30496144,HARMLS,19752442,N,Y,29.9750405,-95.4840279
PAST SALE,July-19-2016,Single Family Residential,13522 N Peachfield Cir,Houston,TX,77014,73800,3,2.0,Sableridge,1889,6710,1983,1778,39,33,Sold,,,http://www.redfin.com/TX/Houston/13522-N-Peachfield-Cir-77014/home/30496145,HARMLS,90166286,N,Y,29.9747907,-95.4835363
PAST SALE,February-6-2017,Single Family Residential,14007 Kinsbourne Ct,Houston,TX,77014,155000,4,2.5,Glen Abbey,2370,4950,2006,1576,65,395,Sold,,,http://www.redfin.com/TX/Houston/14007-Kinsbourne-Ct-77014/home/29549182,HARMLS,96513964,N,Y,29.9848768,-95.4465573
PAST SALE,November-20-2017,Single Family Residential,15443 Bammel Oaks,Houston,TX,77014,150000,3,2.5,Bammel Village Sec 02 Rep 01,1960,3354,2013,1289,77,31,Sold,,,http://www.redfin.com/TX/Houston/15443-Bammel-Oaks-Ct-77014/home/66036806,HARMLS,51567475,N,Y,29.9981511,-95.4655046
PAST SALE,November-23-2016,Single Family Residential,13902 Tinsley Ct,Houston,TX,77014,169500,4,2.5,Glen Abbey Sec 3,2160,6484,2006,1651,78,400,Sold,,,http://www.redfin.com/TX/Houston/13902-Tinsley-Ct-77014/home/29550780,HARMLS,68209433,N,Y,29.9839434,-95.4457181
PAST SALE,August-17-2016,Single Family Residential,1619 Thornhollow Dr,Houston,TX,77014,175000,4,2.5,Glen Abbey Sec 4,2320,4400,2008,1749,75,,Sold,,,http://www.redfin.com/TX/Houston/1619-Thornhollow-Dr-77014/home/29588068,HARMLS,14545522,N,Y,29.9869726,-95.4470486
PAST SALE,February-23-2017,Single Family Residential,1758 Thornhollow Dr,Houston,TX,77014,163500,4,2.5,Glen Abbey Sec 5,2211,4808,2014,1559,74,33,Sold,,,http://www.redfin.com/TX/Houston/1758-Thornhollow-Dr-77014/home/43479234,HARMLS,47934786,N,Y,29.9873461,-95.4499963
PAST SALE,November-28-2017,Single Family Residential,15502 Kiplands Bend Dr,Houston,TX,77014,125000,4,2.5,Bammel Village,1477,5973,2013,1281,85,23,Sold,,,http://www.redfin.com/TX/Houston/15502-Kiplands-Bend-Dr-77014/home/66036737,HARMLS,7669967,N,Y,30.0009698,-95.4642965
PAST SALE,December-28-2017,Single Family Residential,3103 Atherton Canyon Ln,Houston,TX,77014,118000,3,2.5,Villas At Northpark Sec 2,1681,6069,2006,1251,70,165,Sold,,,http://www.redfin.com/TX/Houston/3103-Atherton-Canyon-Ln-77014/home/29259919,HARMLS,68191832,N,Y,29.9946316,-95.4741153
PAST SALE,October-27-2017,Single Family Residential,2646 Kiplands Ct,Houston,TX,77014,130000,4,2.5,Bammel Village Sec 02 Rep 01,1672,3675,2005,1313,78,31,Sold,,,http://www.redfin.com/TX/Houston/2646-Kiplands-Ct-77014/home/29355106,HARMLS,82779734,N,Y,30.0005212,-95.4667024
PAST SALE,April-26-2018,Single Family Residential,2623 Kiplands Way Dr,Houston,TX,77014,144900,3,2.5,Bammel Village Sec 02 Rep 01,1715,3360,2013,1132,84,31,Sold,,,http://www.redfin.com/TX/Houston/2623-Kiplands-Way-Dr-77014/home/66036721,HARMLS,92819478,N,Y,29.9998986,-95.4654329
PAST SALE,January-10-2018,Single Family Residential,2523 Kiplands Way Dr,Houston,TX,77014,149000,3,2.5,Bammel Village Sec 02 Rep 01,1970,3453,2013,1238,76,23,Sold,,,http://www.redfin.com/TX/Houston/2523-Kiplands-Way-Dr-77014/home/66036747,HARMLS,36026419,N,Y,30.0005143,-95.4646958
PAST SALE,June-12-2018,Single Family Residential,15538 Kiplands Bend Dr,Houston,TX,77014,143900,3,2.5,Bammel Village,1642,3520,2013,1085,88,31,Sold,,,http://www.redfin.com/TX/Houston/15538-Kiplands-Bend-Dr-77014/home/66036704,HARMLS,75570440,N,Y,30.0014895,-95.4650644
PAST SALE,April-30-2018,Single Family Residential,15546 Kiplands Bend Dr,Houston,TX,77014,152000,3,2.5,Bammel Village Sec 02 Rep 01,1991,3520,2013,1128,76,31,Sold,,,http://www.redfin.com/TX/Houston/15546-Kiplands-Bend-Dr-77014/home/66036709,HARMLS,22343137,N,Y,30.0015727,-95.4652282
PAST SALE,February-13-2018,Single Family Residential,15531 Kiplands Bend Dr,Houston,TX,77014,137000,3,2.5,Bammel Village Sec 02 Rep 01,1720,3360,2013,1204,80,31,Sold,,,http://www.redfin.com/TX/Houston/15531-Kiplands-Bend-Dr-77014/home/66036691,HARMLS,44739120,N,Y,30.0010217,-95.4652179
PAST SALE,September-18-2017,Single Family Residential,2626 Kiplands,Houston,TX,77014,109900,4,2.5,Bammel Village,1552,,2005,1352,71,360,Sold,,,http://www.redfin.com/TX/Houston/2626-Kiplands-Ct-77014/home/29365562,HARMLS,40879944,N,Y,30.0008117,-95.466211
PAST SALE,March-30-2018,Single Family Residential,15407 Bammel Fields Ct,Houston,TX,77014,150000,3,2.5,Bammel Village Sec 02 Rep 01,2128,6768,2013,1159,70,31,Sold,,,http://www.redfin.com/TX/Houston/15407-Bammel-Fields-Ct-77014/home/66036668,HARMLS,17226872,N,Y,29.9986592,-95.4638358
PAST SALE,December-29-2017,Single Family Residential,15435 Bammel Oaks Ct,Houston,TX,77014,145000,3,2.5,Bammel Village Sec 02 Rep 01,1762,3361,2013,1250,82,366,Sold,,,http://www.redfin.com/TX/Houston/15435-Bammel-Oaks-Ct-77014/home/66036808,HARMLS,84332458,N,Y,29.9980078,-95.4654329
PAST SALE,November-14-2017,Single Family Residential,1747 York Crk,Houston,TX,77014,174550,4,2.0,Glen Abbey Sec 06,1558,4400,2013,1295,112,33,Sold,,,http://www.redfin.com/TX/Houston/1747-York-Creek-Dr-77014/home/49742559,HARMLS,37560327,N,Y,29.9854203,-95.4497506
PAST SALE,,Townhouse,3018 Loganberry Park Ln,Houston,TX,77014,,3,2.5,,1636,2716,2003,,,,Sold,,,http://www.redfin.com/TX/Houston/3018-Loganberry-Park-Ln-77014/home/29219400,HARMLS,,N,Y,29.9964476,-95.4737467
PAST SALE,October-21-2016,Condo/Co-op,3226 N Palston Bend Ln,Houston,TX,77014,104000,3,2.5,Villas At Northpark Sec 01,1720,3247,2006,1684,60,140,Sold,,,http://www.redfin.com/TX/Houston/3226-Palston-Bend-Ln-77014/home/29219371,HARMLS,78266848,N,Y,29.9949182,-95.4764294
PAST SALE,January-31-2018,Townhouse,2906 Loganberry Park Ln,Houston,TX,77014,118500,3,2.5,Villas At Northpark Sec 01,1636,3289,2003,1217,72,175,Sold,,,http://www.redfin.com/TX/Houston/2906-Loganberry-Park-Ln-77014/home/29132125,HARMLS,15748159,N,Y,29.9969021,-95.4725589
PAST SALE,June-9-2017,Townhouse,2719 Hackamore Hollow Ln,Houston,TX,77014,114900,3,2.5,Villas At Northpark Sec 01,1510,2953,2002,1453,76,165,Sold,,,http://www.redfin.com/TX/Houston/2719-Hackamore-Hollow-Ln-77014/home/29219293,HARMLS,16614960,N,Y,29.996115,-95.471196
PAST SALE,May-17-2018,Townhouse,14306 Mirkwood Ln,Houston,TX,77014,129750,3,2.5,Villas At Northpark Sec 01,1683,3307,2004,1111,77,175,Sold,,,http://www.redfin.com/TX/Houston/14306-Mirkwood-Ln-77014/home/29219349,HARMLS,51743547,N,Y,29.9948116,-95.4741153
PAST SALE,January-31-2018,Single Family Residential,14307 Mirkwood Ln,Houston,TX,77014,117500,3,2.5,Villas At Northpark Sec 1,1681,6069,2006,1217,70,175,Sold,,,http://www.redfin.com/TX/Houston/14307-Mirkwood-Ln-77014/home/29219351,HARMLS,9174754,N,Y,29.9946596,-95.4745249
PAST SALE,,Townhouse,14339 Fairbuff Ln,Houston,TX,77014,,3,2.0,,1506,2910,2005,,,,Sold,,,http://www.redfin.com/TX/Houston/14339-Fairbuff-Ln-77014/home/29259985,HARMLS,,N,Y,29.9958182,-95.4726408
PAST SALE,December-15-2017,Single Family Residential,14203 Torrey Village Dr,Houston,TX,77014,209000,4,2.5,Torrey Pines Sec 01,2695,7475,1997,1264,78,630,Sold,,,http://www.redfin.com/TX/Houston/14203-Torrey-Village-Dr-77014/home/30496813,HARMLS,35610837,N,Y,29.9827569,-95.4890258
PAST SALE,June-27-2018,Single Family Residential,4238 Torrey Creek Ln,Houston,TX,77014,167500,4,2.5,Torrey Pines,2534,7705,1991,1070,66,46,Sold,,,http://www.redfin.com/TX/Houston/4238-Torrey-Creek-Ln-77014/home/30496885,HARMLS,96100933,N,Y,29.981764,-95.4880016
PAST SALE,November-20-2017,Single Family Residential,4243 Northvale Dr,Houston,TX,77014,246900,5,4.0,Torrey Pines Sec 01,3287,7360,1993,1289,75,,Sold,,,http://www.redfin.com/TX/Houston/4243-Northvale-Dr-77014/home/30496864,HARMLS,67480835,N,Y,29.9855911,-95.4858303
PAST SALE,February-26-2018,Single Family Residential,4222 Riverchase Ln,Houston,TX,77014,220000,4,2.5,Torrey Pines,3300,7590,1982,1191,67,48,Sold,,,http://www.redfin.com/TX/Houston/4222-Riverchase-Ln-77014/home/30496749,HARMLS,68032246,N,Y,29.9848128,-95.4872232
PAST SALE,August-12-2016,Single Family Residential,14507 Torrey Village Dr,Houston,TX,77014,185000,4,2.5,Torrey Pines Sec 01 Amd,2839,7788,1997,1754,65,50,Sold,,,http://www.redfin.com/TX/Houston/14507-Torrey-Village-Dr-77014/home/30496652,HARMLS,82684803,N,Y,29.9858245,-95.4877967
PAST SALE,October-16-2017,Condo/Co-op,3770 Lovers Wood Ln #1003,Houston,TX,77014,52000,1,1.0,Raveneaux Forest Condo,651,,1983,1324,80,175,Sold,,,http://www.redfin.com/TX/Houston/3770-Loverswood-Dr-77014/unit-1003/home/30562047,HARMLS,4982463,N,Y,29.990863,-95.482832
PAST SALE,October-17-2017,Townhouse,14438 Mooreview Ln,Houston,TX,77014,110000,3,2.5,Villas At Northpark Sec 02,1687,2765,2006,1323,65,165,Sold,,,http://www.redfin.com/TX/Houston/14438-Mooreview-Ln-77014/home/29259970,HARMLS,90437035,N,Y,29.993964,-95.475824
PAST SALE,January-31-2018,Single Family Residential,2102 Silver Rimrock Trl,Houston,TX,77014,215990,4,2.5,Silverglen North,2453,,2017,1217,88,44,Sold,,,http://www.redfin.com/TX/Houston/Silver-Rimrock-Trl-77014/home/143330517,HARMLS,9027656,N,Y,29.982009,-95.456931
PAST SALE,October-30-2017,Single Family Residential,2106 Silver Rimrock Trl,Houston,TX,77014,176990,3,2.0,Silverglen North,1523,,2017,1310,116,530,Sold,,,http://www.redfin.com/TX/Houston/2106-Silver-Rimrock-Trl-77014/home/147746536,HARMLS,83709843,N,Y,29.9817515,-95.4568144
PAST SALE,September-11-2017,Single Family Residential,12618 Silver Nobriga Trl,Houston,TX,77014,190269,4,2.0,Silverglen North,1796,,2017,1359,106,44,Sold,,,http://www.redfin.com/TX/Houston/12606-Silver-Nobriga-77014/home/148066579,HARMLS,71019430,N,Y,29.9812779,-95.4544125
PAST SALE,,Single Family Residential,2343 Altman Trl,Houston,TX,77014,,5,4.5,,3799,10659,2017,,,,Sold,,,http://www.redfin.com/TX/Houston/2343-Altman-Trl-77014/home/148114013,HARMLS,,N,Y,29.977525,-95.452774
PAST SALE,May-30-2018,Single Family Residential,12634 Ashlynn Creek Trl,Houston,TX,77014,232102,5,3.5,Silverglen North,2786,,2017,1098,83,44,Sold,,,http://www.redfin.com/TX/Houston/12634-Ashlynn-Creek-Trl-77014/home/148114014,HARMLS,50926224,N,Y,29.9778935,-95.4542952
PAST SALE,January-19-2017,Single Family Residential,14143 Astonshire Ln,Houston,TX,77014,154900,4,2.0,Glen Abbey,1630,4441,2011,1594,95,275,Sold,,,http://www.redfin.com/TX/Houston/14143-Astonshire-Ln-77014/home/43479230,HARMLS,84885347,N,Y,29.9869792,-95.45016
PAST SALE,March-31-2017,Single Family Residential,1406 Rushworth Dr,Houston,TX,77014,149900,3,2.0,Cranbrook Sec 01,2097,6893,1983,1523,71,400,Sold,,,http://www.redfin.com/TX/Houston/1406-Rushworth-Dr-77014/home/30534983,HARMLS,40269989,N,Y,29.9721471,-95.4375107
PAST SALE,,Single Family Residential,13847 Cantwell Dr,Houston,TX,77014,,3,2.5,,1861,5830,1984,,,,Sold,,,http://www.redfin.com/TX/Houston/13847-Cantwell-Dr-77014/home/30535659,HARMLS,,N,Y,29.9699092,-95.4371833
PAST SALE,December-30-2016,Single Family Residential,1706 Kriswood Dr,Houston,TX,77014,149000,4,2.5,Cranbrook Sec 02 Rep,2420,7504,1991,1614,62,33,Sold,,,http://www.redfin.com/TX/Houston/1706-Kriswood-Dr-77014/home/30582577,HARMLS,7124804,N,Y,29.9706932,-95.443835
PAST SALE,June-8-2018,Single Family Residential,1618 Ridgebriar Dr,Houston,TX,77014,159900,4,2.5,Cranbrook Sec 02 Prcl R/p,2406,6030,1993,1089,66,33,Sold,,,http://www.redfin.com/TX/Houston/1618-Ridgebriar-Dr-77014/home/30582135,HARMLS,29837736,N,Y,29.972462,-95.4418906
PAST SALE,September-29-2017,Single Family Residential,12314 Garden Laurel Ln,Houston,TX,77014,159900,3,2.5,Laurel Oaks Sec 01,2348,6490,1986,1341,68,37,Sold,,,http://www.redfin.com/TX/Houston/12314-Garden-Laurel-Ln-77014/home/30594955,HARMLS,77990754,N,Y,29.966819,-95.4531488
PAST SALE,December-23-2016,Single Family Residential,2114 Laurel Bnd,Houston,TX,77014,142500,3,2.0,Laurel Oaks,1844,,1986,1621,77,38,Sold,,,http://www.redfin.com/TX/Houston/2114-Laurel-Bend-Ln-77014/home/30594926,HARMLS,24983676,N,Y,29.96721,-95.4518591
PAST SALE,October-26-2017,Single Family Residential,1827 Laurel Bough Ln,Houston,TX,77014,155000,3,2.0,Laurel Oaks Sec 04,1686,6300,1997,1314,92,33,Sold,,,http://www.redfin.com/TX/Houston/1827-Laurel-Bough-Ln-77014/home/30674583,HARMLS,26407086,N,Y,29.9691405,-95.4470895
PAST SALE,September-15-2017,Single Family Residential,1914 Laurel Bay Dr,Houston,TX,77014,171240,3,2.5,Laurel Oaks Sec 04,2245,6962,2000,1355,76,440,Sold,,,http://www.redfin.com/TX/Houston/1914-Laurel-Bay-Dr-77014/home/30674599,HARMLS,10551674,N,Y,29.9680941,-95.4484405
PAST SALE,April-20-2018,Single Family Residential,12722 Laurel Bank Way,Houston,TX,77014,167500,3,2.0,Laurel Oaks,1779,7904,2003,1138,94,40,Sold,,,http://www.redfin.com/TX/Houston/12722-Laurel-Bank-Way-77014/home/30726298,HARMLS,94649809,N,Y,29.972499,-95.4508151
PAST SALE,April-28-2017,Single Family Residential,2214 Laurel River Bnd,Houston,TX,77014,170000,5,2.5,Laurel Oaks,3024,8950,2002,1495,56,450,Sold,,,http://www.redfin.com/TX/Houston/2214-Laurel-River-Bnd-77014/home/29201987,HARMLS,45862642,N,Y,29.9714624,-95.4551959
PAST SALE,May-29-2018,Single Family Residential,14019 Marners Ct,Houston,TX,77014,152000,3,2.5,Glen Abbey Sec 02,2370,4950,2007,1099,64,400,Sold,,,http://www.redfin.com/TX/Houston/14019-Marners-Ct-77014/home/29549196,HARMLS,51437894,N,Y,29.9852465,-95.4474171
PAST SALE,October-10-2017,Single Family Residential,2618 Kiplands Way Dr,Houston,TX,77014,132500,3,2.0,Bammel Village Sec 02 Rep 01,1229,3641,2013,1330,108,275,Sold,,,http://www.redfin.com/TX/Houston/2618-Kiplands-Way-Dr-77014/home/66036720,HARMLS,69290148,N,Y,30.0002919,-95.4657196
PAST SALE,January-23-2017,Single Family Residential,2511 Kiplands Way Dr,Houston,TX,77014,119000,3,2.5,Bammel Village Sec 02 Rep 01,1409,3014,2013,1590,84,366,Sold,,,http://www.redfin.com/TX/Houston/2511-Kiplands-Way-Dr-77014/home/66036750,HARMLS,27523594,N,Y,30.0006613,-95.4644091
PAST SALE,February-2-2017,Townhouse,14420 Walters Rd #53,Houston,TX,77014,150000,3,2.5,Cornerstone Village North 02,2010,2156,1998,1580,75,269,Sold,,,http://www.redfin.com/TX/Houston/14420-Walters-Rd-77014/unit-53/home/30697973,HARMLS,77544941,N,Y,29.9935592,-95.4825941
PAST SALE,April-25-2018,Townhouse,14420 Walters Rd #25,Houston,TX,77014,153000,3,2.5,Cornerstone Village North 02,2002,2219,1998,1133,76,310,Sold,,,http://www.redfin.com/TX/Houston/14420-Walters-Rd-77014/unit-25/home/30545290,HARMLS,47178625,N,Y,29.9935592,-95.4825941
PAST SALE,,Single Family Residential,13922 Bentpath Dr,Houston,TX,77014,,4,2.5,,2879,7858,2000,,,,Sold,,,http://www.redfin.com/TX/Houston/13922-Bentpath-Dr-77014/home/30674971,HARMLS,,N,Y,29.9842677,-95.4792147
PAST SALE,March-31-2017,Single Family Residential,4203 Northvale Dr,Houston,TX,77014,200000,5,4.0,Torrey Pines,3344,7905,1992,1523,60,625,Sold,,,http://www.redfin.com/TX/Houston/4203-Northvale-Dr-77014/home/30496854,HARMLS,79244889,N,Y,29.9842516,-95.4844785
PAST SALE,October-28-2016,Single Family Residential,14314 Torrey Village Dr,Houston,TX,77014,210000,3,2.5,Torrey Pines,3055,8050,1996,1677,69,50,Sold,,,http://www.redfin.com/TX/Houston/14314-Torrey-Village-Dr-77014/home/30496672,HARMLS,16403244,N,Y,29.9843388,-95.4877967
PAST SALE,May-19-2017,Single Family Residential,13767 Sablesprings Ln,Houston,TX,77014,154000,3,2.0,Sableridge Sec 02,1651,6300,1991,1474,93,340,Sold,,,http://www.redfin.com/TX/Houston/13767-Sablesprings-Ln-77014/home/30564842,HARMLS,81531605,N,Y,29.9780011,-95.4832086
PAST SALE,,Single Family Residential,13906 Sableridge Dr,Houston,TX,77014,,3,2.0,,2121,6670,1998,,,,Sold,,,http://www.redfin.com/TX/Houston/13906-Sableridge-Dr-77014/home/30650067,HARMLS,,N,Y,29.9789271,-95.4825941
PAST SALE,December-22-2016,Single Family Residential,3927 Stableridge Dr,Houston,TX,77014,212500,4,3.5,Torrey Pines,3327,7303,2000,1622,64,50,Sold,,,http://www.redfin.com/TX/Houston/3927-Stableridge-Dr-77014/home/30659205,HARMLS,98707711,N,Y,29.9832973,-95.4830652
PAST SALE,December-12-2016,Single Family Residential,15530 Kiplands Bend Dr,Houston,TX,77014,119000,3,2.5,Bammel Village Sec 02 Rep 01,1379,3520,2013,1632,86,366,Sold,,,http://www.redfin.com/TX/Houston/15530-Kiplands-Bend-Dr-77014/home/66036706,HARMLS,4621504,N,Y,30.0013487,-95.4649313
PAST SALE,November-30-2016,Single Family Residential,15419 Bammel Fields Ct,Houston,TX,77014,129000,3,2.5,Bammel Village Sec 02 Rep 01,1735,3232,2013,1644,74,366,Sold,,,http://www.redfin.com/TX/Houston/15419-Bammel-Fields-Ct-77014/home/66036686,HARMLS,80610924,N,Y,29.9988391,-95.4641123
PAST SALE,March-27-2017,Single Family Residential,1475 Plumwood Dr,Houston,TX,77014,164900,4,2.0,Cranbrook Sec 01,1990,7183,1987,1527,83,,Sold,,,http://www.redfin.com/TX/Houston/1475-Plumwood-Dr-77014/home/30535793,HARMLS,83524803,N,Y,29.9704198,-95.4400895
PAST SALE,,Single Family Residential,4231 Southchase Ln,Houston,TX,77014,,3,2.0,,1452,6820,1982,,,,Sold,,,http://www.redfin.com/TX/Houston/4231-Southchase-Ln-77014/home/30495935,HARMLS,,N,Y,29.9706773,-95.4828399
PAST SALE,June-15-2018,Single Family Residential,12514 Silverwood Sands Ct,Houston,TX,77014,234882,5,3.5,Silverglen North,2786,,2017,1082,84,44,Sold,,,http://www.redfin.com/TX/Houston/12514-Silverwood-Sands-Ct-77014/home/167844169,HARMLS,29444442,N,Y,29.980008,-95.453265
PAST SALE,October-7-2016,Single Family Residential,12615 Colony Hill Ln,Houston,TX,77014,179000,4,2.5,Silverglen North,2204,6866,2014,1698,81,44,Sold,,,http://www.redfin.com/TX/Houston/12615-Colony-Hill-Ln-77014/home/55110547,HARMLS,3938901,N,Y,29.9751615,-95.4550322
PAST SALE,September-29-2017,Single Family Residential,3118 Silverchase Mdws,Houston,TX,77014,202990,3,2.0,Silverchase,2070,,2017,1341,98,29,Sold,,,http://www.redfin.com/TX/Houston/3118-Silverchase-Meadows-Dr-77014/home/143058417,HARMLS,76490528,N,Y,29.9809452,-95.4621569
PAST SALE,February-28-2018,Single Family Residential,3318 Silverchase Meadows Dr,Houston,TX,77014,190954,3,2.0,Silverchase,1671,,2017,1189,114,29,Sold,,,http://www.redfin.com/TX/Houston/3318-Silverchase-Meadows-Dr-77014/home/144394775,HARMLS,72908938,N,Y,29.9793625,-95.4650554
PAST SALE,April-10-2017,Single Family Residential,12706 Silver Winter Trl,Houston,TX,77014,178940,3,2.0,Silverglen North,1796,,2016,1513,100,44,Sold,,,http://www.redfin.com/TX/Houston/12706-Silver-Winter-Trl-77014/home/144618860,HARMLS,62125764,N,Y,29.982115,-95.4556463
PAST SALE,July-31-2017,Single Family Residential,12611 Silver Nobriga Trl,Houston,TX,77014,187147,3,2.5,Silverglen North,1900,,2017,1401,98,44,Sold,,,http://www.redfin.com/TX/Houston/12606-Silver-Nobriga-77014/home/147746546,HARMLS,68560441,N,Y,29.9812779,-95.4544125
PAST SALE,October-26-2017,Single Family Residential,12615 Ashlynn Creek Trl,Houston,TX,77014,232893,5,3.5,Silverglen North,2786,,2017,1314,84,530,Sold,,,http://www.redfin.com/TX/Houston/12615-Ashlynn-Creek-Trl-77014/home/148066587,HARMLS,52943244,N,Y,29.9774025,-95.4534901
PAST SALE,May-7-2018,Single Family Residential,13127 Candlewood Glen Ln,Houston,TX,77014,198000,3,2.0,Silverglen North,2091,5957,2005,1121,95,44,Sold,,,http://www.redfin.com/TX/Houston/13127-Candlewood-Glen-Ln-77014/home/29311922,HARMLS,34975290,N,Y,29.9798779,-95.459659
PAST SALE,January-12-2018,Single Family Residential,12303 Forstall Dr,Houston,TX,77014,194000,5,3.5,Silverleaf Sub,3066,5816,2007,1236,63,33,Sold,,,http://www.redfin.com/TX/Houston/12303-Forstall-Dr-77014/home/29548793,HARMLS,77715464,N,Y,29.967996,-95.463347
PAST SALE,June-8-2018,Single Family Residential,12231 Forstall Dr,Houston,TX,77014,191000,5,3.0,Silverleaf,2590,5126,2009,1089,74,33,Sold,,,http://www.redfin.com/TX/Houston/12231-Forstall-Dr-77014/home/34199068,HARMLS,55141494,N,Y,29.9674632,-95.4631602
PAST SALE,,Single Family Residential,12502 Damascon,Houston,TX,77014,,5,3.5,,3338,12035,1997,,,,Sold,,,http://www.redfin.com/TX/Houston/12502-Damascon-Ct-77014/home/30670224,HARMLS,,N,Y,29.9713763,-95.4621774
PAST SALE,November-30-2017,Single Family Residential,13810 Keyworth Dr,Houston,TX,77014,170000,3,2.0,Cranbrook,1796,6300,1991,1279,95,400,Sold,,,http://www.redfin.com/TX/Houston/13810-Keyworth-Dr-77014/home/30582554,HARMLS,27010278,N,Y,29.9690057,-95.4432619
PAST SALE,January-26-2018,Single Family Residential,13826 Fair Park Dr,Houston,TX,77014,165000,4,2.5,Cranbrook Sec 02 Prcl R/p,2420,6681,1991,1222,68,50,Sold,,,http://www.redfin.com/TX/Houston/13826-Fair-Park-Dr-77014/home/30582096,HARMLS,72510888,N,Y,29.9697254,-95.4449198
PAST SALE,September-29-2017,Single Family Residential,12314 N Wright Oaks Dr,Houston,TX,77014,175000,4,2.5,Laurel Oaks,2432,7539,1997,1341,72,37,Sold,,,http://www.redfin.com/TX/Houston/12314-Wright-Oaks-Dr-77067/home/30674565,HARMLS,27310144,N,Y,29.9682872,-95.4459433
PAST SALE,October-6-2017,Single Family Residential,13727 Sablesprings Ln,Houston,TX,77014,168500,4,2.5,Sableridge Sec 02,2514,7400,1993,1334,67,28,Sold,,,http://www.redfin.com/TX/Houston/13727-Sablesprings-Ln-77014/home/30564853,HARMLS,14317234,N,Y,29.9770359,-95.4847652
PAST SALE,May-10-2017,Single Family Residential,3711 Bentpath Ct,Houston,TX,77014,179900,3,3.0,Torrey Pines Sec 03,1800,13918,1998,1483,100,39,Sold,,,http://www.redfin.com/TX/Houston/3711-Bentpath-Ct-77014/home/30675041,HARMLS,62077457,N,Y,29.9838917,-95.4801364
PAST SALE,July-19-2016,Single Family Residential,13919 NW Crestbourne Ct,Houston,TX,77014,165000,3,2.5,Glen Abbey,2351,4950,2008,1778,70,33,Sold,,,http://www.redfin.com/TX/Houston/13919-Crestbourne-Ct-77014/home/29599613,HARMLS,65823164,N,Y,29.9843789,-95.4482563
PAST SALE,May-16-2017,Single Family Residential,12631 Ashlynn Creek Trl,Houston,TX,77014,211990,4,2.0,Silverglen North,2270,,2016,1477,93,530,Sold,,,http://www.redfin.com/TX/Houston/12631-Ashlynn-Creek-Trl-77014/home/109198897,HARMLS,27733907,N,Y,29.9773979,-95.4542027
PAST SALE,June-15-2017,Single Family Residential,12643 Silver Winter Trl,Houston,TX,77014,186990,4,2.0,Silverglen North,1944,,2017,1447,96,530,Sold,,,http://www.redfin.com/TX/Houston/12643-Silver-Winter-Trl-77014/home/113618469,HARMLS,81804664,N,Y,29.9815903,-95.4547251
PAST SALE,December-29-2017,Single Family Residential,12715 Silver Winter Trl,Houston,TX,77014,207500,4,2.5,Silverglen North,2553,5175,2017,1250,81,44,Sold,,,http://www.redfin.com/TX/Houston/12715-Silver-Winter-Trl-77014/home/143181236,HARMLS,94797316,N,Y,29.9817016,-95.4558563
PAST SALE,February-9-2018,Single Family Residential,2407 Sandlewood Trail Ln,Houston,TX,77014,243560,4,3.0,Silverglen North,2676,,2017,1208,91,44,Sold,,,http://www.redfin.com/TX/Houston/2407-Sandlewood-Trail-Ln-77014/home/143392884,HARMLS,33372607,N,Y,29.9773149,-95.4560345
PAST SALE,November-27-2017,Single Family Residential,12511 Silversmine Dr,Houston,TX,77014,187000,4,2.0,Silverglen,2441,5974,1998,1282,77,396,Sold,,,http://www.redfin.com/TX/Houston/12511-Silversmine-Dr-77014/home/30679542,HARMLS,8357987,N,Y,29.9714225,-95.460519
PAST SALE,,Single Family Residential,13943 Dentwood Dr,Houston,TX,77014,,2,2.0,,1743,5668,1990,,,,Sold,,,http://www.redfin.com/TX/Houston/13943-Dentwood-Dr-77014/home/30535748,HARMLS,,N,Y,29.9710508,-95.4389843
PAST SALE,February-16-2018,Single Family Residential,2202 Laurel Bend Ln,Houston,TX,77014,159999,4,2.5,Laurel Oaks Sec 01,2185,,1985,1201,73,450,Sold,,,http://www.redfin.com/TX/Houston/2202-Laurel-Bend-Ln-77014/home/30594925,HARMLS,31966746,N,Y,29.9671799,-95.4520433
PAST SALE,January-29-2018,Single Family Residential,12523 Berry Laurel Ln,Houston,TX,77014,159900,3,2.0,Laurel Oaks,1802,,1999,1219,89,40,Sold,,,http://www.redfin.com/TX/Houston/12523-Berry-Laurel-Ln-77014/home/30683362,HARMLS,81265554,N,Y,29.9704859,-95.4510403
PAST SALE,November-17-2017,Townhouse,2835 Silver Charm #2835,Houston,TX,77014,149500,3,2.5,Silverglen T/h,2208,3953,2007,1292,68,137,Sold,,,http://www.redfin.com/TX/Houston/2835-Silver-Charm-77014/unit-2835/home/143044967,HARMLS,92580252,N,Y,29.9717155,-95.4664219
PAST SALE,May-18-2018,Townhouse,12507 Silver Cup,Houston,TX,77014,149900,3,2.5,Silverglen Twnhms,,3385,2005,1110,,137,Sold,,,http://www.redfin.com/TX/Houston/12507-Silver-Cup-77014/home/29296210,HARMLS,26521178,N,Y,29.97151,-95.466675
PAST SALE,December-19-2016,Single Family Residential,12319 Allington Dr,Houston,TX,77014,139900,4,2.5,Silver Spgs Sec 1,2126,5473,2006,1625,66,400,Sold,,,http://www.redfin.com/TX/Houston/12319-Allington-Dr-77014/home/29546973,HARMLS,40907066,N,Y,29.9659844,-95.4765728
PAST SALE,April-21-2017,Single Family Residential,4222 E Peachfield Cir,Houston,TX,77014,143000,3,2.0,Sableridge Sec 01,1450,7700,1983,1502,99,28,Sold,,,http://www.redfin.com/TX/Houston/4222-E-Peachfield-Cir-77014/home/30496000,HARMLS,82980510,N,Y,29.9726813,-95.4833724
PAST SALE,December-4-2017,Single Family Residential,13611 Vickston Ln,Houston,TX,77014,123000,3,2.0,Sablechase,1157,8235,1983,1275,106,33,Sold,,,http://www.redfin.com/TX/Houston/13611-Vickston-Ln-77014/home/30562832,HARMLS,28584868,N,Y,29.9741556,-95.4771462
PAST SALE,November-1-2017,Single Family Residential,13630 Alon Ln,Houston,TX,77014,109900,3,2.0,Sablechase Sec 3,1157,4200,1983,1308,95,36,Sold,,,http://www.redfin.com/TX/Houston/13630-Alon-Ln-77014/home/30562728,HARMLS,38044184,N,Y,29.976395,-95.4752621
PAST SALE,July-28-2016,Single Family Residential,13745 Sablebend Ln,Houston,TX,77014,174900,5,2.5,Sableridge,2633,13118,1991,1769,66,33,Sold,,,http://www.redfin.com/TX/Houston/13745-Sablebend-Ln-77014/home/30564838,HARMLS,3490593,N,Y,29.9766275,-95.4826761
PAST SALE,November-30-2017,Single Family Residential,3351 Tenaha Dr,Houston,TX,77014,154900,3,2.0,Sablechase,1760,6547,1999,1279,88,32,Sold,,,http://www.redfin.com/TX/Houston/3351-Tenaha-Dr-77014/home/30582690,HARMLS,13534564,N,Y,29.982948,-95.4692415
PAST SALE,November-21-2017,Single Family Residential,3331 Shiro,Houston,TX,77014,140000,3,2.0,Sablechase,,4100,1998,1288,,175,Sold,,,http://www.redfin.com/TX/Houston/3331-Shiro-Dr-77014/home/30582738,HARMLS,73450554,N,Y,29.9821086,-95.4677672
PAST SALE,July-22-2016,Single Family Residential,13771 Stabledon,Houston,TX,77014,177000,3,2.0,Hambledon,1924,6600,1995,1775,92,38,Sold,,,http://www.redfin.com/TX/Houston/13771-Stabledon-Dr-77014/home/30650087,HARMLS,24897686,N,Y,29.9786595,-95.4836182
PAST SALE,March-26-2018,Single Family Residential,12703 Persian Dr,Houston,TX,77014,187000,4,2.5,Silverglen West Sec 01,2824,6075,2002,1163,66,30,Sold,,,http://www.redfin.com/TX/Houston/12703-Persian-Dr-77014/home/30727604,HARMLS,52076115,N,Y,29.9726543,-95.4710026
PAST SALE,,Single Family Residential,2934 Napoleonic Ct,Houston,TX,77014,,3,2.0,,1794,6466,2002,,,,Sold,,,http://www.redfin.com/TX/Houston/2934-Napoleonic-Ct-77014/home/30727485,HARMLS,,N,Y,29.9701416,-95.4680744
PAST SALE,April-6-2017,Single Family Residential,2935 Napoleonic Ct,Houston,TX,77014,184990,3,2.0,Silverglen West,2179,6466,2001,1517,85,360,Sold,,,http://www.redfin.com/TX/Houston/2935-Napoleonic-Ct-77014/home/30727503,HARMLS,5388163,N,Y,29.9696913,-95.4680744
PAST SALE,September-14-2016,Single Family Residential,12311 Le Harv Ct,Houston,TX,77014,179900,4,2.5,Silverglen West Sec 01,2555,9615,2002,1721,70,31,Sold,,,http://www.redfin.com/TX/Houston/12311-Le-Harv-Ct-77014/home/30727391,HARMLS,53722404,N,Y,29.9672839,-95.4669481
PAST SALE,,Single Family Residential,3111 Patience Ave,Houston,TX,77014,,3,2.0,,1130,2516,2003,,,,Sold,,,http://www.redfin.com/TX/Houston/3111-Patience-Ave-77014/home/29187000,HARMLS,,N,Y,29.9728082,-95.4727227
PAST SALE,October-6-2017,Single Family Residential,3103 Patience Ave,Houston,TX,77014,89000,3,2.0,Alfalah,1140,2516,2004,1334,78,200,Sold,,,http://www.redfin.com/TX/Houston/3103-Patience-Ave-77014/home/29186998,HARMLS,77508534,N,Y,29.9728166,-95.472518
PAST SALE,October-31-2017,Single Family Residential,13835 Bentpath Dr,Houston,TX,77014,210000,4,2.5,Briarchase,2882,7151,2002,1309,73,39,Sold,,,http://www.redfin.com/TX/Houston/13835-Bentpath-Dr-77014/home/29141373,HARMLS,81384701,N,Y,29.9821937,-95.4787437
PAST SALE,July-18-2017,Single Family Residential,14015 Torrey Village Dr,Houston,TX,77014,159900,3,2.0,Hambledon,1779,7308,1991,1414,90,38,Sold,,,http://www.redfin.com/TX/Houston/14015-Torrey-Village-Dr-77014/home/30541220,HARMLS,11284465,N,Y,29.9803748,-95.490009
PAST SALE,March-20-2017,Single Family Residential,2118 Silver Rimrock Trl,Houston,TX,77014,191923,4,2.5,Silverglen North,2153,,2016,1534,89,530,Sold,,,http://www.redfin.com/TX/Houston/2118-Silver-Rimrock-Trl-77014/home/108999032,HARMLS,22346411,N,Y,29.9821083,-95.4558101
PAST SALE,April-12-2017,Single Family Residential,2122 Silver Rimrock Trl,Houston,TX,77014,188438,4,3.0,Silverglen North,2129,,2016,1511,89,530,Sold,,,http://www.redfin.com/TX/Houston/2122-Silver-Rimrock-Trl-77014/home/108999395,HARMLS,83160702,N,Y,29.9812146,-95.4569044
PAST SALE,March-29-2017,Single Family Residential,13942 Tinsley Ct,Houston,TX,77014,165000,4,2.5,Glen Abbey,2203,4653,2007,1525,75,33,Sold,,,http://www.redfin.com/TX/Houston/13942-Tinsley-Ct-77014/home/29550785,HARMLS,75743851,N,Y,29.9842875,-95.4444695
PAST SALE,,Single Family Residential,3315 Monza,Houston,TX,77014,,3,2.5,,1372,4200,1995,,,,Sold,,,http://www.redfin.com/TX/Houston/3315-Monza-Dr-77014/home/30582593,HARMLS,,N,Y,29.9800272,-95.4658424
PAST SALE,,Single Family Residential,14714 Treborway Dr,Houston,TX,77014,,4,2.5,,2382,7140,1982,,,,Sold,,,http://www.redfin.com/TX/Houston/14714-Treborway-Dr-77014/home/30496642,HARMLS,,N,Y,29.9884121,-95.486199
PAST SALE,May-19-2017,Single Family Residential,14127 Sableridge,Houston,TX,77014,159900,3,2.0,Hambledon,2057,,1982,1474,78,450,Sold,,,http://www.redfin.com/TX/Houston/14127-Sableridge-Dr-77014/home/30534552,HARMLS,79094947,N,Y,29.9806481,-95.4845195
PAST SALE,August-25-2017,Single Family Residential,14015 Bridlechase Ln,Houston,TX,77014,174000,3,2.5,Hambledon Sec 01,2067,6900,1990,1376,84,39,Sold,,,http://www.redfin.com/TX/Houston/14015-Bridlechase-Ln-77014/home/30541147,HARMLS,43791924,N,Y,29.9804641,-95.4889438
PAST SALE,,Single Family Residential,3715 Pintan,Houston,TX,77014,,3,2.0,,1041,4400,1983,,,,Sold,,,http://www.redfin.com/TX/Houston/3715-Pintan-Ln-77014/home/30545417,HARMLS,,N,Y,29.9782571,-95.4759584
PAST SALE,April-5-2018,Single Family Residential,1730 Thornhampton Ct,Houston,TX,77014,185000,4,2.5,Glen Abbey Sec 06,2069,4950,2012,1153,89,33,Sold,,,http://www.redfin.com/TX/Houston/1730-Thornhampton-Ct-77014/home/43490289,HARMLS,60487302,N,Y,29.9851183,-95.4499758
PAST SALE,July-1-2016,Single Family Residential,13711 Alon Ct,Houston,TX,77014,110000,3,2.0,Sablechase Sec 01,1088,7242,1983,1796,101,33,Sold,,,http://www.redfin.com/TX/Houston/13711-Alon-Ct-77014/home/30545329,HARMLS,21835948,N,Y,29.9767195,-95.4761222
PAST SALE,June-23-2017,Single Family Residential,12603 Silver Nobriga Trl,Houston,TX,77014,210518,4,2.5,Silverglen North,2553,,2016,1439,82,530,Sold,,,http://www.redfin.com/TX/Houston/12606-Silver-Nobriga-77014/home/148039705,HARMLS,51926254,N,Y,29.9812779,-95.4544125
PAST SALE,January-11-2018,Single Family Residential,14019 Kinsbourne Ct,Houston,TX,77014,144990,3,2.0,Glen Abbey Sec 02,1360,4950,2006,1237,107,32,Sold,,,http://www.redfin.com/TX/Houston/14019-Kinsbourne-Ct-77014/home/29549180,HARMLS,32377446,N,Y,29.9852369,-95.4465573
PAST SALE,May-15-2017,Single Family Residential,13330 Arden Ridge Ln,Houston,TX,77014,162500,4,2.5,Silverglen North Sec 08,2384,7848,2006,1478,68,44,Sold,,,http://www.redfin.com/TX/Houston/13330-Arden-Ridge-Ln-77014/home/29561456,HARMLS,44565446,N,Y,29.9810892,-95.4586763
PAST SALE,April-19-2017,Single Family Residential,13423 Sable Ln,Houston,TX,77014,155000,3,2.0,Sableridge,1939,,1993,1504,80,38,Sold,,,http://www.redfin.com/TX/Houston/13423-Sable-Ln-77014/home/30495915,HARMLS,18403834,N,Y,29.9719447,-95.4848472
PAST SALE,March-27-2018,Single Family Residential,1723 Clear Valley Dr,Houston,TX,77014,148000,3,2.0,Cranbrook Sec 02 Prcl R/p,1625,9630,1990,1162,91,33,Sold,,,http://www.redfin.com/TX/Houston/1723-Clear-Valley-Dr-77014/home/30582227,HARMLS,68506044,N,Y,29.9682495,-95.4446742
PAST SALE,May-11-2018,Single Family Residential,2103 Laurel Bend Ln,Houston,TX,77014,174500,3,2.5,Laurel Oaks Sec 01,2185,7300,1985,1117,80,37,Sold,,,http://www.redfin.com/TX/Houston/2103-Laurel-Bend-Ln-77014/home/30594911,HARMLS,37318561,N,Y,29.9667583,-95.4513473
PAST SALE,,Single Family Residential,12571 Colony Hill Ln,Houston,TX,77014,,4,2.0,,2362,8038,2014,,,,Sold,,,http://www.redfin.com/TX/Houston/12571-Colony-Hill-Ln-77014/home/108981755,HARMLS,,N,Y,29.9748452,-95.4539676
PAST SALE,July-7-2017,Single Family Residential,14315 Torrey Vlg,Houston,TX,77014,199999,4,2.5,Torrey Pines,2802,,1997,1425,71,600,Sold,,,http://www.redfin.com/TX/Houston/14315-Torrey-Village-Dr-77014/home/30496660,HARMLS,49621438,N,Y,29.9844967,-95.4883293
PAST SALE,August-7-2020,Single Family Residential,14110 Torrey Vista Dr,Houston,TX,77014,225000,4,3.0,Torrey Pines Sec 01,2828,7475,1990,298,80,50,Sold,,,http://www.redfin.com/TX/Houston/14110-Torrey-Vista-Dr-77014/home/30496897,HARMLS,73061621,N,Y,29.981342,-95.48624
PAST SALE,October-22-2019,Single Family Residential,4218 Meadowchase Ln,Houston,TX,77014,239500,4,3.0,Torrey Pines,2932,9480,1992,588,82,52,Sold,,,http://www.redfin.com/TX/Houston/4218-Meadowchase-Ln-77014/home/30496723,HARMLS,16443739,N,Y,29.9850593,-95.4856255
PAST SALE,August-10-2020,Single Family Residential,4243 Meadowchase Ln,Houston,TX,77014,199500,4,2.5,Torrey Pines,2421,7245,1982,295,82,52,Sold,,,http://www.redfin.com/TX/Houston/4243-Meadowchase-Ln-77014/home/30496710,HARMLS,81658151,N,Y,29.9850966,-95.4868955
PAST SALE,July-24-2020,Single Family Residential,4211 Meadowchase Ln,Houston,TX,77014,260000,6,4.0,Torrey Pines Sec 01,3287,7360,1993,312,79,56,Sold,,,http://www.redfin.com/TX/Houston/4211-Meadowchase-Ln-77014/home/30496767,HARMLS,67139557,N,Y,29.9846456,-95.4858303
PAST SALE,May-13-2019,Single Family Residential,14307 N Torrey Chase Ct,Houston,TX,77014,235000,4,2.5,Torrey Pines Sec 01,3010,9522,1982,750,78,52,Sold,,,http://www.redfin.com/TX/Houston/14307-N-Torrey-Chase-Ct-77014/home/30496657,HARMLS,32230263,N,Y,29.9838954,-95.4876329
PAST SALE,September-29-2020,Single Family Residential,4211 Bridledon Ln,Houston,TX,77014,199000,4,3.0,Hambledon Sec 01,2584,7150,1983,245,77,31,Sold,,,http://www.redfin.com/TX/Houston/4211-Bridledon-Ln-77014/home/30541242,HARMLS,57518666,N,Y,29.9779922,-95.4877558
PAST SALE,July-5-2019,Single Family Residential,3743 Pintan Ln,Houston,TX,77014,129500,3,2.0,Sablechase Sec 01,1088,4400,1983,697,119,33,Sold,,,http://www.redfin.com/TX/Houston/3743-Pintan-Ln-77014/home/30545424,HARMLS,93120642,N,Y,29.9778646,-95.4767366
PAST SALE,January-15-2019,Single Family Residential,4143 Sablechase Dr,Houston,TX,77014,180000,4,2.0,Sableridge,2452,6900,1993,868,73,35,Sold,,,http://www.redfin.com/TX/Houston/4143-Sablechase-Dr-77014/home/30564863,HARMLS,67465660,N,Y,29.9756436,-95.4846833
PAST SALE,November-3-2020,Single Family Residential,13934 Stableridge Ct,Houston,TX,77014,235000,4,2.5,Torrey Pines Sec 02,3030,7420,2001,210,78,50,Sold,,,http://www.redfin.com/TX/Houston/13934-Stableridge-Ct-77014/home/30659225,HARMLS,34628138,N,Y,29.9851063,-95.4834134
PAST SALE,June-21-2019,Single Family Residential,13911 Elmpark Ct,Houston,TX,77014,200000,3,2.5,Torrey Pines Sec 03,2534,7410,1999,711,79,39,Sold,,,http://www.redfin.com/TX/Houston/13911-Elmpark-Ct-77014/home/30674999,HARMLS,84694356,N,Y,29.9843817,-95.4824303
PAST SALE,July-30-2019,Single Family Residential,13914 Elmpark Ct,Houston,TX,77014,192900,4,2.5,Torrey Pines Sec 03,2460,7204,2000,672,78,41,Sold,,,http://www.redfin.com/TX/Houston/13914-Elmpark-Ct-77014/home/30674951,HARMLS,47053513,N,Y,29.9847572,-95.4820616
PAST SALE,April-15-2019,Single Family Residential,13903 Whispertrail Ct,Houston,TX,77014,229000,4,2.5,Torrey Pines Sec 03,2931,7971,2000,778,78,48,Sold,,,http://www.redfin.com/TX/Houston/13903-Whispertrail-Ct-77014/home/30674947,HARMLS,42756618,N,Y,29.9844676,-95.4814472
PAST SALE,July-27-2020,Single Family Residential,3922 Jason Dr,Houston,TX,77014,230000,3,2.5,Briarchase Sec 02,2425,7131,2001,309,95,39,Sold,,,http://www.redfin.com/TX/Houston/3922-Jason-Dr-77014/home/30715745,HARMLS,67707496,N,Y,29.9810315,-95.4807098
PAST SALE,September-27-2019,Single Family Residential,12310 Le Harv Ct,Houston,TX,77014,230000,4,2.5,Silverglen West Sec 01,2944,7912,2002,613,78,31,Sold,,,http://www.redfin.com/TX/Houston/12310-Le-Harv-Ct-77014/home/30727381,HARMLS,94297103,N,Y,29.9672176,-95.4663748
PAST SALE,April-12-2018,Single Family Residential,13302 Addenmoor Ct,Houston,TX,77014,159000,3,2.0,Silverglen North Sec 02,1601,7093,2003,1146,99,44,Sold,,,http://www.redfin.com/TX/Houston/13302-Addenmoor-Ct-77014/home/29230743,HARMLS,16935508,N,Y,29.9775134,-95.4645729
PAST SALE,September-25-2017,Single Family Residential,2631 Chatford Hollow Ln,Houston,TX,77014,156000,3,2.0,Silverglen North Sec 02,1696,6822,2003,1345,92,44,Sold,,,http://www.redfin.com/TX/Houston/2631-Chatford-Hollow-Ln-77014/home/29231539,HARMLS,81208763,N,Y,29.9774887,-95.4640815
PAST SALE,February-28-2018,Single Family Residential,15426 Bammel Fields Ct,Houston,TX,77014,149000,3,2.5,Bammel Village Sec 02 Rep 01,1960,3520,2013,1189,76,31,Sold,,,http://www.redfin.com/TX/Houston/15426-Bammel-Fields-Ct-77014/home/66036676,HARMLS,37189047,N,Y,29.9992795,-95.4638051
PAST SALE,June-6-2018,Single Family Residential,13719 Corrigan Dr,Houston,TX,77014,120000,4,2.0,Sablechase Sec 04 Ph 02,1116,4400,1998,1091,108,33,Sold,,,http://www.redfin.com/TX/Houston/13719-Corrigan-Dr-77014/home/30582708,HARMLS,13253318,N,Y,29.9816712,-95.4685453
PAST SALE,April-27-2017,Single Family Residential,2115 Altman Trl,Houston,TX,77014,177990,3,2.0,Silverglen North,1674,,2016,1496,106,530,Sold,,,http://www.redfin.com/TX/Houston/2115-Altman-Trl-77014/home/109197369,HARMLS,16591602,N,Y,29.9813166,-95.4538376
PAST SALE,September-11-2017,Single Family Residential,3222 Silverchase Mdws,Houston,TX,77014,185990,3,2.0,Silverchase,1671,,2017,1359,111,29,Sold,,,http://www.redfin.com/TX/Houston/3222-Silverchase-Meadows-Dr-77014/home/136142299,HARMLS,89249704,N,Y,29.9801691,-95.4635858
PAST SALE,November-17-2017,Single Family Residential,13007 Candlewood Glen Ln,Houston,TX,77014,140000,3,2.0,Silverglen North,1420,6000,2004,1292,99,530,Sold,,,http://www.redfin.com/TX/Houston/13007-Candlewood-Glen-Ln-77014/home/29291473,HARMLS,17781534,N,Y,29.9780668,-95.4599047
PAST SALE,September-22-2017,Single Family Residential,12706 Laurel Falls Ln,Houston,TX,77014,205000,5,3.5,Laurel Oaks Sec 7,3935,6900,2003,1348,52,33,Sold,,,http://www.redfin.com/TX/Houston/12706-Laurel-Falls-Ln-77014/home/29202021,HARMLS,82615754,N,Y,29.9716764,-95.4570999
PAST SALE,June-29-2018,Condo/Co-op,14355 Torrey Chase Blvd Unit E,Houston,TX,77014,65000,0,0.5,Northchase Park Sec 01,888,145112,1982,1068,73,250,Sold,,,http://www.redfin.com/TX/Houston/14355-Torrey-Chase-Blvd-77014/unit-E/home/145075126,HARMLS,85102459,N,Y,29.9843263,-95.4917394
PAST SALE,April-10-2018,Single Family Residential,14318 Torrey Vista Dr,Houston,TX,77014,195000,4,2.5,Torrey Pines Sec 01,2392,7475,1991,1148,82,52,Sold,,,http://www.redfin.com/TX/Houston/14318-Torrey-Vista-Dr-77014/home/30496730,HARMLS,32525579,N,Y,29.9836773,-95.4852978
PAST SALE,May-22-2018,Single Family Residential,14606 Treborway Dr,Houston,TX,77014,247500,4,2.5,Torrey Pines Sec 01 Amd,3417,7850,1999,1106,72,52,Sold,,,http://www.redfin.com/TX/Houston/14606-Treborway-Dr-77014/home/30496630,HARMLS,17131744,N,Y,29.9864908,-95.4847652
PAST SALE,July-3-2018,Single Family Residential,4238 Tasselwood Ln,Houston,TX,77014,220000,4,3.5,Hambledon Sec 02,3174,7475,1994,1064,69,40,Sold,,,http://www.redfin.com/TX/Houston/4238-Tasselwood-Ln-77014/home/30534422,HARMLS,59283228,N,Y,29.9808737,-95.4877558
PAST SALE,September-5-2017,Single Family Residential,4203 Bridledon Ln,Houston,TX,77014,169900,3,2.0,Hambledon Sec 01,2235,9280,1983,1365,76,38,Sold,,,http://www.redfin.com/TX/Houston/4203-Bridledon-Ln-77014/home/30541240,HARMLS,59244142,N,Y,29.977714,-95.4874076
PAST SALE,May-27-2017,Single Family Residential,4218 Bridledon Ln,Houston,TX,77014,117000,3,2.0,Hambledon Sec 01,1775,6600,1983,1466,66,470,Sold,,,http://www.redfin.com/TX/Houston/4218-Bridledon-Ln-77014/home/30541132,HARMLS,62617068,N,Y,29.978431,-95.4874895
PAST SALE,December-27-2017,Condo/Co-op,3770 Lovers Wood Ln #904,Houston,TX,77014,58000,2,1.0,Raveneaux Forest Condos,960,104940,1983,1252,60,260,Sold,,,http://www.redfin.com/TX/Houston/3770-Loverswood-Dr-77014/unit-904/home/30561989,HARMLS,69586870,N,Y,29.990863,-95.482832
PAST SALE,June-30-2017,Single Family Residential,13219 Beechdale Ct,Houston,TX,77014,189000,4,2.5,Silverglen North Sec 9,3114,9319,2008,1432,61,,Sold,,,http://www.redfin.com/TX/Houston/13219-Beechdale-Ct-77014/home/29608112,HARMLS,96664670,N,Y,29.9790762,-95.4616246
PAST SALE,,Single Family Residential,13808 Sableglen,Houston,TX,77014,,3,2.0,,1389,7316,1993,,,,Sold,,,http://www.redfin.com/TX/Houston/13808-Sableglen-St-77014/home/30558867,HARMLS,,N,Y,29.9816439,-95.4727748
PAST SALE,September-14-2017,Single Family Residential,2227 Weathersfield Trace Cir,Houston,TX,77014,185000,4,2.5,Silverglen North,2297,6492,2014,1356,81,44,Sold,,,http://www.redfin.com/TX/Houston/2227-Weathersfield-Trace-Cir-77014/home/53483321,HARMLS,90900514,N,Y,29.9805947,-95.4575708
PAST SALE,July-5-2018,Single Family Residential,12610 Sandlewood Creek Trl,Houston,TX,77014,203990,4,2.0,Silverglen North,1975,,2018,1062,103,44,Sold,,,http://www.redfin.com/TX/Houston/12610-Sandlewood-Creek-Trl-77014/home/148039717,HARMLS,38539632,N,Y,29.9785306,-95.4536669
PAST SALE,November-17-2017,Single Family Residential,13027 Arden Ridge Ln,Houston,TX,77014,180000,3,2.5,Silverglen North Sec 5,2379,6989,2005,1292,76,44,Sold,,,http://www.redfin.com/TX/Houston/13027-Arden-Ridge-Ln-77014/home/29291481,HARMLS,97255682,N,Y,29.9782963,-95.4608875
PAST SALE,September-12-2017,Single Family Residential,14018 Crestbourne Ct,Houston,TX,77014,130000,3,2.0,Glen Abbey,1290,4945,2007,1358,101,400,Sold,,,http://www.redfin.com/TX/Houston/14018-Crestbourne-Ct-77014/home/29579107,HARMLS,67700448,N,Y,29.9852313,-95.4477855
PAST SALE,April-21-2017,Single Family Residential,13907 Tinsley Ct,Houston,TX,77014,170000,4,2.5,Glen Abbey,2534,3908,2009,1502,67,33,Sold,,,http://www.redfin.com/TX/Houston/13907-Tinsley-Ct-77014/home/34201736,HARMLS,80432647,N,Y,29.9844654,-95.4456158
PAST SALE,June-15-2018,Single Family Residential,1727 Thornhollow Dr,Houston,TX,77014,160470,4,2.0,Glen Abbey Sec 5,1558,4402,2013,1082,103,33,Sold,,,http://www.redfin.com/TX/Houston/1727-Thornhollow-Dr-77014/home/34230776,HARMLS,28486607,N,Y,29.9869382,-95.4489727
PAST SALE,July-14-2017,Single Family Residential,13851 Cantwell Dr,Houston,TX,77014,149000,3,2.5,Cranbrook Sec 01,1586,5830,1983,1418,94,400,Sold,,,http://www.redfin.com/TX/Houston/13851-Cantwell-Dr-77014/home/30535660,HARMLS,95765459,N,Y,29.9699942,-95.437306
PAST SALE,October-23-2017,Single Family Residential,13807 Clintway,Houston,TX,77014,160000,4,2.5,Cranbrook,2272,7035,1991,1317,70,25,Sold,,,http://www.redfin.com/TX/Houston/13807-Clintway-Dr-77014/home/30582532,HARMLS,74989243,N,Y,29.9688616,-95.4445719
PAST SALE,,Single Family Residential,12719 Laurel Mist Way,Houston,TX,77014,,4,2.5,,2939,6900,2001,,,,Sold,,,http://www.redfin.com/TX/Houston/12719-Laurel-Mist-Way-77014/home/30726271,HARMLS,,N,Y,29.9722641,-95.4532307
PAST SALE,May-31-2017,Condo/Co-op,3770 Lovers Wood Ln #703,Houston,TX,77014,72000,2,2.0,Raveneaux Forest,1152,,1983,1462,63,288,Sold,,,http://www.redfin.com/TX/Houston/3770-Loverswood-Dr-77014/unit-703/home/30562013,HARMLS,71189340,N,Y,29.990863,-95.482832
PAST SALE,May-5-2017,Single Family Residential,12602 Silver Winter Trl,Houston,TX,77014,171990,3,2.0,Silverglen North,1523,,2016,1488,113,530,Sold,,,http://www.redfin.com/TX/Houston/12602-Silver-Winter-Trl-77014/home/109197078,HARMLS,7945741,N,Y,29.9821501,-95.4533308
PAST SALE,June-21-2016,Single Family Residential,2666 Kiplands Way Dr,Houston,TX,77014,125000,3,2.5,Bammel Village Sec 02 Rep 01,1710,5219,2014,1806,73,366,Sold,,,http://www.redfin.com/TX/Houston/2666-Kiplands-Way-Dr-77014/home/105405387,HARMLS,57738538,N,Y,29.9997525,-95.4667843
PAST SALE,,Single Family Residential,2619 Kiplands Way Dr,Houston,TX,77014,,3,2.5,,1734,3570,2013,,,,Sold,,,http://www.redfin.com/TX/Houston/2619-Kiplands-Way-Dr-77014/home/66036724,HARMLS,,N,Y,29.999947,-95.465351
PAST SALE,November-17-2016,Single Family Residential,13902 Brayford Place Ct,Houston,TX,77014,168900,4,2.5,Glen Abbey,2458,6437,2005,1657,69,400,Sold,,,http://www.redfin.com/TX/Houston/13902-Brayford-Pl-Ct-77014/home/29410721,HARMLS,60997462,N,Y,29.9838883,-95.4426888
PAST SALE,June-29-2017,Single Family Residential,1430 Newmark Dr,Houston,TX,77014,157000,4,2.0,Cranbrook Sec 01,2418,7910,1984,1433,65,35,Sold,,,http://www.redfin.com/TX/Houston/1430-Newmark-Dr-77014/home/30535880,HARMLS,66450748,N,Y,29.969933,-95.4398848
PAST SALE,,Single Family Residential,1622 Newmark,Houston,TX,77014,,4,2.5,,2521,7752,1991,,,,Sold,,,http://www.redfin.com/TX/Houston/1622-Newmark-Dr-77014/home/30582512,HARMLS,,N,Y,29.9712924,-95.4429549
PAST SALE,May-12-2017,Single Family Residential,13915 Elmpark,Houston,TX,77014,185500,4,3.5,Torrey Pines,2208,7940,1999,1481,84,37,Sold,,,http://www.redfin.com/TX/Houston/13915-Elmpark-Ct-77014/home/30674998,HARMLS,27314001,N,Y,29.9844667,-95.4825532
PAST SALE,March-27-2020,Vacant Land,14905 Welcome Ln,Houston,TX,77014,140000,,,H Simmons Surv Abs #745,,31189,,431,,,Sold,,,http://www.redfin.com/TX/Houston/14905-Welcome-Ln-77014/home/144661212,HARMLS,71623141,N,Y,29.9957769,-95.4704354
PAST SALE,December-13-2019,Single Family Residential,1530 Thornhollow Dr,Houston,TX,77014,168000,3,2.0,Glen Abbey,1595,4968,2013,536,105,33,Sold,,,http://www.redfin.com/TX/Houston/1530-Thornhollow-Dr-77014/home/66038824,HARMLS,45075232,N,Y,29.9874048,-95.4463936
PAST SALE,June-13-2019,Single Family Residential,1438 Newmark Dr,Houston,TX,77014,169900,3,2.5,Cranbrook,2138,6968,1984,719,79,33,Sold,,,http://www.redfin.com/TX/Houston/1438-Newmark-Dr-77014/home/30535856,HARMLS,71351953,N,Y,29.9701896,-95.4402123
PAST SALE,March-30-2017,Single Family Residential,14207 Torrey Frst,Houston,TX,77014,249900,4,3.0,Torrey Pines,4128,7590,1990,1524,61,50,Sold,,,http://www.redfin.com/TX/Houston/14207-Torrey-Forest-Dr-77014/home/30496851,HARMLS,97768004,N,Y,29.9819311,-95.485605
PAST SALE,August-22-2018,Vacant Land,0 Welcome,Houston,TX,77014,150000,,,TR 5e-2 Abst 745 H Simmons,,,,1014,,,Sold,,,http://www.redfin.com/TX/Houston/Welcome-77014/home/146457815,HARMLS,46980707,N,Y,29.996338,-95.470626
PAST SALE,November-27-2017,Single Family Residential,2430 Cobbdale Ln,Houston,TX,77014,194900,4,2.5,Silverglen North Sec 5,2481,6878,2005,1282,79,530,Sold,,,http://www.redfin.com/TX/Houston/2430-Cobbdale-Ln-77014/home/29311949,HARMLS,56818342,N,Y,29.9779162,-95.4581031
PAST SALE,May-25-2017,Single Family Residential,2422 Oxford Point Ln,Houston,TX,77014,174900,4,2.5,Silverglen North,2313,6017,2005,1468,76,44,Sold,,,http://www.redfin.com/TX/Houston/2422-Oxford-Point-Ln-77014/home/29312115,HARMLS,47863621,N,Y,29.9770343,-95.4576527
PAST SALE,June-4-2018,Single Family Residential,12302 Chute Forest Dr,Houston,TX,77014,160000,3,2.5,Silver Springs,1914,6118,2006,1093,84,33,Sold,,,http://www.redfin.com/TX/Houston/12302-Chute-Forest-Ct-77014/home/29546805,HARMLS,17133561,N,Y,29.9654755,-95.4769005
PAST SALE,September-29-2017,Single Family Residential,4207 Southchase Ln,Houston,TX,77014,129900,3,2.0,Sableridge Sec 01,1416,6930,1982,1341,92,38,Sold,,,http://www.redfin.com/TX/Houston/4207-Southchase-Ln-77014/home/30495941,HARMLS,33236042,N,Y,29.9712151,-95.4818158
PAST SALE,December-4-2017,Single Family Residential,4242 Tasselwood Ln,Houston,TX,77014,190000,4,2.5,Hambledon Sec 02,2635,7590,1982,1275,72,46,Sold,,,http://www.redfin.com/TX/Houston/4242-Tasselwood-Ln-77014/home/30534421,HARMLS,94960848,N,Y,29.980957,-95.4879196
PAST SALE,June-14-2018,Single Family Residential,3926 Pintan Ln,Houston,TX,77014,150000,3,2.0,Sablechase Sec 01,1088,4815,1983,1083,138,33,Sold,,,http://www.redfin.com/TX/Houston/3926-Pintan-Ln-77014/home/30544667,HARMLS,47380699,N,Y,29.9768935,-95.4795219
PAST SALE,March-5-2018,Single Family Residential,2506 Silvermeadow Dr,Houston,TX,77014,239900,5,3.5,Silverglen Sec 01,3323,10454,1997,1184,72,395,Sold,,,http://www.redfin.com/TX/HOUSTON/2506-SILVERMEADOW-DR-77014/home/30670242,HARMLS,86390914,N,Y,29.972581,-95.461077
PAST SALE,June-9-2017,Single Family Residential,1830 W Laurel Rose Ln,Houston,TX,77014,179900,3,2.5,Laurel Oaks,2406,6300,1997,1453,75,440,Sold,,,http://www.redfin.com/TX/Houston/1830-Laurel-Rose-Ln-77014/home/30674533,HARMLS,66924509,N,Y,29.9702544,-95.4473761
PAST SALE,May-31-2018,Single Family Residential,12415 Silversmine Dr,Houston,TX,77014,219999,5,2.5,Silverglen Sec 03 Amd,3039,5665,2000,1097,72,33,Sold,,,http://www.redfin.com/TX/Houston/12415-Silversmine-Dr-77014/home/30679523,HARMLS,97607655,N,Y,29.9701742,-95.4591267
PAST SALE,July-6-2018,Single Family Residential,12626 British Knoll Ct,Houston,TX,77014,255000,5,3.5,Silverglen Estates Sec 02,3407,9365,1999,1061,75,29,Sold,,,http://www.redfin.com/TX/Houston/12626-British-Knoll-Ct-77014/home/30691878,HARMLS,91476049,N,Y,29.9690512,-95.4574275
PAST SALE,,Single Family Residential,2935 Quail Hawk Dr,Houston,TX,77014,,4,2.5,,2619,7582,2001,,,,Sold,,,http://www.redfin.com/TX/Houston/2935-Quail-Hawk-Dr-77014/home/30727507,HARMLS,,N,Y,29.9689076,-95.467972
PAST SALE,May-30-2018,Single Family Residential,12703 Silver Nobriga Trl,Houston,TX,77014,181990,3,2.0,Silverglen North,1523,,2018,1098,119,44,Sold,,,http://www.redfin.com/TX/Houston/12606-Silver-Nobriga-77014/home/148039707,HARMLS,55244161,N,Y,29.9812779,-95.4544125
PAST SALE,May-31-2018,Single Family Residential,12714 Silver Nobriga Trl,Houston,TX,77014,197990,4,2.0,Silverglen North,1944,5175,2018,1097,102,44,Sold,,,http://www.redfin.com/TX/Houston/12606-Silver-Nobriga-77014/home/148066580,HARMLS,26067552,N,Y,29.9812779,-95.4544125
PAST SALE,June-8-2018,Single Family Residential,12719 Silver Nobriga Trl,Houston,TX,77014,189990,3,2.0,Silverglen North,1674,,2018,1089,113,44,Sold,,,http://www.redfin.com/TX/Houston/12606-Silver-Nobriga-77014/home/148114004,HARMLS,66544916,N,Y,29.9812779,-95.4544125
PAST SALE,January-26-2018,Single Family Residential,13927 Kinsbourne Ct,Houston,TX,77014,180000,4,2.5,Glen Abbey,2457,4950,2006,1222,73,,Sold,,,http://www.redfin.com/TX/Houston/13927-Kinsbourne-Ct-77014/home/29549184,HARMLS,94570460,N,Y,29.9846516,-95.4465573
PAST SALE,,Townhouse,3027 Loganberry Park Ln,Houston,TX,77014,,3,2.5,,1636,2660,2003,,,,Sold,,,http://www.redfin.com/TX/Houston/3027-Loganberry-Park-Ln-77014/home/29133058,HARMLS,,N,Y,29.9960091,-95.4737364
PAST SALE,July-21-2017,Townhouse,2807 Loganberry Park Ln,Houston,TX,77014,113999,3,2.5,Villas of Northpark,1703,2660,2002,1411,67,165,Sold,,,http://www.redfin.com/TX/Houston/2807-Loganberry-Park-Ln-77014/home/29146341,HARMLS,97084303,N,Y,29.99614,-95.472014
PAST SALE,October-20-2017,Townhouse,3127 Palston Bend Ln,Houston,TX,77014,116000,3,2.0,Villas At Northpark Sec 01,1645,2660,2004,1320,71,165,Sold,,,http://www.redfin.com/TX/Houston/3127-Palston-Bend-Ln-77014/home/29219241,HARMLS,30233989,N,Y,29.9951709,-95.4752212
PAST SALE,December-5-2016,Townhouse,14420 Walters Rd #65,Houston,TX,77014,120000,2,2.0,Cornerstone Village North Re,1556,2242,1999,1639,77,268,Sold,,,http://www.redfin.com/TX/Houston/14420-Walters-Rd-77014/unit-65/home/30713637,HARMLS,4896872,N,Y,29.9935592,-95.4825941
PAST SALE,August-2-2019,Vacant Land,000 Mardi Gras Dr,Houston,TX,77014,995000,,,Silverleaf,,231129,,669,,,Sold,,,http://www.redfin.com/TX/Houston/Mardi-Gras-Dr-77014/home/146511608,HARMLS,73798772,N,Y,29.967998,-95.463202
PAST SALE,October-3-2018,Vacant Land,15108 Welcome Ln,Houston,TX,77014,150000,,,H Simmons,,42341,,972,,,Sold,,,http://www.redfin.com/TX/Houston/15108-Welcome-Ln-77014/home/146606709,HARMLS,54792591,N,Y,30.000302,-95.4728432
PAST SALE,January-31-2018,Vacant Land,0 Old Walters Rd,Houston,TX,77014,325000,,,Bortz a,,182455,,1217,,,Sold,,,http://www.redfin.com/TX/Houston/12203-Old-Walters-Rd-77014/home/147238622,HARMLS,9654261,N,Y,29.9654359,-95.4718831
PAST SALE,October-4-2019,Vacant Land,0 Welcome Ln,Houston,TX,77014,175000,,,H Simmons,,43560,,606,,,Sold,,,http://www.redfin.com/TX/HOUSTON/WELCOME-LN-77014/home/148042452,HARMLS,55808117,N,Y,29.999451,-95.472135
PAST SALE,March-6-2020,Vacant Land,4202 Meadowchase Ln,Houston,TX,77014,28000,,,Torrey Pines Sec 01,,9672,,452,,50,Sold,,,http://www.redfin.com/TX/Houston/4202-Meadowchase-Ln-77014/home/30496726,HARMLS,79570682,N,Y,29.984438,-95.485086
PAST SALE,November-2-2017,Single Family Residential,1714 York Creek Dr,Houston,TX,77014,165000,3,2.0,Glen Abbey,1640,4950,2011,1307,101,453,Sold,,,http://www.redfin.com/TX/Houston/1714-York-Creek-Dr-77014/home/43485286,HARMLS,10265177,N,Y,29.9859162,-95.4486452
PAST SALE,March-16-2021,Vacant Land,15000 Bammel North Houston Rd,Houston,TX,77014,660000,,,Cornerstone Village North,,87120,,77,,,Sold,,,http://www.redfin.com/TX/Houston/15000-N-Bammel-Houston-Rd-77014/home/167894473,HARMLS,26028823,N,Y,29.991048,-95.4868663
PAST SALE,February-27-2017,Single Family Residential,2119 Altman Trl,Houston,TX,77014,191990,4,2.0,Silverglen North,1944,,2016,1555,99,530,Sold,,,http://www.redfin.com/TX/Houston/2119-Altman-Trl-77014/home/109197865,HARMLS,89915419,N,Y,29.9812907,-95.4538039
PAST SALE,,Single Family Residential,14023 Crestbourne Ct,Houston,TX,77014,,3,2.5,,1544,4950,2016,,,,Sold,,,http://www.redfin.com/TX/Houston/14023-Crestbourne-Ct-77014/home/43511690,HARMLS,,N,Y,29.9853694,-95.4482563
PAST SALE,,Single Family Residential,12507 Silverwyck Dr,Houston,TX,77014,,4,2.5,,2627,6300,1999,,,,Sold,,,http://www.redfin.com/TX/Houston/12507-Silverwyck-Dr-77014/home/30679567,HARMLS,,N,Y,29.9708618,-95.4610103
PAST SALE,November-15-2016,Single Family Residential,1531 Plumwood Dr,Houston,TX,77014,148900,3,2.5,Cranbrook Sec 01,,10781,1984,1659,,400,Sold,,,http://www.redfin.com/TX/Houston/1531-Plumwood-Dr-77014/home/30535801,HARMLS,62788992,N,Y,29.9708696,-95.4411947
PAST SALE,January-31-2017,Single Family Residential,13726 Sable Ln,Houston,TX,77014,139900,4,2.0,Sableridge,1956,12530,1981,1582,72,35,Sold,,,http://www.redfin.com/TX/Houston/13726-Sable-Ln-77014/home/30496196,HARMLS,94912587,N,Y,29.9763633,-95.4874076
PAST SALE,,Townhouse,14420 Walters Rd #26,Houston,TX,77014,,4,2.5,,2010,2156,1998,,,,Sold,,,http://www.redfin.com/TX/Houston/14420-Walters-Rd-77014/unit-26/home/30684522,HARMLS,,N,Y,29.9935592,-95.4825941
PAST SALE,November-16-2016,Single Family Residential,3358 Tenaha Dr,Houston,TX,77014,129000,3,2.0,Sablechase,1442,6386,1999,1658,89,32,Sold,,,http://www.redfin.com/TX/Houston/3358-Tenaha-Dr-77014/home/30582672,HARMLS,39317264,N,Y,29.9831978,-95.469733
PAST SALE,,Single Family Residential,14215 Torrey Vista Dr,Houston,TX,77014,,4,2.5,,2540,7590,1989,,,,Sold,,,http://www.redfin.com/TX/Houston/14215-Torrey-Vista-Dr-77014/home/30496805,HARMLS,,N,Y,29.9825108,-95.486281
PAST SALE,August-30-2018,Single Family Residential,12510 Silverwood Sands Ct,Houston,TX,77014,210744,4,2.5,Silverglen North,2153,,2018,1006,98,44,Sold,,,http://www.redfin.com/TX/Houston/12510-Silverwood-Sands-Ct-77014/home/167844170,HARMLS,98821875,N,Y,29.980134,-95.453128
PAST SALE,October-31-2017,Single Family Residential,1714 Ridgebriar,Houston,TX,77014,163500,3,2.0,Cranbrook,1808,,1993,1309,90,400,Sold,,,http://www.redfin.com/TX/Houston/1714-Ridgebriar-Dr-77014/home/30582145,HARMLS,51467824,N,Y,29.9728647,-95.4435894
PAST SALE,August-5-2016,Condo/Co-op,14420 Walters Rd #63,Houston,TX,77014,149800,3,2.5,Cornerstone Village North 02,2002,2132,1998,1761,75,269,Sold,,,http://www.redfin.com/TX/Houston/14420-Walters-Rd-77014/unit-63/home/30697980,HARMLS,11280984,N,Y,29.9935592,-95.4825941
PAST SALE,March-15-2017,Single Family Residential,4135 Valedon Ln,Houston,TX,77014,160000,3,2.0,Hambledon Sec 03 Amd,1959,7044,1994,1539,82,42,Sold,,,http://www.redfin.com/TX/Houston/4135-Valedon-Ln-77014/home/30649953,HARMLS,86778978,N,Y,29.9781801,-95.4864858
PAST SALE,,Single Family Residential,2914 Quail Hawk Dr,Houston,TX,77014,,4,2.5,,2214,5954,2001,,,,Sold,,,http://www.redfin.com/TX/Houston/2914-Quail-Hawk-Dr-77014/home/30727494,HARMLS,,N,Y,29.9693985,-95.4669891
PAST SALE,,Single Family Residential,12730 Mardi Gras,Houston,TX,77014,,4,2.5,,2610,6655,2002,,,,Sold,,,http://www.redfin.com/TX/Houston/12730-Mardi-Gras-Dr-77014/home/30727611,HARMLS,,N,Y,29.9733518,-95.4704702
PAST SALE,,Single Family Residential,12511 Waterfowl,Houston,TX,77014,,4,2.5,,2845,6045,2001,,,,Sold,,,http://www.redfin.com/TX/Houston/12511-Waterfowl-Ct-77014/home/30727421,HARMLS,,N,Y,29.9711492,-95.4676648
PAST SALE,,Single Family Residential,2503 Atwood Glen Ln,Houston,TX,77014,,4,2.0,,2370,8485,2003,,,,Sold,,,http://www.redfin.com/TX/Houston/2503-Atwood-Glen-Ln-77014/home/29230802,HARMLS,,N,Y,29.9761425,-95.4596181
PAST SALE,August-28-2016,Single Family Residential,1335 Clear Valley Dr,Houston,TX,77014,129500,3,2.0,Cranbrook Sec 01,1978,7228,1992,1738,65,33,Sold,,,http://www.redfin.com/TX/Houston/1335-Clear-Valley-Dr-77014/home/30535635,HARMLS,10935935,N,Y,29.9682481,-95.4370605
PAST SALE,November-23-2016,Single Family Residential,2614 Kiplands Way Dr,Houston,TX,77014,129000,4,2.0,Bammel Village Sec 02 Rep 01,2012,3570,2013,1651,64,366,Sold,,,http://www.redfin.com/TX/Houston/2614-Kiplands-Way-Dr-77014/home/66036713,HARMLS,91029799,N,Y,30.0003303,-95.465607
PAST SALE,,Single Family Residential,2714 Marigny Dr,Houston,TX,77014,,4,2.0,,1608,5397,2008,,,,Sold,,,http://www.redfin.com/TX/Houston/2714-Marigny-Dr-77014/home/29548781,HARMLS,,N,Y,29.9687779,-95.4624026
PAST SALE,,Single Family Residential,12503 Laurel Meadow Way,Houston,TX,77014,,4,2.5,,2873,7587,1999,,,,Sold,,,http://www.redfin.com/TX/Houston/12503-Laurel-Meadow-Way-77014/home/30683602,HARMLS,,N,Y,29.9696051,-95.4543771
PAST SALE,June-6-2016,Single Family Residential,2423 Atwood Gln,Houston,TX,77014,179500,4,2.5,Silverglen North,2562,6908,2004,1821,70,530,Sold,,,http://www.redfin.com/TX/Houston/2423-Atwood-Glen-Ln-77014/home/29230830,HARMLS,65960052,N,Y,29.9763558,-95.4599047
PAST SALE,July-15-2016,Single Family Residential,4206 Riverchase Ln,Houston,TX,77014,147000,4,2.5,Torrey Pines Sec 01,2669,7705,1982,1782,55,575,Sold,,,http://www.redfin.com/TX/Houston/4206-Riverchase-Ln-77014/home/30496753,HARMLS,91931314,N,Y,29.9845751,-95.4864448
PAST SALE,,Single Family Residential,1607 Plumwood Dr,Houston,TX,77014,,3,2.0,,1729,5250,1993,,,,Sold,,,http://www.redfin.com/TX/Houston/1607-Plumwood-Dr-77014/home/30535862,HARMLS,,N,Y,29.9712411,-95.4420134
PAST SALE,November-22-2016,Single Family Residential,3303 Monza Dr,Houston,TX,77014,117500,3,2.0,Sablechase Sec 04 Ph 01,1190,4200,1995,1652,99,385,Sold,,,http://www.redfin.com/TX/Houston/3303-Monza-Dr-77014/home/30582614,HARMLS,21625777,N,Y,29.9801759,-95.4655148
PAST SALE,December-28-2016,Single Family Residential,3363 Monza Dr,Houston,TX,77014,110000,3,2.5,Sablechase Sec 04 Ph 01,1013,4200,1984,1616,109,32,Sold,,,http://www.redfin.com/TX/Houston/3363-Monza-Dr-77014/home/30582605,HARMLS,93063077,N,Y,29.9792976,-95.4671529
PAST SALE,November-23-2016,Single Family Residential,12610 Silver Winter Trl,Houston,TX,77014,210286,4,2.0,Silverglen North,2786,,2016,1651,75,530,Sold,,,http://www.redfin.com/TX/Houston/12610-Silver-Winter-Trl-77014/home/144618866,HARMLS,22486713,N,Y,29.9821457,-95.453615
PAST SALE,September-14-2016,Single Family Residential,14111 Sableridge Dr,Houston,TX,77014,169789,4,2.5,Hambledon Sec 02,2750,7245,1993,1721,62,50,Sold,,,http://www.redfin.com/TX/Houston/14111-Sableridge-Dr-77014/home/30534556,HARMLS,83663588,N,Y,29.9800348,-95.4841098
PAST SALE,July-23-2018,Single Family Residential,12531 Silverwood Springs Pl,Houston,TX,77014,200139,3,2.0,Silverglen North,1796,,2017,1044,111,44,Sold,,,http://www.redfin.com/TX/Houston/12531-SIlverwood-Springs-Pl-77014/home/167844166,HARMLS,25101861,N,Y,29.980478,-95.453321
PAST SALE,,Single Family Residential,4254 Meadowchase Ln,Houston,TX,77014,,4,3.0,,2934,8000,1991,,,,Sold,,,http://www.redfin.com/TX/Houston/4254-Meadowchase-Ln-77014/home/30496714,HARMLS,,N,Y,29.9856415,-95.4873256
PAST SALE,December-20-2016,Single Family Residential,13822 Dentwood Dr,Houston,TX,77014,148500,3,2.5,Cranbrook,2013,5512,1990,1624,74,300,Sold,,,http://www.redfin.com/TX/Houston/13822-Dentwood-Dr-77014/home/30535675,HARMLS,23942734,N,Y,29.9693187,-95.437306
PAST SALE,September-11-2018,Single Family Residential,4251 Meadowchase Ln,Houston,TX,77014,149900,4,2.5,Torrey Pines Sec 01,2510,7245,1992,994,60,46,Sold,,,http://www.redfin.com/TX/Houston/4251-Meadowchase-Ln-77014/home/30496712,HARMLS,53929360,N,Y,29.9852146,-95.4873051
PAST SALE,September-28-2017,Single Family Residential,14115 Brayford Place Dr,Houston,TX,77014,179000,4,2.5,Glen Abbey,2852,5531,2009,1342,63,400,Sold,,,http://www.redfin.com/TX/Houston/14115-Brayford-Pl-Dr-77014/home/34201751,HARMLS,47379149,N,Y,29.9861386,-95.4443467
PAST SALE,February-23-2018,Single Family Residential,12323 Misty Laurel Dr,Houston,TX,77014,175000,3,2.5,Laurel Oaks Sec 01,2474,7122,1985,1194,71,40,Sold,,,http://www.redfin.com/TX/Houston/12323-Misty-Laurel-Dr-77014/home/30594920,HARMLS,2510860,N,Y,29.9671602,-95.4514292
PAST SALE,September-11-2018,Single Family Residential,1307 Clear Valley Dr,Houston,TX,77014,120000,3,2.0,Cranbrook Sec 01,1563,6650,1984,994,77,32,Sold,,,http://www.redfin.com/TX/Houston/1307-Clear-Valley-Dr-77067/home/30535627,HARMLS,43359791,N,Y,29.9682053,-95.4359144
PAST SALE,October-26-2017,Single Family Residential,12635 Ashlynn Creek Trl,Houston,TX,77014,243990,5,3.5,Silverglen North,2883,,2016,1314,85,530,Sold,,,http://www.redfin.com/TX/Houston/12635-Ashlynn-Creek-Trl-77014/home/109202957,HARMLS,91220484,N,Y,29.977433,-95.4543946
PAST SALE,April-13-2018,Single Family Residential,2714 Glenfield Manor Ln,Houston,TX,77014,234990,4,2.5,Silverglen North,2453,6600,2016,1145,96,44,Sold,,,http://www.redfin.com/TX/Houston/2714-Glenfield-Manor-Ln-77014/home/144618881,HARMLS,57923846,N,Y,29.9756934,-95.464429
PAST SALE,December-29-2017,Single Family Residential,2303 Cobbdale Ln,Houston,TX,77014,165900,3,2.0,Silverglen North Sec 05,1806,6194,2005,1250,92,44,Sold,,,http://www.redfin.com/TX/Houston/2303-Cobbdale-Ln-77014/home/29311985,HARMLS,2663920,N,Y,29.9793969,-95.4582259
PAST SALE,September-14-2017,Single Family Residential,13910 Bentpath Dr,Houston,TX,77014,194500,3,2.5,Torrey Pines,2541,8956,1999,1356,77,39,Sold,,,http://www.redfin.com/TX/Houston/13910-Bentpath-Dr-77014/home/30675033,HARMLS,59416491,N,Y,29.9833889,-95.4792352
PAST SALE,January-29-2018,Single Family Residential,15439 Bammel Oaks,Houston,TX,77014,142500,3,2.5,Bammel Village,1418,3357,2013,1219,100,31,Sold,,,http://www.redfin.com/TX/Houston/15439-Bammel-Oaks-Ct-77014/home/66036807,HARMLS,23783885,N,Y,29.9980978,-95.4654329
PAST SALE,May-24-2018,Single Family Residential,13707 Stabledon Dr,Houston,TX,77014,199950,4,2.5,Hambledon Sec 03 Amd,2528,7566,1994,1104,79,38,Sold,,,http://www.redfin.com/TX/Houston/13707-Stabledon-Dr-77014/home/30649982,HARMLS,76729061,N,Y,29.9766697,-95.4859942
PAST SALE,July-29-2016,Single Family Residential,3318 Allington Ct,Houston,TX,77014,158900,3,2.0,Silver Spgs Sec 01,1540,5281,2006,1768,103,350,Sold,,,http://www.redfin.com/TX/Houston/3318-Allington-Ct-77014/home/29499247,HARMLS,94532621,N,Y,29.9652418,-95.4771053
PAST SALE,November-10-2016,Single Family Residential,13911 Dentwood,Houston,TX,77014,149900,3,2.5,Cranbrook,1561,5202,1992,1664,96,33,Sold,,,http://www.redfin.com/TX/Houston/13911-Dentwood-Dr-77014/home/30535741,HARMLS,26924723,N,Y,29.9700479,-95.4384624
PAST SALE,,Single Family Residential,13511 N Peachfield Cir,Houston,TX,77014,,4,2.0,,1567,10120,1982,,,,Sold,,,http://www.redfin.com/TX/Houston/13511-N-Peachfield-Cir-77014/home/30496019,HARMLS,,N,Y,29.9734721,-95.4849291
PAST SALE,November-21-2017,Single Family Residential,12310 Mardi Gras Dr,Houston,TX,77014,174500,3,2.0,Silverglen West,1709,6347,2002,1288,102,33,Sold,,,http://www.redfin.com/TX/Houston/12310-Mardi-Gras-Dr-77014/home/30727505,HARMLS,94125134,N,Y,29.9685558,-95.4677672
PAST SALE,August-31-2017,Townhouse,3339 Atherton Canyon Ln,Houston,TX,77014,118800,3,2.5,Villas at Northpark Sec 02,1683,3292,2005,1370,71,165,Sold,,,http://www.redfin.com/TX/Houston/3339-Atherton-Canyon-Ln-77014/home/29259891,HARMLS,86589946,N,Y,29.99311,-95.476446
PAST SALE,September-6-2017,Single Family Residential,12651 Silver Winter Trl,Houston,TX,77014,174990,3,2.0,Silverglen North,1523,,2017,1364,115,44,Sold,,,http://www.redfin.com/TX/Houston/12651-Silver-Winter-Trl-77014/home/117800397,HARMLS,57844145,N,Y,29.9817459,-95.4549659
PAST SALE,December-29-2017,Single Family Residential,3234 Silverchase Mdws,Houston,TX,77014,209153,4,2.5,Silverchase,2140,,2017,1250,98,29,Sold,,,http://www.redfin.com/TX/Houston/3234-Silverchase-Meadows-Dr-77014/home/136254201,HARMLS,57841104,N,Y,29.9799491,-95.4639866
PAST SALE,April-30-2018,Single Family Residential,2339 Altman Trl,Houston,TX,77014,206546,4,2.5,Silverglen North,2153,,2017,1128,96,44,Sold,,,http://www.redfin.com/TX/Houston/2339-Altman-Trl-77014/home/144029392,HARMLS,10221714,N,Y,29.97771,-95.452774
PAST SALE,March-27-2018,Single Family Residential,12655 Ashlynn Crk,Houston,TX,77014,231990,4,2.5,Silverglen North,2593,,2017,1162,89,44,Sold,,,http://www.redfin.com/TX/Houston/12655-Ashlynn-Creek-Trl-77014/home/147746583,HARMLS,86458340,N,Y,29.9776204,-95.4552651
PAST SALE,May-30-2018,Single Family Residential,12710 Silver Nobriga Trl,Houston,TX,77014,181990,3,2.0,Silverglen North,1523,,2017,1098,119,44,Sold,,,http://www.redfin.com/TX/Houston/12606-Silver-Nobriga-77014/home/148039712,HARMLS,67560221,N,Y,29.9812779,-95.4544125
PAST SALE,September-26-2017,Single Family Residential,13907 Crestbourne Ct,Houston,TX,77014,169900,5,2.5,Glen Abbey,2351,3990,2008,1344,72,33,Sold,,,http://www.redfin.com/TX/Houston/13907-Crestbourne-Ct-77014/home/29599610,HARMLS,92869118,N,Y,29.9840153,-95.4483382
PAST SALE,December-8-2017,Single Family Residential,13202 Barrow Point Ln,Houston,TX,77014,190000,4,2.5,Silverglen North Sec 02,2654,12747,2003,1271,72,44,Sold,,,http://www.redfin.com/TX/Houston/13202-Barrow-Point-Ln-77014/home/29148524,HARMLS,68728669,N,Y,29.9774773,-95.4610922
PAST SALE,,Townhouse,3010 Loganberry Park Ln,Houston,TX,77014,,3,2.5,,1636,2716,2003,,,,Sold,,,http://www.redfin.com/TX/Houston/3010-Loganberry-Park-Ln-77014/home/29219402,HARMLS,,N,Y,29.9965427,-95.4736238
PAST SALE,June-16-2017,Townhouse,2938 Loganberry Park,Houston,TX,77014,109895,3,2.5,Villas AT Northpark Sec 1,1423,2716,2003,1446,77,165,Sold,,,http://www.redfin.com/TX/Houston/2938-Loganberry-Park-Ln-77014/home/29146415,HARMLS,49606954,N,Y,29.9967264,-95.4732654
PAST SALE,December-28-2016,Townhouse,14327 Mirkwood Ln,Houston,TX,77014,109000,3,2.0,Villas At Northpark Sec 01,1683,2707,2004,1616,65,,Sold,,,http://www.redfin.com/TX/Houston/14327-Mirkwood-Ln-77014/home/29219341,HARMLS,59821604,N,Y,29.9949662,-95.4747297
PAST SALE,August-14-2017,Townhouse,14343 Mirkwood Ln,Houston,TX,77014,110000,3,2.5,Villas At Northpark,1651,2701,2004,1387,67,165,Sold,,,http://www.redfin.com/TX/Houston/14343-Mirkwood-Ln-77014/home/29219337,HARMLS,93844746,N,Y,29.9952278,-95.4749344
PAST SALE,May-19-2017,Single Family Residential,4130 E Peachfield Cir,Houston,TX,77014,124900,3,2.0,Sableridge,1433,,1982,1474,87,400,Sold,,,http://www.redfin.com/TX/Houston/4130-E-Peachfield-Cir-77014/home/30496060,HARMLS,4584717,N,Y,29.9735964,-95.4819387
PAST SALE,June-6-2017,Single Family Residential,13734 Sablegrove Ln,Houston,TX,77014,110000,3,2.0,Sableridge Sec 01,1573,6944,1983,1456,70,,Sold,,,http://www.redfin.com/TX/Houston/13734-Sablegrove-Ln-77014/home/30496928,HARMLS,6280430,N,Y,29.9758359,-95.4800544
PAST SALE,July-29-2016,Single Family Residential,4211 Torrey Creek Ln,Houston,TX,77014,183500,3,2.0,Torrey Pines Sec 01,2438,7772,1994,1768,75,50,Sold,,,http://www.redfin.com/TX/Houston/4211-Torrey-Creek-Ln-77014/home/30496900,HARMLS,98906538,N,Y,29.9809545,-95.4868955
PAST SALE,June-30-2017,Single Family Residential,14010 Bridlechase Ln,Houston,TX,77014,165000,3,2.0,Hambledon,1970,6900,1993,1432,84,45,Sold,,,http://www.redfin.com/TX/Houston/14010-Bridlechase-Ln-77014/home/30541159,HARMLS,57201742,N,Y,29.9801643,-95.4885751
PAST SALE,May-5-2017,Single Family Residential,4018 Reinald Rd,Houston,TX,77014,155000,3,2.0,Briarchase,1642,6300,1998,1488,94,40,Sold,,,http://www.redfin.com/TX/Houston/4018-Reinald-Rd-77014/home/30679160,HARMLS,36494150,N,Y,29.9785118,-95.4806689
PAST SALE,,Single Family Residential,1522 Rushworth Dr,Houston,TX,77014,,3,2.0,,1788,7006,1983,,,,Sold,,,http://www.redfin.com/TX/Houston/1522-Rushworth-Dr-77014/home/30534971,HARMLS,,N,Y,29.9721027,-95.4397445
PAST SALE,January-13-2017,Single Family Residential,1535 Rushworth Dr,Houston,TX,77014,139900,3,2.5,Cranbrook Sec 01,2188,5724,1983,1600,64,400,Sold,,,http://www.redfin.com/TX/Houston/1535-Rushworth-Dr-77014/home/30535754,HARMLS,64924499,N,Y,29.9721174,-95.4404169
PAST SALE,July-18-2016,Single Family Residential,13803 Sandover Dr,Houston,TX,77014,144000,4,2.5,Cranbrook,2272,8848,1988,1779,63,33,Sold,,,http://www.redfin.com/TX/Houston/13803-Sandover-Dr-77014/home/30582426,HARMLS,95195336,N,Y,29.9689863,-95.4420953
PAST SALE,,Single Family Residential,1719 Newmark Dr,Houston,TX,77014,,4,3.5,,2318,6300,2015,,,,Sold,,,http://www.redfin.com/TX/Houston/1719-Newmark-Dr-77014/home/30582473,HARMLS,,N,Y,29.9710216,-95.4440602
PAST SALE,June-30-2016,Single Family Residential,1623 Kriswood,Houston,TX,77014,156000,3,2.0,Cranbrook Sec 02 Prcl R/p,1844,7434,1991,1797,85,275,Sold,,,http://www.redfin.com/TX/Houston/1623-Kriswood-Dr-77014/home/30582570,HARMLS,13700997,N,Y,29.970253,-95.4435894
PAST SALE,July-31-2016,Single Family Residential,1727 Rushworth Dr,Houston,TX,77014,145000,4,2.0,Cranbrook Sec 2,1746,6510,2000,1766,83,33,Sold,,,http://www.redfin.com/TX/Houston/1727-Rushworth-Dr-77014/home/30582163,HARMLS,48125654,N,Y,29.9731413,-95.4439783
PAST SALE,August-22-2017,Single Family Residential,1911 NW Laurel Bough Ln,Houston,TX,77014,169950,4,2.5,Laurel Oaks,2418,7000,1996,1379,70,400,Sold,,,http://www.redfin.com/TX/Houston/1911-Laurel-Bough-Ln-77014/home/30609548,HARMLS,23883690,N,Y,29.9690882,-95.4483587
PAST SALE,July-31-2017,Single Family Residential,1622 Ridgebriar,Houston,TX,77014,147000,3,2.0,Cranbrook Sec 2 Par R/p,1594,6625,1993,1401,92,,Sold,,,http://www.redfin.com/TX/Houston/1622-Ridgebriar-Dr-77014/home/30582136,HARMLS,9632377,N,Y,29.9725436,-95.4420953
PAST SALE,,Single Family Residential,12659 Ashlynn Creek Trl,Houston,TX,77014,,4,2.5,,2547,11558,2016,,,,Sold,,,http://www.redfin.com/TX/Houston/12659-Ashlynn-Creek-Trl-77014/home/109202432,HARMLS,,N,Y,29.9777575,-95.4554919
PAST SALE,December-30-2016,Single Family Residential,2218 Weathersfield Trace Cir,Houston,TX,77014,153000,4,2.0,Silverglen North Sec 8,1786,6094,2014,1614,86,44,Sold,,,http://www.redfin.com/TX/Houston/2218-Weathersfield-Trace-Cir-77014/home/109207131,HARMLS,93049984,N,Y,29.9810331,-95.4578574
PAST SALE,November-16-2016,Single Family Residential,2318 Oxford Point Ln,Houston,TX,77014,174900,4,2.5,Silverglen North Sec 05,2601,5877,2005,1658,67,44,Sold,,,http://www.redfin.com/TX/Houston/2318-Oxford-Point-Ln-77014/home/29291364,HARMLS,91225156,N,Y,29.978487,-95.457366
PAST SALE,August-29-2016,Single Family Residential,2423 Oxford Point Ln,Houston,TX,77014,139700,5,2.5,Silverglen North Sec 5,2312,6163,2006,1737,60,,Sold,,,http://www.redfin.com/TX/Houston/2423-Oxford-Point-Ln-77014/home/29311963,HARMLS,72393543,N,Y,29.9770096,-95.4571613
PAST SALE,,Single Family Residential,13214 Arden Ridge Ln,Houston,TX,77014,,3,2.5,,2619,5680,2007,,,,Sold,,,http://www.redfin.com/TX/Houston/13214-Arden-Ridge-Ln-77014/home/29500228,HARMLS,,N,Y,29.9799077,-95.4600276
PAST SALE,September-28-2016,Single Family Residential,2103 Laurel Land Ln,Houston,TX,77014,159900,4,2.0,Laurel Oaks Sec 01,1845,10388,1986,1707,87,440,Sold,,,http://www.redfin.com/TX/Houston/2103-Laurel-Land-Ln-77014/home/30594948,HARMLS,35756472,N,Y,29.9660531,-95.4509788
PAST SALE,,Single Family Residential,2314 Hyland Park,Houston,TX,77014,,4,2.5,,2979,8409,1999,,,,Sold,,,http://www.redfin.com/TX/Houston/2314-Hyland-Park-77014/home/30691820,HARMLS,,N,Y,29.968042,-95.455155
PAST SALE,,Single Family Residential,2303 Hyland Park,Houston,TX,77014,,3,2.0,,2396,9540,1999,,,,Sold,,,http://www.redfin.com/TX/Houston/2303-Hyland-Park-77014/home/30691810,HARMLS,,N,Y,29.9675314,-95.4555235
PAST SALE,,Single Family Residential,12723 Laurel Mist Way,Houston,TX,77014,,3,2.0,,1722,6807,2001,,,,Sold,,,http://www.redfin.com/TX/Houston/12723-Laurel-Mist-Way-77014/home/30726268,HARMLS,,N,Y,29.9724425,-95.4532716
PAST SALE,August-12-2016,Single Family Residential,12634 Colony Hill Ln,Houston,TX,77014,199900,4,3.0,Silverglen North,2707,6555,2006,1754,74,44,Sold,,,http://www.redfin.com/TX/Houston/12634-Colony-Hill-Ln-77014/home/29314206,HARMLS,32188435,N,Y,29.9756645,-95.455933
PAST SALE,May-15-2018,Single Family Residential,2506 Bisbane Dr,Houston,TX,77014,195000,3,2.0,Silverglen Estates Sec 01,1815,8865,1998,1113,107,33,Sold,,,http://www.redfin.com/TX/Houston/2506-Bisbane-Dr-77014/home/30680990,HARMLS,88109193,N,Y,29.9688566,-95.4594134
PAST SALE,January-3-2018,Single Family Residential,12707 Laurel Bank Way,Houston,TX,77014,178000,4,2.0,Laurel Oaks Sec 06,2282,6938,2001,1245,78,40,Sold,,,http://www.redfin.com/TX/Houston/12707-Laurel-Bank-Way-77014/home/30726291,HARMLS,50521847,N,Y,29.9718198,-95.4514497
PAST SALE,June-9-2016,Vacant Land,0 Walters,Houston,TX,77014,1399900,,,Schuell Jno,,689554,,1818,,,Sold,,,http://www.redfin.com/TX/HOUSTON/WALTERS-RD-77014/home/107374226,HARMLS,38318045,N,Y,29.984439,-95.479086
PAST SALE,August-15-2017,Condo/Co-op,14359 Torrey Chase Unit C,Houston,TX,77014,99000,0,0.5,Atelier at Northchase,1200,,1977,1386,83,414,Sold,,,http://www.redfin.com/TX/Houston/14359-Torrey-Chase-Blvd-77014/unit-C/home/113868431,HARMLS,9514798,N,Y,29.9843655,-95.4917608
PAST SALE,August-29-2016,Single Family Residential,14022 Brayford Place Dr,Houston,TX,77014,169900,4,2.5,Glen Abbey Sec 01,2216,5123,2008,1737,77,33,Sold,,,http://www.redfin.com/TX/Houston/14022-Brayford-Pl-Dr-77014/home/29410693,HARMLS,36512574,N,Y,29.9857756,-95.4433233
PAST SALE,,Single Family Residential,3758 Varla Ln,Houston,TX,77014,,2,1.0,,888,4400,1983,,,,Sold,,,http://www.redfin.com/TX/Houston/3758-Varla-Ln-77014/home/30562734,HARMLS,,N,Y,29.976152,-95.4746068
PAST SALE,May-12-2017,Single Family Residential,12618 Silverglen Estates Dr,Houston,TX,77014,229995,4,3.5,Silverglen Estates Sec 01,3300,13169,1998,1481,70,33,Sold,,,http://www.redfin.com/TX/Houston/12618-Silverglen-Estates-Dr-77014/home/30681018,HARMLS,90369834,N,Y,29.9698103,-95.4570385
PAST SALE,,Single Family Residential,3922 Pintan Ln,Houston,TX,77014,,2,1.0,,888,4950,1983,,,,Sold,,,http://www.redfin.com/TX/Houston/3922-Pintan-Ln-77014/home/30544666,HARMLS,,N,Y,29.9768986,-95.4793991
PAST SALE,January-6-2017,Single Family Residential,12731 Canterbury Dr,Houston,TX,77014,166000,3,2.0,Silverglen Estates Sec 01,2031,7540,1998,1607,82,21,Sold,,,http://www.redfin.com/TX/Houston/12731-Canterbury-Dr-77014/home/30681027,HARMLS,34637540,N,Y,29.9706499,-95.4585125
PAST SALE,,Single Family Residential,12812 Discipline Ave,Houston,TX,77014,,3,2.0,,1170,2691,2005,,,,Sold,,,http://www.redfin.com/TX/Houston/12812-Discipline-Ave-77014/home/29187006,HARMLS,,N,Y,29.9727827,-95.4733371
PAST SALE,May-31-2017,Single Family Residential,2239 Laurel Birch Dr,Houston,TX,77014,157500,3,2.0,Laurel Oaks Sec 07,1713,8160,2002,1462,92,440,Sold,,,http://www.redfin.com/TX/Houston/2239-Laurel-Birch-Dr-77014/home/29201992,HARMLS,91355414,N,Y,29.9719341,-95.4557692
PAST SALE,July-31-2018,Single Family Residential,13403 Jersie Violet,Houston,TX,77014,211680,4,2.5,Silverchase,2140,,2017,1036,99,29,Sold,,,http://www.redfin.com/TX/Houston/13403-Jersie-Violet-Ln-77014/home/147743579,HARMLS,24785446,N,Y,29.9783768,-95.4647972
PAST SALE,July-24-2017,Single Family Residential,12614 Silver Nobriga Trl,Houston,TX,77014,173143,3,2.0,Silverglen North,1428,,2017,1408,121,44,Sold,,,http://www.redfin.com/TX/Houston/12606-Silver-Nobriga-77014/home/148039711,HARMLS,85378524,N,Y,29.9812779,-95.4544125
PAST SALE,November-16-2017,Single Family Residential,2615 Glenfield Manor Ln,Houston,TX,77014,160000,3,2.0,Silverglen North Model Homes,1976,9723,2006,1293,81,44,Sold,,,http://www.redfin.com/TX/Houston/2615-Glenfield-Manor-Ln-77014/home/29554248,HARMLS,39085946,N,Y,29.9749205,-95.4641225
PAST SALE,May-19-2017,Single Family Residential,15518 Kiplands Bend Dr,Houston,TX,77014,149000,3,2.5,Bammel Village Sec 02 Rep 01,1987,3520,2013,1474,75,275,Sold,,,http://www.redfin.com/TX/Houston/15518-Kiplands-Bend-Dr-77014/home/66036741,HARMLS,39923540,N,Y,30.0012021,-95.4646651
PAST SALE,September-29-2017,Single Family Residential,15414 Bammel Fields Ct,Houston,TX,77014,137500,4,2.5,Bammel Village Sec 02 Rep 01,1477,3369,2013,1341,93,31,Sold,,,http://www.redfin.com/TX/Houston/15414-Bammel-Fields-Ct-77014/home/66036673,HARMLS,64524544,N,Y,29.9990312,-95.4635492
PAST SALE,,Single Family Residential,15406 Bammel Oaks Ct,Houston,TX,77014,,3,2.5,,1793,6940,2013,,,,Sold,,,http://www.redfin.com/TX/Houston/15406-Bammel-Oaks-Ct-77014/home/66036827,HARMLS,,N,Y,29.9976799,-95.4646548
PAST SALE,,Single Family Residential,13610 S Sablechase Ln,Houston,TX,77014,,3,2.5,,1776,8418,1983,,,,Sold,,,http://www.redfin.com/TX/Houston/13610-S-Sablechase-Ln-77014/home/30496049,HARMLS,,N,Y,29.9743279,-95.480587
PAST SALE,,Single Family Residential,13643 Sablerun Ln,Houston,TX,77014,,4,2.5,,2370,7130,1996,,,,Sold,,,http://www.redfin.com/TX/Houston/13643-Sablerun-Ln-77014/home/30496041,HARMLS,,N,Y,29.9735999,-95.4796858
PAST SALE,January-5-2018,Townhouse,3123 Palston Bend Ln,Houston,TX,77014,124900,3,2.5,Villas at Northpark,1683,2945,2004,1243,74,165,Sold,,,http://www.redfin.com/TX/Houston/3123-Palston-Bend-Ln-77014/home/29219340,HARMLS,59560434,N,Y,29.9951834,-95.4751904
PAST SALE,July-12-2018,Single Family Residential,14339 Mirkwood Ln,Houston,TX,77014,126800,3,2.5,Villas At Northpark Sec 01,1639,2701,2004,1055,77,175,Sold,,,http://www.redfin.com/TX/Houston/14339-Mirkwood-Ln-77014/home/29219344,HARMLS,39605552,N,Y,29.9951828,-95.4749344
PAST SALE,,Single Family Residential,13107 Marbury Ct,Houston,TX,77014,,4,2.5,,2498,6684,2003,,,,Sold,,,http://www.redfin.com/TX/Houston/13107-Marbury-Ct-77014/home/29148548,HARMLS,,N,Y,29.9760459,-95.4619521
PAST SALE,,Single Family Residential,4210 Wickstone,Houston,TX,77014,,3,2.0,,1811,6600,1983,,,,Sold,,,http://www.redfin.com/TX/Houston/4210-Wickstone-Ln-77014/home/30495978,HARMLS,,N,Y,29.9722383,-95.4826556
PAST SALE,July-13-2018,Single Family Residential,13711 Daehne Dr,Houston,TX,77014,163000,3,2.0,Briarchase,1640,6900,1999,1054,99,40,Sold,,,http://www.redfin.com/TX/Houston/13711-Daehne-Dr-77014/home/30679228,HARMLS,85898248,N,Y,29.9782612,-95.4812833
PAST SALE,April-21-2017,Townhouse,2911 Hackamore Hollow Ln,Houston,TX,77014,108600,3,2.5,Villas At Northpark,1423,2799,2005,1502,76,165,Sold,,,http://www.redfin.com/TX/Houston/2911-Hackamore-Hollow-Ln-77014/home/29259960,HARMLS,50226102,N,Y,29.9952245,-95.4728456
PAST SALE,,Single Family Residential,13923 Dentwood Dr,Houston,TX,77014,,2,2.0,,1630,5355,1990,,,,Sold,,,http://www.redfin.com/TX/Houston/13923-Dentwood-Dr-77014/home/30535738,HARMLS,,N,Y,29.9703855,-95.4387387
PAST SALE,August-1-2018,Single Family Residential,12322 May Laurel Dr,Houston,TX,77014,169900,3,2.0,Laurel Oaks Sec 03,1731,6625,1995,1035,98,37,Sold,,,http://www.redfin.com/TX/Houston/12322-May-Laurel-Dr-77014/home/30609510,HARMLS,88063926,N,Y,29.9683806,-95.4491365
PAST SALE,December-9-2016,Single Family Residential,1915 Laurel Bough Ln,Houston,TX,77014,176900,3,2.5,Laurel Oaks,2229,6416,1996,1635,79,440,Sold,,,http://www.redfin.com/TX/Houston/1915-Laurel-Bough-Ln-77014/home/30609545,HARMLS,88898903,N,Y,29.9690563,-95.4485838
PAST SALE,June-29-2018,Condo/Co-op,14355 Torrey Chase Blvd Unit D,Houston,TX,77014,55000,0,0.5,Northchase Park Sec 01,650,145112,1982,1068,85,333,Sold,,,http://www.redfin.com/TX/Houston/14355-Torrey-Chase-Blvd-77014/unit-D/home/145074647,HARMLS,17671705,N,Y,29.9843263,-95.4917394
PAST SALE,October-23-2017,Single Family Residential,13407 Sable Ln,Houston,TX,77014,153000,4,2.5,Sableridge,2106,6804,1995,1317,73,35,Sold,,,http://www.redfin.com/TX/Houston/13407-Sable-Ln-77014/home/30495919,HARMLS,84840036,N,Y,29.9714248,-95.4843556
PAST SALE,December-6-2017,Single Family Residential,13735 Sablegrove Ln,Houston,TX,77014,152000,3,2.0,Sableridge,1710,6820,1993,1273,89,35,Sold,,,http://www.redfin.com/TX/Houston/13735-Sablegrove-Ln-77014/home/30496947,HARMLS,61346070,N,Y,29.9753771,-95.4802593
PAST SALE,December-22-2016,Single Family Residential,14103 Torrey Vlg,Houston,TX,77014,175000,4,2.0,Torrey Pines,2116,8625,1998,1622,83,600,Sold,,,http://www.redfin.com/TX/Houston/14103-Torrey-Village-Dr-77014/home/30496821,HARMLS,10263456,N,Y,29.981404,-95.4896198
PAST SALE,May-15-2018,Single Family Residential,4226 Glenchase Ln,Houston,TX,77014,213000,4,3.0,Torrey Pines Sec 01,2640,7475,1994,1113,81,52,Sold,,,http://www.redfin.com/TX/Houston/4226-Glenchase-Ln-77014/home/30496822,HARMLS,3473205,N,Y,29.9825744,-95.4880016
PAST SALE,,Single Family Residential,3831 Farlan Ln,Houston,TX,77014,,3,2.0,,1112,4620,1983,,,,Sold,,,http://www.redfin.com/TX/Houston/3831-Farlan-Ln-77014/home/30545359,HARMLS,,N,Y,29.9766201,-95.4774329
PAST SALE,September-11-2017,Single Family Residential,4230 Northvale,Houston,TX,77014,209000,4,2.5,Torrey Pines,3417,9590,1998,1359,61,575,Sold,,,http://www.redfin.com/TX/Houston/4230-Northvale-Dr-77014/home/30496628,HARMLS,46200252,N,Y,29.9856753,-95.4848881
PAST SALE,September-19-2018,Single Family Residential,4226 Riverchase Ln,Houston,TX,77014,179900,4,2.5,Torrey Pines,2537,7705,1982,986,71,52,Sold,,,http://www.redfin.com/TX/Houston/4226-Riverchase-Ln-77014/home/30496748,HARMLS,65987602,N,Y,29.9848493,-95.487428
PAST SALE,,Single Family Residential,4102 Tasselwood Ln,Houston,TX,77014,,4,2.5,,3024,7344,1984,,,,Sold,,,http://www.redfin.com/TX/Houston/4102-Tasselwood-Ln-77014/home/30534546,HARMLS,,N,Y,29.9798878,-95.4843966
PAST SALE,April-11-2017,Single Family Residential,12218 Forstall,Houston,TX,77014,194500,4,3.5,Silverleaf,3106,5400,2009,1512,63,33,Sold,,,http://www.redfin.com/TX/Houston/12218-Forstall-Dr-77014/home/34199076,HARMLS,54010434,N,Y,29.9671,-95.4626892
PAST SALE,June-13-2018,Single Family Residential,2615 Silvermeadow Dr,Houston,TX,77014,194000,3,2.5,Silverglen Sec 01,2529,7840,1997,1084,77,33,Sold,,,http://www.redfin.com/TX/HOUSTON/2615-SILVERMEADOW-DR-77014/home/30670219,HARMLS,38672412,N,Y,29.972052,-95.462889
PAST SALE,May-25-2018,Single Family Residential,12706 Laurel Mist Way,Houston,TX,77014,172900,3,2.0,Laurel Oaks Sec 06,1739,6900,2001,1103,99,38,Sold,,,http://www.redfin.com/TX/Houston/12706-Laurel-Mist-Way-77014/home/30726267,HARMLS,12278894,N,Y,29.9717691,-95.4526779
PAST SALE,,Single Family Residential,12439 Mardi Gras Dr,Houston,TX,77014,,3,2.0,,1776,6074,2002,,,,Sold,,,http://www.redfin.com/TX/Houston/12439-Mardi-Gras-Dr-77014/home/30727428,HARMLS,,N,Y,29.9705498,-95.4685453
PAST SALE,September-28-2017,Single Family Residential,2406 Laurel Rustic Oaks,Houston,TX,77014,189900,3,2.0,Laurel Oaks,2453,7200,2003,1342,77,37,Sold,,,http://www.redfin.com/TX/Houston/2406-Laurel-Rustic-Oaks-77014/home/29202024,HARMLS,45857416,N,Y,29.9727131,-95.4581645
PAST SALE,March-5-2018,Single Family Residential,15402 Bammel Flds,Houston,TX,77014,142500,3,2.5,Bammel Village,1795,4397,2013,1184,79,31,Sold,,,http://www.redfin.com/TX/Houston/15402-Bammel-Fields-Ct-77014/home/66036670,HARMLS,49474647,N,Y,29.9987144,-95.4635901
PAST SALE,March-30-2018,Single Family Residential,12630 Ashlynn Creek Trl,Houston,TX,77014,222492,4,2.0,Silverglen North,2300,,2017,1159,97,44,Sold,,,http://www.redfin.com/TX/Houston/12630-Ashlynn-Creek-Trl-77014/home/143392801,HARMLS,6935342,N,Y,29.9778319,-95.4541519
PAST SALE,August-21-2018,Single Family Residential,12730 Silver Nobriga Trl,Houston,TX,77014,217990,4,2.5,Silverglen North,2453,,2018,1015,89,44,Sold,,,http://www.redfin.com/TX/Houston/12606-Silver-Nobriga-77014/home/148104565,HARMLS,85902014,N,Y,29.9812779,-95.4544125
PAST SALE,March-16-2018,Single Family Residential,12822 Arden Ridge Ln,Houston,TX,77014,205000,4,2.5,Silverglen North Sec 06,3146,6561,2006,1173,65,44,Sold,,,http://www.redfin.com/TX/Houston/12822-Arden-Ridge-Ln-77014/home/29508714,HARMLS,37694979,N,Y,29.9767753,-95.4584716
PAST SALE,March-21-2018,Single Family Residential,15711 Kiplands Bend Dr,Houston,TX,77014,152000,4,2.5,Bammel Village Sec 02 Replat,2168,3675,2006,1168,70,30,Sold,,,http://www.redfin.com/TX/Houston/15711-Kiplands-Bend-Dr-77014/home/29365610,HARMLS,85043640,N,Y,30.0007829,-95.4669072
PAST SALE,November-1-2016,Single Family Residential,2667 Kiplands Way Dr,Houston,TX,77014,130000,3,2.5,Bammel Village Sec 02 Rep 01,2048,5290,2014,1673,63,366,Sold,,,http://www.redfin.com/TX/Houston/2667-Kiplands-Way-Dr-77014/home/109266349,HARMLS,47062852,N,Y,29.9993043,-95.466467
PAST SALE,May-31-2018,Single Family Residential,15459 Bammel Oaks Ct,Houston,TX,77014,144900,3,2.5,Bammel Village,1745,3340,2013,1097,83,31,Sold,,,http://www.redfin.com/TX/Houston/15459-Bammel-Oaks-Ct-77014/home/66036810,HARMLS,71022975,N,Y,29.9984444,-95.4657605
PAST SALE,April-17-2018,Single Family Residential,15475 Bammel Oaks Ct,Houston,TX,77014,149900,3,2.5,Bammel Village Sec 02 Rep 01,1947,4022,2015,1141,77,31,Sold,,,http://www.redfin.com/TX/Houston/15475-Bammel-Oaks-Ct-77014/home/112804707,HARMLS,66231713,N,Y,29.9987511,-95.4659653
PAST SALE,July-14-2017,Single Family Residential,1723 Thornhollow Dr,Houston,TX,77014,179000,4,3.5,Glen Abbey,2405,4400,2011,1418,74,33,Sold,,,http://www.redfin.com/TX/Houston/1723-Thornhollow-Dr-77014/home/45410587,HARMLS,89602187,N,Y,29.9869666,-95.4488295
PAST SALE,June-6-2017,Single Family Residential,13903 Edgegrove Ct,Houston,TX,77014,130000,3,2.5,Cranbrook Sec 01,1920,9200,1985,1456,68,,Sold,,,http://www.redfin.com/TX/Houston/13903-Edgegrove-Ct-77014/home/30535834,HARMLS,34116951,N,Y,29.9707035,-95.439762
PAST SALE,October-13-2017,Single Family Residential,1630 Plumwood Dr,Houston,TX,77014,149900,3,2.0,Cranbrook Sec 02 Prcl R/p,1808,6242,1992,1327,83,32,Sold,,,http://www.redfin.com/TX/Houston/1630-Plumwood-Dr-77014/home/30582491,HARMLS,69427937,N,Y,29.9719979,-95.4427707
PAST SALE,,Single Family Residential,15642 Kiplands Bend Dr,Houston,TX,77014,,3,2.5,,1454,4282,2006,,,,Sold,,,http://www.redfin.com/TX/Houston/15642-Kiplands-Bend-Dr-77014/home/29365583,HARMLS,,N,Y,30.0013783,-95.4666615
PAST SALE,,Single Family Residential,13710 Lynx Dr,Houston,TX,77014,,3,2.5,,2361,8050,1999,,,,Sold,,,http://www.redfin.com/TX/Houston/13710-Lynx-Dr-77014/home/30582749,HARMLS,,N,Y,29.9828145,-95.4670301
