SALE TYPE,SOLD DATE,PROPERTY TYPE,ADDRESS,CITY,STATE OR PROVINCE,ZIP OR POSTAL CODE,PRICE,BEDS,BATHS,LOCATION,SQUARE FEET,LOT SIZE,YEAR BUILT,DAYS ON MARKET,$/SQUARE FEET,HOA/MONTH,STATUS,NEXT OPEN HOUSE START TIME,NEXT OPEN HOUSE END TIME,URL (SEE http://www.redfin.com/buy-a-home/comparative-market-analysis FOR INFO ON PRICING),SOURCE,MLS#,FAVORITE,INTERESTED,LATITUDE,LONGITUDE
PAST SALE,October-18-2016,Single Family Residential,214 Spell,Other,TX,77022,130000,3,1.0,Graceland Terrace Sec. 01,1200,7800,1957,1687,108,,Sold,,,http://www.redfin.com/TX/Houston/214-Spell-St-77022/home/30062189,HARMLS,61605531,N,Y,29.8362988,-95.3994566
PAST SALE,April-20-2020,Single Family Residential,3801 Oxford St Unit B,Houston,TX,77022,309000,3,2.5,Oxford Villas,1706,2237,2019,407,181,,Sold,,,http://www.redfin.com/TX/Houston/3801-Oxford-St-77022/unit-B/home/167841893,HARMLS,36858089,N,Y,29.821152,-95.392704
PAST SALE,October-25-2019,Single Family Residential,522 E 39th St,Houston,TX,77022,339000,3,2.5,Independence Heights School,2149,3000,2019,585,158,,Sold,,,http://www.redfin.com/TX/Houston/522-E-39th-St-77022/home/173630154,HARMLS,61774752,N,Y,29.821149,-95.3929122
PAST SALE,December-28-2018,Single Family Residential,614 E 39th,Houston,TX,77022,212000,3,2.5,Independence Heights,1521,3000,2017,886,139,,Sold,,,http://www.redfin.com/TX/Houston/614-E-39th-St-77022/home/147243149,HARMLS,18315701,N,Y,29.8211522,-95.3917261
PAST SALE,July-23-2019,Single Family Residential,7904 N Main St,Houston,TX,77022,275000,2,2.5,Independence Heights,1783,2400,2019,679,154,,Sold,,,http://www.redfin.com/TX/Houston/7904-N-Main-St-77022/home/29702672,HARMLS,91399639,N,Y,29.8215543,-95.39416
PAST SALE,November-2-2018,Single Family Residential,8502 N Main St,Houston,TX,77022,135000,3,2.0,Southward,1514,3880,1945,942,89,,Sold,,,http://www.redfin.com/TX/Houston/8502-N-Main-St-77022/home/29910596,HARMLS,23291442,N,Y,29.8251344,-95.3958183
PAST SALE,June-26-2020,Single Family Residential,615 E 34th St,Houston,TX,77022,95000,2,1.0,Independence Heights,640,3000,1930,340,148,,Sold,,,http://www.redfin.com/TX/Houston/615-E-34th-St-77022/home/29703857,HARMLS,55824114,N,Y,29.8174439,-95.3920124
PAST SALE,April-10-2017,Single Family Residential,8205 N Main St,Houston,TX,77022,89900,0,0.5,Harvard Court,768,6270,1948,1513,117,,Sold,,,http://www.redfin.com/TX/Houston/8205-N-Main-St-77022/home/29998724,HARMLS,13796343,N,Y,29.8238791,-95.3956117
PAST SALE,April-28-2017,Single Family Residential,215 Hohldale St,Houston,TX,77022,95000,3,1.0,Hohlwood,1199,7350,1964,1495,79,,Sold,,,http://www.redfin.com/TX/Houston/215-Hohldale-St-77022/home/30070431,HARMLS,92537874,N,Y,29.8417077,-95.400561
PAST SALE,April-22-2021,Single Family Residential,238 S Native Ln,Houston,TX,77022,249000,3,2.0,Bauman Villas,1243,3690,2017,40,200,37,Sold,,,http://www.redfin.com/TX/Houston/238-S-Native-Ln-77022/home/29539359,HARMLS,65536549,N,Y,29.8389496,-95.371975
PAST SALE,March-10-2021,Single Family Residential,8211 Melrose St,Houston,TX,77022,159000,3,2.0,Stratton Place,1300,9000,1940,83,122,,Sold,,,http://www.redfin.com/TX/Houston/8211-Melrose-St-77022/home/29786179,HARMLS,53727913,N,Y,29.8356727,-95.3671916
PAST SALE,July-17-2020,Single Family Residential,328 Basswood St,Houston,TX,77022,295999,4,3.0,Oakwood,1770,5737,1956,319,167,,Sold,,,http://www.redfin.com/TX/Houston/328-Basswood-St-77022/home/29809271,HARMLS,34463427,N,Y,29.8244789,-95.3697672
PAST SALE,April-17-2020,Single Family Residential,302 Basswood St,Houston,TX,77022,250000,4,2.0,Oakwood,1585,12420,1955,410,158,,Sold,,,http://www.redfin.com/TX/Houston/302-Basswood-St-77022/home/29809290,HARMLS,72748959,N,Y,29.8244192,-95.3712391
PAST SALE,April-16-2021,Single Family Residential,7305 Roswell St,Houston,TX,77022,290000,3,1.0,Oakwood,1212,24975,1945,46,239,,Sold,,,http://www.redfin.com/TX/Houston/7305-Roswell-St-77022/home/29809297,HARMLS,81746148,N,Y,29.8269968,-95.3699307
PAST SALE,December-14-2020,Single Family Residential,7118 Farnsworth St,Houston,TX,77022,329000,3,2.0,Oakwood,1937,6250,1945,169,170,,Sold,,,http://www.redfin.com/TX/Houston/7118-Farnsworth-St-77022/home/29809364,HARMLS,30790323,N,Y,29.8255301,-95.3702476
PAST SALE,September-30-2019,Single Family Residential,404 Dorchester St,Houston,TX,77022,168500,3,1.0,Oakwood Ext 1,1244,9680,1948,610,135,,Sold,,,http://www.redfin.com/TX/Houston/404-Dorchester-St-77022/home/29809762,HARMLS,49235779,N,Y,29.8224802,-95.3690313
PAST SALE,September-17-2020,Single Family Residential,927 Westford St,Houston,TX,77022,320000,4,2.0,Beverly Place,1543,10200,2005,257,207,,Sold,,,http://www.redfin.com/TX/Houston/927-Westford-St-77022/home/29929077,HARMLS,18929373,N,Y,29.8244069,-95.35875
PAST SALE,March-20-2020,Multi-Family (2-4 Unit),929 Dorchester St,Houston,TX,77022,464900,0,2.0,Beverly Place,3931,20400,1958,438,118,,Sold,,,http://www.redfin.com/TX/Houston/929-Dorchester-St-77022/home/29929263,HARMLS,91235269,N,Y,29.8232631,-95.358607
PAST SALE,December-27-2019,Single Family Residential,743 Yorkshire St,Houston,TX,77022,160000,3,1.0,Colonial Gardens,1332,11700,1937,522,120,,Sold,,,http://www.redfin.com/TX/Houston/743-Yorkshire-St-77022/home/29929929,HARMLS,85660188,N,Y,29.8280345,-95.3621224
PAST SALE,August-26-2019,Single Family Residential,8102 Helmers St,Houston,TX,77022,110000,2,1.0,Oakcrest,1184,8100,1940,645,93,,Sold,,,http://www.redfin.com/TX/Houston/8102-Helmers-St-77022/home/29956740,HARMLS,10672740,N,Y,29.8350128,-95.365679
PAST SALE,July-28-2020,Single Family Residential,258 De Boll St,Houston,TX,77022,99000,3,1.0,Elmwood,1004,5000,1952,308,99,,Sold,,,http://www.redfin.com/TX/Houston/258-De-Boll-St-77022/home/29973837,HARMLS,23250619,N,Y,29.8424638,-95.3720159
PAST SALE,December-29-2020,Single Family Residential,8819 Irvington Blvd,Houston,TX,77022,149900,2,1.0,Plymouth Place,768,6344,1950,154,195,,Sold,,,http://www.redfin.com/TX/Houston/8819-Irvington-Blvd-77022/home/29975393,HARMLS,89140123,N,Y,29.8399993,-95.3619282
PAST SALE,December-6-2020,Multi-Family (5+ Unit),7916 Bauman Rd,Houston,TX,77022,825000,0,1.0,Dawnridge,9588,23250,1962,177,86,,Sold,,,http://www.redfin.com/TX/Houston/7916-Bauman-Rd-77022/home/29975594,HARMLS,86268382,N,Y,29.833853,-95.371194
PAST SALE,April-22-2021,Single Family Residential,7621 Roswell St,Houston,TX,77022,175000,3,1.0,Roswell Place,1438,7800,1950,40,122,,Sold,,,http://www.redfin.com/TX/Houston/7621-Roswell-St-77022/home/30025621,HARMLS,85759875,N,Y,29.8314178,-95.369849
PAST SALE,March-27-2020,Single Family Residential,9214 Goldcrest St,Houston,TX,77022,214900,4,3.0,Irvington Manor Sec 01,1819,12310,1959,431,118,,Sold,,,http://www.redfin.com/TX/Houston/9214-Goldcrest-St-77022/home/30139383,HARMLS,85218851,N,Y,29.8452068,-95.3635634
PAST SALE,May-1-2019,Single Family Residential,54 Meadow Lea Dr,North Houston,TX,77022,183500,3,1.5,Avenue Meadows,1170,5525,2018,762,157,,Sold,,,http://www.redfin.com/TX/Houston/54-Meadow-Lea-Dr-77022/home/145340034,HARMLS,82567040,N,Y,29.8360655,-95.3784745
PAST SALE,April-8-2020,Single Family Residential,53 Penway St,Houston,TX,77022,135000,4,2.0,Meadowlea Annex 1,1701,7076,1949,419,79,,Sold,,,http://www.redfin.com/TX/Houston/53-Penway-St-77022/home/29976160,HARMLS,32349217,N,Y,29.8383117,-95.3788033
PAST SALE,March-16-2020,Single Family Residential,37 Farrell St,Houston,TX,77022,169900,2,1.0,Meadow Lea Annex Sec 02,1276,6240,1951,442,133,,Sold,,,http://www.redfin.com/TX/Houston/37-Farrell-St-77022/home/29976324,HARMLS,37490574,N,Y,29.8405089,-95.3801936
PAST SALE,March-5-2021,Single Family Residential,8403 Madie Dr,Houston,TX,77022,214900,3,1.5,Avenue Meadows,1030,3400,2020,88,209,,Sold,,,http://www.redfin.com/TX/Houston/8403-Madie-Dr-77022/home/170210541,HARMLS,69421585,N,Y,29.836509,-95.377797
PAST SALE,February-22-2021,Single Family Residential,8409 Madie Dr,Houston,TX,77022,219900,3,2.0,Avenue Meadows,1033,4169,2020,99,213,,Sold,,,http://www.redfin.com/TX/Houston/8409-Madie-Dr-77022/home/170210538,HARMLS,49631681,N,Y,29.836801,-95.377887
PAST SALE,March-29-2021,Single Family Residential,8405 Madie Dr,Houston,TX,77022,214900,3,1.5,Avenue Meadows,1030,2532,2020,64,209,,Sold,,,http://www.redfin.com/TX/Houston/8405-Madie-Dr-77022/home/170210540,HARMLS,56929239,N,Y,29.8367906,-95.377965
PAST SALE,February-13-2019,Single Family Residential,58 Meadow Lea Dr,North Houston,TX,77022,182900,3,1.5,Avenue Meadows,1170,5227,2018,839,156,,Sold,,,http://www.redfin.com/TX/Houston/58-Meadow-Lea-Dr-77022/home/145347514,HARMLS,20971348,N,Y,29.8361768,-95.3783306
PAST SALE,November-17-2020,Single Family Residential,201 S Native Ln,Houston,TX,77022,244900,3,2.5,Bauman Villas,1558,4227,2009,196,157,38,Sold,,,http://www.redfin.com/TX/Houston/201-S-Native-Ln-77022/home/29539383,HARMLS,20271235,N,Y,29.8392203,-95.3730789
PAST SALE,June-26-2019,Single Family Residential,602 Warner St,Houston,TX,77022,141000,3,1.5,Bedford Place,1288,7280,1978,706,109,,Sold,,,http://www.redfin.com/TX/Houston/602-Warner-St-77022/home/29788663,HARMLS,97184801,N,Y,29.8405158,-95.366701
PAST SALE,July-16-2018,Single Family Residential,68 Fichter St,Houston,TX,77022,130000,3,2.0,Elmwood,720,5850,1947,1051,181,,Sold,,,http://www.redfin.com/TX/Houston/68-Fichter-St-77022/home/29973765,HARMLS,27226092,N,Y,29.8409343,-95.3785988
PAST SALE,May-29-2018,Single Family Residential,108 Burress St,Houston,TX,77022,70000,2,1.0,Elmwood,902,5000,1944,1099,78,,Sold,,,http://www.redfin.com/TX/Houston/108-Burress-St-77022/home/29973832,HARMLS,91944518,N,Y,29.841755,-95.3750415
PAST SALE,June-19-2020,Single Family Residential,201 Burress St,Houston,TX,77022,189000,3,2.0,Elmwood,1782,5000,1947,347,106,,Sold,,,http://www.redfin.com/TX/Houston/201-Burress-St-77022/home/29973835,HARMLS,88111706,N,Y,29.842102,-95.3742646
PAST SALE,July-2-2020,Single Family Residential,67 Burress St,Houston,TX,77022,179999,3,2.0,Elmwood,1450,5750,1947,334,124,,Sold,,,http://www.redfin.com/TX/Houston/67-Burress-St-77022/home/29973963,HARMLS,82748554,N,Y,29.8421046,-95.3786397
PAST SALE,June-12-2019,Single Family Residential,609 De Boll St,Houston,TX,77022,340000,4,2.0,Plymouth Place,1938,25500,1936,720,175,,Sold,,,http://www.redfin.com/TX/Houston/609-De-Boll-St-77022/home/29975337,HARMLS,70863393,N,Y,29.8429114,-95.3665375
PAST SALE,December-29-2020,Single Family Residential,8813 Irvington Blvd,Houston,TX,77022,149900,2,1.0,Plymouth Place,1034,6804,1950,154,145,,Sold,,,http://www.redfin.com/TX/Houston/8813-Irvington-Blvd-77022/home/29975391,HARMLS,96115581,N,Y,29.8398532,-95.361918
PAST SALE,November-26-2019,Single Family Residential,42 Penway St,Houston,TX,77022,169900,3,1.0,Meadow Lea Annex Sec 01,1214,6960,2019,553,140,,Sold,,,http://www.redfin.com/TX/Houston/42-Penway-St-77022/home/29976103,HARMLS,74359757,N,Y,29.8378744,-95.3795802
PAST SALE,August-13-2020,Single Family Residential,61 Trenwood Ln,Houston,TX,77022,185000,3,1.0,Meadow Lea Annex,1030,6240,1951,292,180,,Sold,,,http://www.redfin.com/TX/Houston/61-Trenwood-Ln-77022/home/29976276,HARMLS,22297696,N,Y,29.8398307,-95.3780264
PAST SALE,June-11-2019,Single Family Residential,8705 Irvington Blvd,Houston,TX,77022,85000,3,2.0,Doverside Place,1100,8380,1950,721,77,,Sold,,,http://www.redfin.com/TX/Houston/8705-Irvington-Blvd-77022/home/29977550,HARMLS,41137454,N,Y,29.8390836,-95.3619998
PAST SALE,February-19-2021,Single Family Residential,806 Duff Ln,Houston,TX,77022,395000,4,3.5,Doverside Place,2913,16000,2015,102,136,,Sold,,,http://www.redfin.com/TX/Houston/806-Duff-Ln-77022/home/29978028,HARMLS,13114726,N,Y,29.8384884,-95.3644525
PAST SALE,July-15-2020,Single Family Residential,117 Vandel St,Houston,TX,77022,173000,2,1.0,Fulton Place,1084,7080,1942,321,160,,Sold,,,http://www.redfin.com/TX/Houston/117-Vandel-St-77022/home/30033721,HARMLS,88117555,N,Y,29.8446132,-95.3762477
PAST SALE,July-1-2020,Single Family Residential,117 Ben Dr,Houston,TX,77022,235000,3,2.0,Fulton Place,1634,7080,1950,335,144,,Sold,,,http://www.redfin.com/TX/Houston/117-Ben-Dr-77022/home/30033710,HARMLS,30871281,N,Y,29.8437918,-95.375941
PAST SALE,November-6-2020,Single Family Residential,122 Knightsbridge Park Ln,Houston,TX,77018,259700,3,2.5,Park at Yale,1498,1508,2020,207,173,183,Sold,,,http://www.redfin.com/TX/Houston/122-Knightsbridge-Park-Ln-77022/home/170262978,HARMLS,30514478,N,Y,29.832046,-95.401072
PAST SALE,November-9-2020,Single Family Residential,125 Knightsbridge Park Ln,Houston,TX,77018,279700,3,2.5,Park at Yale,1499,1508,2020,204,187,183,Sold,,,http://www.redfin.com/TX/Houston/125-Knightsbridge-Park-Ln-77022/home/173056896,HARMLS,13595056,N,Y,29.8321557,-95.4019372
PAST SALE,May-29-2020,Single Family Residential,107 Knightsbridge Park Ln,Houston,TX,77018,269700,3,2.5,Park at Yale,1499,1508,2020,368,180,183,Sold,,,http://www.redfin.com/TX/Houston/107-Knightsbridge-Park-Ln-77022/home/170262942,HARMLS,6942618,N,Y,29.832261,-95.401806
PAST SALE,June-5-2020,Single Family Residential,106 Knightsbridge Park Ln,Houston,TX,77018,269700,3,2.5,Park at Yale,1499,1508,2020,361,180,183,Sold,,,http://www.redfin.com/TX/Houston/106-Eden-Park-Ln-77018/home/170339663,HARMLS,23442604,N,Y,29.832224,-95.402026
PAST SALE,June-11-2020,Single Family Residential,108 Knightsbridge Park Ln,Houston,TX,77018,274700,3,2.5,Park at Yale,1544,1508,2020,355,178,183,Sold,,,http://www.redfin.com/TX/Houston/108-Knightsbridge-Park-Ln-77022/home/170262971,HARMLS,14106730,N,Y,29.832042,-95.401713
PAST SALE,November-13-2020,Single Family Residential,121 Knightsbridge Park Ln,Houston,TX,77018,274700,3,2.5,Park at Yale,1629,1508,2020,200,169,183,Sold,,,http://www.redfin.com/TX/Houston/121-Knightsbridge-Park-Ln-77022/home/172613803,HARMLS,8392038,N,Y,29.8321557,-95.4019372
PAST SALE,July-7-2020,Single Family Residential,112 Knightsbridge Park Ln,Houston,TX,77018,269700,3,2.5,Park at Yale,1580,1508,2020,329,171,183,Sold,,,http://www.redfin.com/TX/Houston/112-Knightsbridge-Park-Ln-77022/home/171556497,HARMLS,76424449,N,Y,29.832224,-95.402026
PAST SALE,June-30-2020,Single Family Residential,113 Knightsbridge Park Ln,Houston,TX,77018,269700,3,2.5,Park at Yale,1580,1508,2020,336,171,183,Sold,,,http://www.redfin.com/TX/Houston/113-Knightsbridge-Park-Ln-77022/home/171556511,HARMLS,97404119,N,Y,29.832224,-95.402026
PAST SALE,December-23-2020,Single Family Residential,127 Knightsbridge Park Ln,Houston,TX,77018,281700,3,2.5,Park at Yale,1629,1508,2020,160,173,183,Sold,,,http://www.redfin.com/TX/Houston/127-Knightsbridge-Park-Ln-77022/home/173057208,HARMLS,12620471,N,Y,29.8321557,-95.4019372
PAST SALE,August-5-2020,Single Family Residential,110 Knightsbridge Park Ln,Houston,TX,77018,266700,3,2.5,Park at Yale,1543,1502,2020,300,173,183,Sold,,,http://www.redfin.com/TX/Houston/110-Knightsbridge-Park-Ln-77022/home/170262972,HARMLS,9467640,N,Y,29.832042,-95.401621
PAST SALE,October-6-2020,Single Family Residential,123 Knightsbridge Park Ln,Houston,TX,77018,269700,3,2.5,Park at Yale,1508,1508,2020,238,179,183,Sold,,,http://www.redfin.com/TX/Houston/123-Knightsbridge-Park-Ln-77022/home/172526744,HARMLS,68365829,N,Y,29.8321557,-95.4019372
PAST SALE,December-23-2020,Single Family Residential,128 Knightsbridge Park Ln,Houston,TX,77018,276700,3,2.5,Park at Yale,1543,1508,2020,160,179,183,Sold,,,http://www.redfin.com/TX/Houston/128-Knightsbridge-Park-Ln-77022/home/173057224,HARMLS,28223011,N,Y,29.8321557,-95.4019372
PAST SALE,March-12-2021,Single Family Residential,136 Knightsbridge Park Ln,Houston,TX,77018,293700,3,2.5,Park at Yale,1543,1508,2021,81,190,183,Sold,,,http://www.redfin.com/TX/Houston/136-Knightsbridge-Park-Ln-77022/home/174174933,HARMLS,49792171,N,Y,29.8321519,-95.401949
PAST SALE,April-30-2020,Single Family Residential,109 Knightsbridge Park Ln,Houston,TX,77018,274700,3,2.5,Park at Yale,1544,1508,2020,397,178,183,Sold,,,http://www.redfin.com/TX/Houston/109-Knightsbridge-Park-Ln-77022/home/170262943,HARMLS,95291032,N,Y,29.832262,-95.401714
PAST SALE,March-19-2021,Single Family Residential,135 Knightsbridge Park Ln,Houston,TX,77018,288700,3,2.5,Park at Yale,1580,1502,2021,74,183,183,Sold,,,http://www.redfin.com/TX/Houston/135-Knightsbridge-Park-Ln-77022/home/173736233,HARMLS,55980853,N,Y,29.8321557,-95.4019372
PAST SALE,April-27-2021,Single Family Residential,138 Knightsbridge Park Ln,Houston,TX,77018,304700,3,2.5,Park at Yale,1629,1508,2021,35,187,183,Sold,,,http://www.redfin.com/TX/Houston/138-Knightsbridge-Park-Ln-77022/home/174175021,HARMLS,10269176,N,Y,29.8321519,-95.401949
PAST SALE,September-21-2018,Single Family Residential,214 Norview Dr,Houston,TX,77022,71000,2,1.0,Norview Terrace,1008,6324,1955,984,70,,Sold,,,http://www.redfin.com/TX/Houston/214-Norview-Dr-77022/home/30030714,HARMLS,54598871,N,Y,29.8343506,-95.399702
PAST SALE,November-2-2020,Single Family Residential,120 W Whitney St,Houston,TX,77018,168500,3,1.5,Whitney Plaza R/p,1196,4300,1967,211,141,,Sold,,,http://www.redfin.com/TX/Houston/120-W-Whitney-St-77022/home/30208952,HARMLS,75324012,N,Y,29.8312186,-95.4002338
PAST SALE,August-26-2020,Single Family Residential,1218 Tidwell Rd,Houston,TX,77022,69500,2,1.0,Crosstimbers Gardens,765,2352,1960,279,91,,Sold,,,http://www.redfin.com/TX/Houston/1218-Tidwell-Rd-77022/home/29661299,HARMLS,89993482,N,Y,29.8456009,-95.3613457
PAST SALE,September-26-2019,Single Family Residential,6419 Cochran St,Houston,TX,77022,185000,3,1.0,Belt Junction City,1440,9600,1938,614,128,,Sold,,,http://www.redfin.com/TX/Houston/6419-Cochran-St-77022/home/29846216,HARMLS,17859293,N,Y,29.8171095,-95.3569311
PAST SALE,October-20-2020,Single Family Residential,6602 Trumbull St,Houston,TX,77022,169000,3,2.0,Belt Junction City,1625,4400,1964,224,104,,Sold,,,http://www.redfin.com/TX/Houston/6602-Trumbull-St-77022/home/29846329,HARMLS,10026502,N,Y,29.8183,-95.359494
PAST SALE,October-19-2018,Single Family Residential,634 Crosstimbers,Houston,TX,77022,289000,2,1.0,Colonial Gardens,816,22200,1940,956,354,,Sold,,,http://www.redfin.com/TX/Houston/634-E-Crosstimbers-St-77022/home/29929489,HARMLS,11026458,N,Y,29.8286402,-95.3638806
PAST SALE,May-24-2019,Single Family Residential,923 Caperton St,Houston,TX,77022,155000,2,1.0,Stratton Place,1360,11700,1937,739,114,,Sold,,,http://www.redfin.com/TX/Houston/923-Caperton-St-77022/home/29935663,HARMLS,27207849,N,Y,29.8303055,-95.3583617
PAST SALE,May-31-2019,Single Family Residential,734 Mcdaniel St,Houston,TX,77022,100000,3,1.5,Stratton Place,1666,11700,1957,732,60,,Sold,,,http://www.redfin.com/TX/Houston/734-McDaniel-St-77022/home/29935692,HARMLS,62414845,N,Y,29.8310464,-95.3617749
PAST SALE,July-17-2020,Single Family Residential,913 Mcdaniel St,Houston,TX,77022,125000,2,1.0,Stratton Place,1008,11700,1940,319,124,,Sold,,,http://www.redfin.com/TX/Houston/913-McDaniel-St-77022/home/29935748,HARMLS,12976323,N,Y,29.8315731,-95.3593427
PAST SALE,July-8-2020,Single Family Residential,9210 Goldcrest St,Houston,TX,77022,269000,3,2.5,Irvington Manor Sec 01,1934,7560,1959,328,139,,Sold,,,http://www.redfin.com/TX/Houston/9210-Goldcrest-St-77022/home/30139380,HARMLS,81214993,N,Y,29.8449468,-95.3635741
PAST SALE,October-12-2018,Single Family Residential,115 E Janisch Rd,Houston,TX,77022,130000,3,1.0,Graceland Terrace Sec 01,1335,10400,1955,963,97,,Sold,,,http://www.redfin.com/TX/Houston/115-E-Janisch-Rd-77022/home/30062204,HARMLS,29906918,N,Y,29.8375042,-95.4019518
PAST SALE,September-28-2020,Single Family Residential,104 Knightsbridge Park Ln,Houston,TX,77018,274700,3,2.5,Park at Yale,1543,1502,2020,246,178,183,Sold,,,http://www.redfin.com/TX/Houston/104-Knightsbridge-Park-Ln-77022/home/170262969,HARMLS,8329136,N,Y,29.832041,-95.401895
PAST SALE,October-19-2018,Single Family Residential,308 E 42nd St,Houston,TX,77022,65000,2,1.0,Willadale,621,5000,1940,956,105,,Sold,,,http://www.redfin.com/TX/Houston/308-E-42nd-St-77022/home/29898903,HARMLS,56430943,N,Y,29.8239975,-95.3949163
PAST SALE,October-18-2019,Single Family Residential,139 E Thornton Rd,Houston,TX,77022,275000,3,2.0,Pecandale Court,2143,12560,1960,592,128,,Sold,,,http://www.redfin.com/TX/Houston/139-E-Thornton-Rd-77022/home/30121509,HARMLS,22442426,N,Y,29.833187,-95.4000497
PAST SALE,October-5-2018,Single Family Residential,4518 Pecan Park Cir,Houston,TX,77018,74000,2,1.0,Whitney Place West,874,1925,1961,970,85,,Sold,,,http://www.redfin.com/TX/Houston/4518-Pecan-Park-Cir-77022/home/30626865,HARMLS,22791655,N,Y,29.83104,-95.3990884
PAST SALE,July-2-2020,Single Family Residential,1404A E31st St,Houston,TX,77022,235000,2,2.0,Independence Heights Corner,1100,2200,1940,334,214,,Sold,,,http://www.redfin.com/TX/Houston/1404-E-31st-St-77022/home/171724845,HARMLS,40393841,N,Y,29.81492,-95.381001
PAST SALE,August-14-2020,Single Family Residential,8407 Madie Dr,Houston,TX,77022,214900,3,1.5,Avenue Meadows,1030,3070,,291,209,,Sold,,,http://www.redfin.com/TX/Houston/8407-Madie-Dr-77022/home/167693841,HARMLS,34996020,N,Y,29.8368014,-95.3779773
PAST SALE,August-3-2020,Single Family Residential,63 Meadow Lea Dr,Houston,TX,77022,214900,3,1.5,Avenue Meadows,1030,3174,,302,209,,Sold,,,http://www.redfin.com/TX/Houston/63-Meadow-Lea-Dr-77022/home/167693242,HARMLS,35570737,N,Y,29.8366565,-95.3778971
PAST SALE,February-13-2019,Single Family Residential,60 Meadow Lea Dr,North Houston,TX,77022,179900,3,0.5,Avenue Meadows,1170,5374,2018,839,154,,Sold,,,http://www.redfin.com/TX/Houston/60-Meadow-Lea-Dr-77022/home/167833076,HARMLS,42303905,N,Y,29.8361748,-95.3781586
PAST SALE,December-21-2018,Single Family Residential,56 Meadow Lea Dr,Houston,TX,77022,179900,3,1.5,Avenue Meadows,1170,5387,2018,893,154,,Sold,,,http://www.redfin.com/TX/Houston/56-Meadow-Lea-Dr-77022/home/145333327,HARMLS,54993624,N,Y,29.8362114,-95.3783535
PAST SALE,January-25-2019,Single Family Residential,68 Meadow Lea Dr,Houston,TX,77022,179900,3,1.5,Avenue Meadows,1170,5348,2018,858,154,,Sold,,,http://www.redfin.com/TX/Houston/68-Meadow-Lea-Dr-77022/home/145357283,HARMLS,93854143,N,Y,29.8360594,-95.3777123
PAST SALE,October-6-2020,Single Family Residential,416 Van Molan St,Houston,TX,77022,207000,3,2.0,Oakwood Rev Amd 1,1136,10200,1946,238,182,,Sold,,,http://www.redfin.com/TX/Houston/416-Van-Molan-St-77022/home/29582527,HARMLS,52324238,N,Y,29.8291662,-95.3689598
PAST SALE,,Single Family Residential,6602 Royall St,Houston,TX,77022,120000,3,1.0,,960,10800,1948,,125,,,,,http://www.redfin.com/TX/Houston/6602-Royall-St-77022/home/29738860,,,N,Y,29.8186751,-95.369757
PAST SALE,April-3-2019,Single Family Residential,7320 Bauman Rd,Houston,TX,77022,119900,1,1.0,Oakwood,711,7331,1947,790,169,,Sold,,,http://www.redfin.com/TX/Houston/7320-Bauman-Rd-77022/home/29809231,HARMLS,25771650,N,Y,29.8278519,-95.3710755
PAST SALE,April-14-2020,Single Family Residential,6413 Helmers St,Houston,TX,77022,178900,3,2.0,Lindale Ext Sec 01,1440,5725,1950,413,124,,Sold,,,http://www.redfin.com/TX/Houston/6413-Helmers-St-77022/unit-1/home/29843455,HARMLS,24820123,N,Y,29.8167086,-95.3657198
PAST SALE,March-27-2019,Vacant Land,215 Tidwell Rd,Houston,TX,77022,114000,,,Highlawn North Sec 02,,7000,,797,,,Sold,,,http://www.redfin.com/TX/Houston/215-Tidwell-Rd-77076/home/29847276,HARMLS,55865760,N,Y,29.8458512,-95.3729562
PAST SALE,September-18-2020,Single Family Residential,224 Neyland St,Houston,TX,77022,244500,2,1.0,Sheffield,1260,6550,1940,256,194,,Sold,,,http://www.redfin.com/TX/Houston/224-Neyland-St-77022/home/29889610,HARMLS,58167625,N,Y,29.8258856,-95.3728745
PAST SALE,March-20-2020,Multi-Family (2-4 Unit),229 Neyland St,Houston,TX,77022,159000,0,1.0,Sheffield Sec 02,1348,7150,1945,438,118,,Sold,,,http://www.redfin.com/TX/Houston/229-Neyland-St-77022/home/29889621,HARMLS,25061900,N,Y,29.8263096,-95.3724247
PAST SALE,September-16-2020,Single Family Residential,8208 Fulton St,Houston,TX,77022,149900,3,2.0,East Montgomery Acres,1160,6000,1950,258,129,,Sold,,,http://www.redfin.com/TX/Houston/8208-Fulton-St-77022/home/29939807,HARMLS,24244155,N,Y,29.8351523,-95.375573
PAST SALE,October-25-2019,Vacant Land,235 Weisenberger Dr,Houston,TX,77022,65000,,,Weisenberger's Shadyland,,8250,,585,,,Sold,,,http://www.redfin.com/TX/Houston/235-Weisenberger-Dr-77022/home/29957171,HARMLS,80107502,N,Y,29.8274178,-95.3720254
PAST SALE,February-26-2018,Multi-Family (2-4 Unit),208 Garrotsville St,Houston,TX,77022,185000,0,,Carrington Place,1700,6700,1982,1191,109,,Sold,,,http://www.redfin.com/TX/Houston/208-Garrotsville-St-77022/home/29965498,HARMLS,35942736,N,Y,29.8309062,-95.3735695
PAST SALE,July-8-2020,Single Family Residential,231 Burress St,Houston,TX,77022,47800,2,1.0,Elmwood,840,5000,1954,328,57,,Sold,,,http://www.redfin.com/TX/Houston/231-Burress-St-77022/home/29973820,HARMLS,71518115,N,Y,29.8421032,-95.3720159
PAST SALE,May-10-2019,Single Family Residential,70 Burress St,Houston,TX,77022,145000,3,2.0,Elmwood,984,5850,1947,753,147,,Sold,,,http://www.redfin.com/TX/Houston/70-Burress-St-77022/home/29973932,HARMLS,98336495,N,Y,29.8417506,-95.3784761
PAST SALE,December-21-2018,Single Family Residential,7906 Farnsworth St,Houston,TX,77022,179900,3,2.0,Dawnridge,1410,7250,1978,893,128,,Sold,,,http://www.redfin.com/TX/Houston/7906-Farnsworth-St-77022/home/29975548,HARMLS,25003926,N,Y,29.8335716,-95.3700943
PAST SALE,January-31-2020,Single Family Residential,7904 Appleton St,Houston,TX,77022,280000,3,2.5,Dawnridge,2071,6900,2017,487,135,,Sold,,,http://www.redfin.com/TX/Houston/7904-Appleton-St-77022/home/29975675,HARMLS,30696010,N,Y,29.8340201,-95.3679275
PAST SALE,July-12-2019,Multi-Family (2-4 Unit),8010 Roswell St,Houston,TX,77022,259999,0,,Dawnridge,2640,7250,1958,690,98,,Sold,,,http://www.redfin.com/TX/Houston/8010-Roswell-St-77022/home/29975718,HARMLS,37825466,N,Y,29.8339977,-95.3689598
PAST SALE,December-27-2018,Single Family Residential,45 Farrell St,Houston,TX,77022,149000,2,1.0,Meadow Lea Annex Sec 02,1137,6240,1951,887,131,,Sold,,,http://www.redfin.com/TX/Houston/45-Farrell-St-77022/home/29976297,HARMLS,5379580,N,Y,29.8405422,-95.3793757
PAST SALE,March-9-2020,Single Family Residential,9219 Carrick St,Houston,TX,77022,169900,4,2.0,Carrick,1260,8100,1950,449,135,,Sold,,,http://www.redfin.com/TX/Houston/9219-Carrick-St-77022/home/30020594,HARMLS,82848388,N,Y,29.843846,-95.3796006
PAST SALE,September-18-2020,Single Family Residential,118 Ben Dr,Houston,TX,77022,215000,3,3.0,Fulton Place,1288,7200,1950,256,167,,Sold,,,http://www.redfin.com/TX/Houston/118-Ben-Dr-77022/home/30033643,HARMLS,12874261,N,Y,29.8433928,-95.3757775
PAST SALE,August-10-2020,Single Family Residential,124 N Vandel,Houston,TX,77022,165000,3,2.0,Fulton Place,1304,7080,1950,295,127,,Sold,,,http://www.redfin.com/TX/Houston/124-Vandel-St-77022/home/30033715,HARMLS,75859106,N,Y,29.8441992,-95.3759001
PAST SALE,April-24-2020,Single Family Residential,9233 Highlawn St,Houston,TX,77022,180000,3,1.5,Fulton Place,1069,7080,1950,403,168,,Sold,,,http://www.redfin.com/TX/Houston/9233-Highlawn-St-77022/home/30033745,HARMLS,10755097,N,Y,29.8443709,-95.3750006
PAST SALE,October-31-2018,Single Family Residential,803 Pennington St,Houston,TX,77022,140000,3,1.5,Irvington Manor,1232,7538,1955,944,114,,Sold,,,http://www.redfin.com/TX/Houston/803-Pennington-St-77022/home/30139426,HARMLS,74273434,N,Y,29.8445536,-95.3649431
PAST SALE,December-27-2019,Single Family Residential,523 Firnat St,Houston,TX,77022,170000,3,2.5,Victorian Heights Village,1842,3640,2004,522,92,,Sold,,,http://www.redfin.com/TX/Houston/523-Firnat-St-77022/home/29174675,HARMLS,26741217,N,Y,29.8420719,-95.3672325
PAST SALE,August-14-2020,Single Family Residential,116 Knightsbridge Park Ln,Houston,TX,77018,259700,3,2.5,Park at Yale,1543,1508,2020,291,168,183,Sold,,,http://www.redfin.com/TX/Houston/116-Knightsbridge-Park-Ln-77022/home/171556535,HARMLS,10568821,N,Y,29.832196,-95.402037
PAST SALE,October-27-2020,Single Family Residential,115 Knightsbridge Park Ln,Houston,TX,77018,277700,3,2.5,Park at Yale,1629,1508,2020,217,170,183,Sold,,,http://www.redfin.com/TX/Houston/115-Knightsbridge-Park-Ln-77022/home/171556534,HARMLS,72031531,N,Y,29.832178,-95.402005
PAST SALE,September-30-2020,Townhouse,715 Apogee Trl,Houston,TX,77022,279900,3,2.5,Whitney Enclave,1502,,2020,244,186,150,Sold,,,http://www.redfin.com/TX/Houston/715-Apogee-TRL-77022/home/172411607,HARMLS,41466712,N,Y,29.831086,-95.390376
PAST SALE,November-6-2020,Townhouse,4515 Whitney Park Way,Houston,TX,77022,299900,3,2.5,Whitney Enclave,1607,,2020,207,187,150,Sold,,,http://www.redfin.com/TX/Houston/4515-E-Whitney-St-77022/home/169903154,HARMLS,29568813,N,Y,29.831086,-95.390376
PAST SALE,July-10-2020,Multi-Family (5+ Unit),451 Victoria Dr,Houston,TX,77022,475000,0,,Abst 493 O P Kelton,,44434,,326,,,Sold,,,http://www.redfin.com/TX/Houston/451-Victoria-Dr-77022/home/167918015,HARMLS,54326517,N,Y,29.8360982,-95.392769
PAST SALE,October-2-2020,Single Family Residential,818 Barkley St,Houston,TX,77022,120000,2,1.0,Whitney Place,768,5800,1939,242,156,,Sold,,,http://www.redfin.com/TX/Houston/818-Barkley-St-77022/home/29885300,HARMLS,95522098,N,Y,29.8264621,-95.3889143
PAST SALE,,Single Family Residential,4109 Castor St,Houston,TX,77022,114000,3,1.0,,1068,10000,1950,,107,,,,,http://www.redfin.com/TX/Houston/4109-Castor-St-77022/home/29885449,,,N,Y,29.8245328,-95.3884133
PAST SALE,May-11-2020,Single Family Residential,5207 Barrett St,Houston,TX,77022,169877,3,2.0,Garden Acres Ext,1321,7200,1950,386,129,,Sold,,,http://www.redfin.com/TX/Houston/5207-Barrett-St-77022/home/29896337,HARMLS,75665870,N,Y,29.8422812,-95.3875954
PAST SALE,June-15-2020,Single Family Residential,4309 Haygood St,Houston,TX,77022,189000,3,2.0,Carlin Place,1700,6000,1949,351,111,,Sold,,,http://www.redfin.com/TX/Houston/4309-Haygood-St-77022/home/30020577,HARMLS,31943442,N,Y,29.8270595,-95.3938938
PAST SALE,July-1-2019,Single Family Residential,714 Jerry St,Houston,TX,77022,220000,2,2.0,Gruss Road,1272,6380,1951,701,173,,Sold,,,http://www.redfin.com/TX/Houston/714-Jerry-St-77022/home/30033823,HARMLS,84947283,N,Y,29.8271727,-95.3905604
PAST SALE,,Single Family Residential,4322 Busiek St,Houston,TX,77022,25000,4,2.0,,2210,6900,1952,,11,,,,,http://www.redfin.com/TX/Houston/4322-Busiek-St-77022/home/30033847,,,N,Y,29.8283781,-95.3897425
PAST SALE,April-15-2019,Single Family Residential,4314 Heite St,Houston,TX,77022,249500,3,2.0,Herridge Place,1400,6825,1950,778,178,,Sold,,,http://www.redfin.com/TX/Houston/4314-Heite-St-77022/home/30034449,HARMLS,26578918,N,Y,29.8272566,-95.3951413
PAST SALE,December-31-2019,Single Family Residential,306 Bizerte St,Houston,TX,77022,122000,3,1.0,Victoria Gardens,1639,7320,1956,518,74,,Sold,,,http://www.redfin.com/TX/Houston/306-Bizerte-St-77022/home/30057319,HARMLS,74565001,N,Y,29.8379148,-95.3974114
PAST SALE,June-12-2019,Single Family Residential,351 Victoria Dr,Houston,TX,77022,159900,3,2.0,Victoria Gardens,883,8160,1956,720,181,,Sold,,,http://www.redfin.com/TX/Houston/351-Victoria-Dr-77022/home/30057452,HARMLS,55989754,N,Y,29.835893,-95.395039
PAST SALE,June-13-2019,Single Family Residential,315 E Delz Dr,Houston,TX,77022,139900,3,1.0,Glenburnie,1289,,1955,719,109,,Sold,,,http://www.redfin.com/TX/Houston/315-E-Delz-Dr-77022/home/30062131,HARMLS,25634197,N,Y,29.840277,-95.3969614
PAST SALE,December-4-2019,Single Family Residential,530 E Delz Dr,Houston,TX,77022,179900,3,1.0,Glenburnie Sec 02,1524,11664,1955,545,118,,Sold,,,http://www.redfin.com/TX/Houston/530-E-Delz-Dr-77022/home/30077170,HARMLS,67767266,N,Y,29.8399678,-95.390724
PAST SALE,December-31-2019,Single Family Residential,639 E Delz Dr,Houston,TX,77022,129000,3,1.0,Glenburnie,1296,8781,1953,518,100,,Sold,,,http://www.redfin.com/TX/Houston/639-E-Delz-Dr-77022/home/30077207,HARMLS,3140215,N,Y,29.8388818,-95.3892236
PAST SALE,April-30-2020,Single Family Residential,610 E Janisch Rd,Houston,TX,77022,95000,3,1.5,Glenburnie Sec 03,1916,7200,1940,397,50,,Sold,,,http://www.redfin.com/TX/Houston/610-E-Janisch-Rd-77022/home/30099559,HARMLS,13776810,N,Y,29.8367958,-95.3905809
PAST SALE,November-21-2018,Single Family Residential,211 E Thornton Rd,Houston,TX,77022,239990,3,2.0,Pecandale Court,1665,12560,1960,923,144,,Sold,,,http://www.redfin.com/TX/Houston/211-E-Thornton-Rd-77022/home/30121519,HARMLS,14569081,N,Y,29.8331953,-95.399293
PAST SALE,August-7-2020,Single Family Residential,111 Knightsbridge Park Ln,Houston,TX,77018,266700,3,2.5,Park at Yale,1543,1502,2020,298,173,183,Sold,,,http://www.redfin.com/TX/Houston/111-Knightsbridge-Park-Ln-77022/home/170262944,HARMLS,30835388,N,Y,29.832262,-95.401623
PAST SALE,May-27-2020,Single Family Residential,144 W Whitney St,Houston,TX,77018,214900,3,2.0,Whitney Plaza R/p,1185,4529,1966,370,181,,Sold,,,http://www.redfin.com/TX/Houston/144-W-Whitney-St-77022/home/30208957,HARMLS,82714784,N,Y,29.8318948,-95.4002338
PAST SALE,June-18-2020,Single Family Residential,301 Neyland St Unit B,Houston,TX,77022,319900,4,2.5,Villas ON Neyland Street,1757,2500,2019,348,182,,Sold,,,http://www.redfin.com/TX/Houston/301-Neyland-St-77022/unit-B/home/170263445,HARMLS,21974442,N,Y,29.8259435,-95.3962178
PAST SALE,March-13-2020,Single Family Residential,813 Mcdaniel St,Houston,TX,77022,269900,3,2.0,Stratton Place,1296,4800,2019,445,208,,Sold,,,http://www.redfin.com/TX/Houston/813-McDaniel-St-77022/home/29935675,HARMLS,9649832,N,Y,29.83146,-95.3604545
PAST SALE,April-24-2018,Single Family Residential,729 Caperton St,Houston,TX,77022,120000,3,3.0,Stratton Place,1035,11700,1944,1134,116,,Sold,,,http://www.redfin.com/TX/Houston/729-Caperton-St-77022/home/29935696,HARMLS,50277264,N,Y,29.8302951,-95.3619589
PAST SALE,August-3-2020,Single Family Residential,3404 Rogers St Unit A,Houston,TX,77022,320000,3,2.5,Lincoln Heights,1700,2250,2019,302,188,,Sold,,,http://www.redfin.com/TX/Houston/3404-Rogers-St-77022/unit-A/home/171781226,HARMLS,45445617,N,Y,29.817775,-95.385582
PAST SALE,June-25-2019,Single Family Residential,3302 Link Rd,Houston,TX,77022,359900,3,2.5,Independence Heights,1632,3313,2019,707,221,,Sold,,,http://www.redfin.com/TX/Houston/3302-Link-Rd-77022/home/167841093,HARMLS,83913430,N,Y,29.8167134,-95.3912764
PAST SALE,April-10-2019,Single Family Residential,622 E 39th,Houston,TX,77022,212000,3,2.5,Independence Heights,1521,3000,2017,783,139,,Sold,,,http://www.redfin.com/TX/Houston/622-E-39th-St-77022/home/66053289,HARMLS,70571477,N,Y,29.8211719,-95.391465
PAST SALE,February-14-2020,Multi-Family (2-4 Unit),3007 Avernus St,Houston,TX,77022,225000,0,1.0,East Independence Heights,2052,9540,1962,473,110,,Sold,,,http://www.redfin.com/TX/Houston/3007-Avernus-St-77022/home/29667555,HARMLS,91864688,N,Y,29.8147437,-95.3797029
PAST SALE,February-28-2019,Single Family Residential,610 E 38th,Houston,TX,77022,234900,3,2.5,Independence Heights,1521,3000,2017,824,154,,Sold,,,http://www.redfin.com/TX/Houston/610-E-38th-St-77022/home/29703433,HARMLS,74541546,N,Y,29.820345,-95.3919219
PAST SALE,July-31-2020,Single Family Residential,1101 E 38th St,Houston,TX,77022,209000,3,2.0,Independence Heights Park,1400,4000,1937,305,149,,Sold,,,http://www.redfin.com/TX/Houston/1101-E-38th-St-77022/home/29705007,HARMLS,9409602,N,Y,29.821088,-95.3855506
PAST SALE,March-12-2020,Single Family Residential,1020 E 37th,Houston,TX,77022,249900,3,2.5,Independence Heights,1582,4000,2019,446,158,,Sold,,,http://www.redfin.com/TX/Houston/1020-E-37th-St-77022/home/29705080,HARMLS,92031338,N,Y,29.8200143,-95.3856081
PAST SALE,November-19-2019,Single Family Residential,823 E 38th St,Houston,TX,77022,212000,3,2.0,Independence Heights Park,1663,4000,2019,560,127,,Sold,,,http://www.redfin.com/TX/Houston/823-E-38th-St-77022/home/29705167,HARMLS,91478377,N,Y,29.8210839,-95.3876327
PAST SALE,September-28-2020,Single Family Residential,716 E 40th St,Houston,TX,77022,107000,3,1.0,Independence Heights Park,940,4000,1950,246,114,,Sold,,,http://www.redfin.com/TX/Houston/716-E-40th-St-77022/home/29705220,HARMLS,76643562,N,Y,29.8220319,-95.3900492
PAST SALE,June-3-2020,Single Family Residential,923 E 39th St,Houston,TX,77022,110000,2,1.0,Independence Heights Park,816,4000,1940,363,135,,Sold,,,http://www.redfin.com/TX/Houston/923-E-39th-St-77022/home/29705284,HARMLS,24992479,N,Y,29.8217459,-95.3860004
PAST SALE,March-24-2020,Single Family Residential,3310 Castor St,Houston,TX,77022,339000,3,2.0,Lincoln Heights,1655,3000,2019,434,205,,Sold,,,http://www.redfin.com/TX/Houston/3310-Castor-St-77022/home/29709068,HARMLS,83453425,N,Y,29.816942,-95.387844
PAST SALE,September-5-2019,Single Family Residential,3307 Rogers St,Houston,TX,77022,319950,3,2.5,Lincoln Heights,1609,3000,2019,635,199,,Sold,,,http://www.redfin.com/TX/Houston/3307-Rogers-St-77022/home/29709116,HARMLS,57874653,N,Y,29.816873,-95.386014
PAST SALE,May-12-2020,Single Family Residential,3506 Rogers,Houston,TX,77022,339950,3,2.5,Lincoln Heights,1772,,,385,192,,Sold,,,http://www.redfin.com/TX/Houston/3506-Rogers-St-77022/home/29709227,HARMLS,44515616,N,Y,29.8185042,-95.3856221
PAST SALE,May-21-2019,Single Family Residential,3508 Rogers St,Houston,TX,77022,100000,1,1.0,Lincoln Heights,360,3000,2011,742,278,,Sold,,,http://www.redfin.com/TX/Houston/3508-Rogers-St-77022/home/29709228,HARMLS,57352612,N,Y,29.8185927,-95.385663
PAST SALE,December-31-2019,Single Family Residential,712 E 32 1/2a,Houston,TX,77022,339000,3,2.0,Mccomb LB,1602,4000,2019,518,212,,Sold,,,http://www.redfin.com/TX/Houston/712-E-32nd-1-2-St-77022/home/29817611,HARMLS,62953904,N,Y,29.8157523,-95.3903764
PAST SALE,July-28-2020,Single Family Residential,721 E 32nd 1/2 St,Houston,TX,77022,227000,3,2.0,Mccomb L B,1400,4000,1940,308,162,,Sold,,,http://www.redfin.com/TX/Houston/721-E-32nd-1-2-St-77022/home/29817622,HARMLS,44282925,N,Y,29.8160946,-95.389722
PAST SALE,November-8-2018,Single Family Residential,913 E 32nd St,Houston,TX,77022,322000,3,2.0,Mccomb L B,1602,4000,2018,936,201,,Sold,,,http://www.redfin.com/TX/Houston/913-E-32nd-St-77022/home/29817740,HARMLS,96874152,N,Y,29.815478,-95.386635
PAST SALE,February-20-2020,Single Family Residential,814 E 32nd St,Houston,TX,77022,200000,3,1.5,Mccomb L B,1414,4000,1940,467,141,,Sold,,,http://www.redfin.com/TX/Houston/814-E-32nd-St-77022/home/29817770,HARMLS,73939186,N,Y,29.8151093,-95.3884542
PAST SALE,July-10-2020,Single Family Residential,1314 E 34th St,Houston,TX,77022,234489,3,2.0,Bella Vista,1274,4000,2005,326,184,,Sold,,,http://www.redfin.com/TX/Houston/1314-E-34th-St-77022/home/29865730,HARMLS,44318648,N,Y,29.8170668,-95.3818906
PAST SALE,July-8-2020,Single Family Residential,1307 E 33rd St,Houston,TX,77022,185000,2,2.0,Bellavista,1128,4000,1946,328,164,,Sold,,,http://www.redfin.com/TX/Houston/1307-E-33rd-St-77022/home/29865744,HARMLS,6808167,N,Y,29.8167579,-95.3822791
PAST SALE,September-29-2020,Single Family Residential,1310 E 35th St,Houston,TX,77022,130000,2,1.0,Bellavista,864,8000,1930,245,150,,Sold,,,http://www.redfin.com/TX/Houston/1310-E-35th-St-77022/home/29865829,HARMLS,37911737,N,Y,29.8177564,-95.3821155
PAST SALE,August-14-2019,Single Family Residential,4129 Europa St,Houston,TX,77022,79900,3,1.0,Whitney Place Sec 01,936,5000,1945,657,85,,Sold,,,http://www.redfin.com/TX/Houston/4129-Europa-St-77022/home/29885393,HARMLS,6334031,N,Y,29.8252723,-95.3868592
PAST SALE,April-4-2019,Single Family Residential,716 Neyland St,Houston,TX,77022,150000,3,2.0,Whitney Place Sec 01,1504,11600,1962,789,100,,Sold,,,http://www.redfin.com/TX/Houston/716-Neyland-St-77022/home/29885438,HARMLS,24132352,N,Y,29.8256534,-95.3907854
PAST SALE,September-28-2018,Single Family Residential,709 E 41st St,Houston,TX,77022,230000,3,2.0,Whitney Place Sec 02,1582,5460,1950,977,145,,Sold,,,http://www.redfin.com/TX/Houston/709-E-41st-St-77022/home/29886297,HARMLS,92944788,N,Y,29.8237301,-95.3909694
PAST SALE,June-3-2019,Multi-Family (2-4 Unit),1107 E 40 1/2 St,Houston,TX,77022,200000,0,,Whitney Place,1444,5928,1948,729,139,,Sold,,,http://www.redfin.com/TX/Houston/1107-E-40th-1-2-St-77022/home/29886357,HARMLS,21363557,N,Y,29.8232552,-95.3854688
PAST SALE,November-26-2019,Single Family Residential,703 E 40th 1/2 St,Houston,TX,77022,217999,3,2.0,Whitney Place Sec 02,1380,7150,1962,553,158,,Sold,,,http://www.redfin.com/TX/Houston/703-E-40th-1-2-St-77022/home/29886410,HARMLS,3369969,N,Y,29.8230672,-95.3911944
PAST SALE,August-31-2020,Single Family Residential,925 E 32nd 1/2 St,Houston,TX,77022,220000,3,1.5,Independence Heights,1136,4000,1999,274,194,,Sold,,,http://www.redfin.com/TX/Houston/925-E-32nd-1-2-St-77022/home/30696960,HARMLS,14467663,N,Y,29.8161091,-95.3860413
PAST SALE,June-24-2019,Single Family Residential,1003 E 36th,Houston,TX,77022,212000,3,2.5,Independence Heights,1582,4000,2018,708,134,,Sold,,,http://www.redfin.com/TX/Houston/1003-E-36th-St-77022/home/45416612,HARMLS,993209,N,Y,29.8196705,-95.3858563
PAST SALE,January-28-2020,Single Family Residential,801 E 40th,Houston,TX,77022,212000,3,2.5,Independence Heights,1521,3000,2019,490,139,,Sold,,,http://www.redfin.com/TX/Houston/801-E-40th-St-77022/home/45416628,HARMLS,77447263,N,Y,29.822454,-95.388914
PAST SALE,July-21-2016,Single Family Residential,234 Norview Dr,Houston,TX,77022,105000,4,2.0,Norview Terrace,1488,6324,1950,1776,71,,Sold,,,http://www.redfin.com/TX/Houston/234-Norview-Dr-77022/home/30030711,HARMLS,34647940,N,Y,29.8343906,-95.3987203
PAST SALE,May-19-2017,Single Family Residential,907 E 32nd 1/2 St,Houston,TX,77022,209000,2,2.0,Mccomb L B,1140,4000,1935,1474,183,,Sold,,,http://www.redfin.com/TX/Houston/907-E-32nd-1-2-St-77022/home/29817741,HARMLS,88898943,N,Y,29.8161142,-95.3870228
PAST SALE,,Multi-Family (2-4 Unit),511 Caplin St,Houston,TX,77022,,2,2.0,,1200,5400,1940,,,,Sold,,,http://www.redfin.com/TX/Houston/511-Caplin-St-77022/home/29846462,HARMLS,,N,Y,29.815816,-95.364895
PAST SALE,November-14-2017,Vacant Land,200 Garrotsville,Houston,TX,77022,125000,,,Carrington Place,,6700,,1295,,,Sold,,,http://www.redfin.com/TX/Houston/200-Garrotsville-St-77022/home/29965502,HARMLS,30843449,N,Y,29.83107,-95.3742585
PAST SALE,September-7-2017,Single Family Residential,8111 Roswell St,Houston,TX,77022,135000,3,1.0,Dawnridge,920,7250,1949,1363,147,,Sold,,,http://www.redfin.com/TX/Houston/8111-Roswell-St-77022/home/29975745,HARMLS,37292542,N,Y,29.834857,-95.3695219
PAST SALE,March-29-2017,Single Family Residential,322 Spell St,Houston,TX,77022,63000,2,1.0,Victoria Gardens,1200,8400,1956,1525,53,,Sold,,,http://www.redfin.com/TX/Houston/322-Spell-St-77022/home/30057118,HARMLS,34371529,N,Y,29.8363271,-95.3965524
PAST SALE,June-22-2017,Single Family Residential,522 Bizerte St,Houston,TX,77022,154500,4,2.0,Glenburnie Sec 03,1460,14530,1956,1440,106,,Sold,,,http://www.redfin.com/TX/Houston/522-Bizerte-St-77022/home/30099421,HARMLS,9879163,N,Y,29.8375321,-95.3913171
PAST SALE,May-31-2018,Single Family Residential,1040 Caperton St,Houston,TX,77022,125000,2,1.0,Caperton-cochran Sec 01,888,10000,1950,1097,141,,Sold,,,http://www.redfin.com/TX/Houston/1040-Caperton-St-77022/home/29231656,HARMLS,81484009,N,Y,29.8298626,-95.3570537
PAST SALE,April-26-2018,Single Family Residential,907 Reid St,Houston,TX,77022,200000,2,1.0,Lindale Court,1148,12500,1940,1132,174,,Sold,,,http://www.redfin.com/TX/Houston/907-Reid-St-77022/home/29910424,HARMLS,30414118,N,Y,29.8150349,-95.3591792
PAST SALE,February-23-2018,Single Family Residential,702 E 37th St,Houston,TX,77022,212000,3,2.5,Independence Heights,1582,4000,2017,1194,134,,Sold,,,http://www.redfin.com/TX/Houston/702-E-37th-St-77022/home/52563791,HARMLS,61580192,N,Y,29.819964,-95.390769
PAST SALE,June-29-2018,Single Family Residential,3320 Cornell St Unit A,Houston,TX,77022,279900,2,2.5,Cornell Street Landing,1368,2475,2017,1068,205,,Sold,,,http://www.redfin.com/TX/Houston/3320-Cornell-St-77022/unit-A/home/144619171,HARMLS,69429350,N,Y,29.8173596,-95.3886607
PAST SALE,December-6-2017,Single Family Residential,4035 Castor St,Houston,TX,77022,250000,3,2.0,Whitney Place Sec 02,1274,5000,2016,1273,196,,Sold,,,http://www.redfin.com/TX/Houston/4035-Castor-St-77022/home/29886399,HARMLS,2708467,N,Y,29.8234509,-95.3884133
PAST SALE,May-5-2017,Single Family Residential,59 Penway St,Houston,TX,77022,115000,2,1.0,Meadow Lea Anx,1124,7076,1951,1488,102,,Sold,,,http://www.redfin.com/TX/Houston/59-Penway-St-77022/home/29976158,HARMLS,69096774,N,Y,29.8383132,-95.3782104
PAST SALE,June-28-2017,Single Family Residential,9038 Mcgallion Rd,Houston,TX,77022,118000,3,2.5,Victorian Heights Village,1430,3774,2003,1434,83,,Sold,,,http://www.redfin.com/TX/Houston/9038-McGallion-Rd-77022/home/29174715,HARMLS,19810545,N,Y,29.8423993,-95.3680501
PAST SALE,May-4-2018,Single Family Residential,4207 Castor St,Houston,TX,77022,115000,3,2.0,Whitney Place,1192,6820,1993,1124,96,,Sold,,,http://www.redfin.com/TX/Houston/4207-Castor-St-77022/home/29885422,HARMLS,30340834,N,Y,29.826154,-95.3884542
PAST SALE,February-20-2018,Single Family Residential,207 Victoria Dr,Houston,TX,77022,139000,3,1.0,Graceland Terrace Sec 01,860,8580,1957,1197,162,,Sold,,,http://www.redfin.com/TX/Houston/207-Victoria-Dr-77022/home/30062178,HARMLS,73830676,N,Y,29.8358314,-95.3998656
PAST SALE,June-22-2017,Single Family Residential,607 Bizerte St,Houston,TX,77022,96000,3,1.0,Glenburnie Sec 03,1217,7350,1955,1440,79,,Sold,,,http://www.redfin.com/TX/Houston/607-Bizerte-St-77022/home/30099601,HARMLS,70724088,N,Y,29.8380095,-95.3906627
PAST SALE,March-14-2018,Single Family Residential,317 E Rogers St,Houston,TX,77022,170000,4,2.0,Garden Acres,1747,26173,1945,1175,97,,Sold,,,http://www.redfin.com/TX/Houston/317-E-Rogers-St-77022/home/45416911,HARMLS,34568824,N,Y,29.8436874,-95.3945687
PAST SALE,April-28-2017,Single Family Residential,1402 Knight St,Houston,TX,77022,166000,2,1.5,Plymouth Place Sec 01 Ext,1008,13000,1945,1495,165,,Sold,,,http://www.redfin.com/TX/Houston/1402-Knight-St-77022/home/29975333,HARMLS,56243223,N,Y,29.8397487,-95.358934
PAST SALE,July-14-2017,Vacant Land,903 N Loop,Houston,TX,77022,135000,,,Mccomb L B,,4000,,1418,,,Sold,,,http://www.redfin.com/TX/Houston/903-North-Loop-77022/home/29817722,HARMLS,34329406,N,Y,29.8147066,-95.3872337
PAST SALE,March-9-2018,Single Family Residential,1207 E 32nd 1/2 St,Houston,TX,77022,94900,3,1.0,Airline Heights,819,4000,1940,1180,116,,Sold,,,http://www.redfin.com/TX/Houston/1207-E-32nd-1-2-St-77022/home/29840053,HARMLS,54751989,N,Y,29.816112,-95.3837512
PAST SALE,January-26-2018,Single Family Residential,813 E 36th,Houston,TX,77022,212000,3,2.5,Independence Heights,1582,4000,2017,1222,134,,Sold,,,http://www.redfin.com/TX/Houston/813-E-36th-St-77022/home/45416617,HARMLS,73961964,N,Y,29.8196758,-95.388127
PAST SALE,September-29-2017,Single Family Residential,911 E 32nd St,Houston,TX,77022,309999,3,2.0,Mccomb L B,1450,4000,2017,1341,214,,Sold,,,http://www.redfin.com/TX/Houston/911-E-32nd-St-77022/home/29817738,HARMLS,53137395,N,Y,29.815448,-95.3867774
PAST SALE,June-20-2017,Single Family Residential,1420 E 31st,Houston,TX,77022,305000,3,2.5,Independence Heights,1764,3195,2016,1442,173,,Sold,,,http://www.redfin.com/TX/Houston/1420-E-31st-St-77022/home/29667551,HARMLS,96173213,N,Y,29.8149626,-95.3801424
PAST SALE,November-8-2017,Single Family Residential,1007 Post,Houston,TX,77022,134000,3,2.0,Colonial Gardens,,,1948,1301,,,Sold,,,http://www.redfin.com/TX/Houston/1007-Post-St-77022/home/29929987,HARMLS,16562457,N,Y,29.8266992,-95.3583617
PAST SALE,August-7-2017,Single Family Residential,4208 NW Europa St,Houston,TX,77022,99900,2,1.0,Whitney Place Sec 01,800,2375,1962,1394,125,,Sold,,,http://www.redfin.com/TX/Houston/4208-Europa-St-77022/home/29886315,HARMLS,78413771,N,Y,29.8259993,-95.3864401
PAST SALE,December-13-2016,Single Family Residential,18 Farrell St,Houston,TX,77022,95000,3,1.0,Farrell Gardens,1216,13020,1948,1631,78,,Sold,,,http://www.redfin.com/TX/Houston/18-Farrell-St-77022/home/29954490,HARMLS,7931074,N,Y,29.8396963,-95.3824426
PAST SALE,,Single Family Residential,306 E 43rd St,Houston,TX,77022,,2,2.0,,1091,5000,1940,,,,Sold,,,http://www.redfin.com/TX/Houston/306-E-43rd-St-77022/home/29898917,HARMLS,,N,Y,29.8247188,-95.3949163
PAST SALE,November-11-2020,Townhouse,713 Apogee Trl,Houston,TX,77022,279900,3,2.5,Whitney Enclave,1502,,2020,202,186,150,Sold,,,http://www.redfin.com/TX/Houston/713-Apogee-TRL-77022/home/173368301,HARMLS,68888609,N,Y,29.831004,-95.390495
PAST SALE,January-22-2021,Townhouse,406 E 41st St,Houston,TX,77022,282000,3,2.5,Jireh,1732,2517,2017,130,163,,Sold,,,http://www.redfin.com/TX/Houston/406-E-41st-St-77022/home/167831427,HARMLS,23256661,N,Y,29.8233063,-95.3941801
PAST SALE,February-19-2020,Multi-Family (2-4 Unit),514 E 40th 1/2 St Unit A B,Houston,TX,77022,199000,0,2.0,Willadale Sec 03,2024,5005,1958,468,98,,Sold,,,http://www.redfin.com/TX/Houston/514-E-40th-1-2-St-77022/unit-A-B/home/170116244,HARMLS,38626311,N,Y,29.8226551,-95.3935666
PAST SALE,October-1-2020,Townhouse,703 Apogee Trl,Houston,TX,77022,279900,3,2.5,Whitney Enclave,1502,,2020,243,186,150,Sold,,,http://www.redfin.com/TX/Houston/703-Apogee-TRL-77022/home/172111744,HARMLS,87880052,N,Y,29.831086,-95.390376
PAST SALE,October-30-2020,Townhouse,711 Apogee Trl,Houston,TX,77022,279900,3,2.5,Whitney Enclave,1502,,2020,214,186,150,Sold,,,http://www.redfin.com/TX/Houston/711-Apogee-TRL-77022/home/171551180,HARMLS,61975286,N,Y,29.831086,-95.390376
PAST SALE,June-1-2020,Single Family Residential,403 E 42 St Unit B,Houston,TX,77022,299900,3,2.5,St Maron Place,1972,2500,2019,365,152,,Sold,,,http://www.redfin.com/TX/Houston/403-E-42nd-St-77022/unit-B/home/170427558,HARMLS,92732717,N,Y,29.824417,-95.394453
PAST SALE,November-30-2020,Townhouse,707 Apogee Trl,Houston,TX,77022,279900,3,2.5,Whitney Enclave,1502,,2020,183,186,150,Sold,,,http://www.redfin.com/TX/Houston/707-Apogee-TRL-77022/home/173350195,HARMLS,37522269,N,Y,29.831004,-95.390495
PAST SALE,December-17-2020,Townhouse,4509 Whitney Park Way,Houston,TX,77022,289900,3,2.5,Whitney Enclave,1556,,2020,166,186,150,Sold,,,http://www.redfin.com/TX/Houston/4509-E-Whitney-St-77022/home/173498543,HARMLS,37066448,N,Y,29.831086,-95.390376
PAST SALE,November-10-2020,Townhouse,709 Apogee Trl,Houston,TX,77022,289900,3,2.5,Whitney Enclave,1502,,2020,203,193,150,Sold,,,http://www.redfin.com/TX/Houston/709-Apogee-TRL-77022/home/169903497,HARMLS,87091382,N,Y,29.831086,-95.390376
PAST SALE,December-29-2020,Single Family Residential,515 E 37th St,Houston,TX,77022,364900,3,2.5,School Add/independence Heights,1984,3000,2020,154,184,,Sold,,,http://www.redfin.com/TX/Houston/515-E-37th-St-77022/home/172369430,HARMLS,89643374,N,Y,29.8199276,-95.3929348
PAST SALE,November-19-2020,Townhouse,705 Apogee Trl,Houston,TX,77022,279900,3,2.5,Whitney Enclave,1502,,2020,194,186,150,Sold,,,http://www.redfin.com/TX/Houston/705-Apogee-TRL-77022/home/173367973,HARMLS,78655723,N,Y,29.831004,-95.390495
PAST SALE,July-15-2020,Single Family Residential,301 Neyland St Unit A,Houston,TX,77022,319900,4,2.5,Villas ON Neyland Street,1757,2500,2019,321,182,,Sold,,,http://www.redfin.com/TX/Houston/301-Neyland-St-77022/unit-A/home/170263444,HARMLS,40433333,N,Y,29.8259435,-95.3962178
PAST SALE,July-9-2020,Single Family Residential,403 E 42nd St Unit A,Houston,TX,77022,299900,3,2.5,St Maron Place,1972,2500,2019,327,152,,Sold,,,http://www.redfin.com/TX/Houston/403-E-42nd-St-77022/unit-A/home/167841008,HARMLS,97167459,N,Y,29.824417,-95.394453
PAST SALE,March-16-2021,Townhouse,4511 Whitney Park Way,Houston,TX,77022,289900,3,2.5,Whitney Enclave,1556,,2020,77,186,150,Sold,,,http://www.redfin.com/TX/Houston/4511-Whitney-Pkwy-77022/home/173498972,HARMLS,21211838,N,Y,29.8310639,-95.3905492
PAST SALE,April-28-2021,Townhouse,4510 Whitney Park Way,Houston,TX,77022,289900,3,2.5,Whitney Enclave,1556,,2020,34,186,150,Sold,,,http://www.redfin.com/TX/Houston/4510-Whitney-Pkwy-77022/home/174785982,HARMLS,75464605,N,Y,29.831077,-95.3902666
PAST SALE,June-11-2020,Single Family Residential,536 E 38th,Houston,TX,77022,239900,3,2.5,Independence Heights,1521,3000,2019,355,158,,Sold,,,http://www.redfin.com/TX/Houston/536-E-38th-St-77022/home/170198688,HARMLS,81458409,N,Y,29.8204373,-95.3927603
PAST SALE,May-12-2021,Townhouse,4506 Whitney Park Way,Houston,TX,77022,289900,3,2.5,Whitney Enclave,1556,,2020,20,186,150,Sold,,,http://www.redfin.com/TX/Houston/4506-Whitney-Pkwy-77022/home/174791314,HARMLS,14003320,N,Y,29.831077,-95.3902666
PAST SALE,January-11-2019,Single Family Residential,616 E 39th,Houston,TX,77022,212000,3,2.5,Independence Heights,1521,3000,2017,872,139,,Sold,,,http://www.redfin.com/TX/Houston/616-E-39th-St-77022/home/66053285,HARMLS,88019863,N,Y,29.8212614,-95.391719
PAST SALE,April-17-2019,Single Family Residential,620 E 39th,Houston,TX,77022,212000,3,2.5,Independence Heights,1521,3000,2017,776,139,,Sold,,,http://www.redfin.com/TX/Houston/620-E-39th-St-77022/home/66053286,HARMLS,73901539,N,Y,29.8211712,-95.3915438
PAST SALE,April-1-2019,Single Family Residential,624 E 39th,Houston,TX,77022,212000,3,2.5,Independence Heights,1521,3000,2017,792,139,,Sold,,,http://www.redfin.com/TX/Houston/624-E-39th-St-77022/home/66053288,HARMLS,67669072,N,Y,29.8212891,-95.3913977
PAST SALE,November-25-2020,Single Family Residential,405 B E 42nd St,Houston,TX,77022,275000,3,3.0,Many Blessings,1672,2500,2019,188,164,,Sold,,,http://www.redfin.com/TX/Houston/405-E-42nd-St-77022/home/109941322,HARMLS,87149740,N,Y,29.8243292,-95.39433
PAST SALE,February-21-2020,Single Family Residential,525 E 40th,Houston,TX,77022,249900,3,2.5,Independence Heights,1582,4000,2019,466,158,,Sold,,,http://www.redfin.com/TX/Houston/525-E-40th-St-77022/home/29703471,HARMLS,87179333,N,Y,29.8223638,-95.3929597
PAST SALE,December-31-2020,Multi-Family (2-4 Unit),724 E 39th St,Houston,TX,77022,245000,0,1.0,Independence Heights Park,960,4000,1945,152,255,,Sold,,,http://www.redfin.com/TX/Houston/724-E-39th-St-77022/home/29705225,HARMLS,24115466,N,Y,29.8214108,-95.3898038
PAST SALE,December-19-2019,Single Family Residential,713 E 38th St,Houston,TX,77022,99999,2,1.0,Independence Heights Park,888,4000,1946,530,113,,Sold,,,http://www.redfin.com/TX/Houston/713-E-38th-St-77022/home/29705228,HARMLS,91235678,N,Y,29.8210352,-95.3901719
PAST SALE,November-8-2018,Single Family Residential,725 E 38th St,Houston,TX,77022,89000,2,1.0,Independence Heights Park,864,4000,1949,936,103,,Sold,,,http://www.redfin.com/TX/Houston/725-E-38th-St-77022/home/29705233,HARMLS,11604338,N,Y,29.8210602,-95.3895584
PAST SALE,August-19-2019,Single Family Residential,807 E 42nd St,Houston,TX,77022,154000,3,1.0,Whitney Place Sec 03,1026,5665,1957,652,150,,Sold,,,http://www.redfin.com/TX/Houston/807-E-42nd-St-77022/home/29886379,HARMLS,65200929,N,Y,29.8244679,-95.3900083
PAST SALE,November-30-2020,Single Family Residential,742 E 40th 1/2 St,Houston,TX,77022,278800,4,2.0,Whitney Place Sec 02,1567,5460,1950,183,178,,Sold,,,http://www.redfin.com/TX/Houston/742-E-40th-1-2-St-77022/home/29886408,HARMLS,15118221,N,Y,29.8227181,-95.3892517
PAST SALE,February-13-2019,Single Family Residential,304 E 41st St,Houston,TX,77018,120000,2,1.0,Willadale,826,5005,1942,839,145,,Sold,,,http://www.redfin.com/TX/Houston/304-E-41st-St-77018/home/29898996,HARMLS,18132366,N,Y,29.8233331,-95.3957344
PAST SALE,November-29-2018,Single Family Residential,503 E 40th 1/2 St,Houston,TX,77022,299999,3,2.5,Quinn Villas,2402,2500,2018,915,125,,Sold,,,http://www.redfin.com/TX/Houston/503-E-40th-1-2-St-77022/home/29899037,HARMLS,40793636,N,Y,29.823056,-95.394478
PAST SALE,July-30-2020,Single Family Residential,8406 N Main St,Houston,TX,77022,195000,3,1.0,Southward,1010,8770,1934,306,193,,Sold,,,http://www.redfin.com/TX/Houston/8406-N-Main-St-77022/home/29910594,HARMLS,34035235,N,Y,29.8247472,-95.3956014
PAST SALE,August-31-2018,Single Family Residential,508 E 42nd St,Houston,TX,77022,230000,3,2.0,Oxford Place,1300,6200,1948,1005,177,,Sold,,,http://www.redfin.com/TX/Houston/508-E-42nd-St-77022/home/29953427,HARMLS,12417791,N,Y,29.8240341,-95.39236
PAST SALE,May-24-2021,Vacant Land,227 Noras Ln,Houston,TX,77022,119000,,,Gruss Place,,7400,,8,,,Sold,,,http://www.redfin.com/TX/Houston/227-Noras-Ln-77022/home/29954682,HARMLS,51718778,N,Y,29.8298812,-95.3965524
PAST SALE,July-30-2020,Single Family Residential,530 Barkley St,Houston,TX,77022,149000,3,1.0,Validale Gardens,1414,6758,1960,306,105,,Sold,,,http://www.redfin.com/TX/Houston/530-Barkley-St-77022/home/29957068,HARMLS,71035691,N,Y,29.8264065,-95.3922169
PAST SALE,February-24-2020,Single Family Residential,270 Lena Dr,Houston,TX,77022,125000,3,1.0,Norview Terrace,1056,8385,1955,463,118,,Sold,,,http://www.redfin.com/TX/Houston/270-Lena-Dr-77022/home/30030731,HARMLS,57684102,N,Y,29.8340851,-95.3979227
PAST SALE,August-16-2019,Single Family Residential,4546 Lelay Cir,Houston,TX,77022,99700,2,1.0,Whitney Place West,862,1440,1961,655,116,,Sold,,,http://www.redfin.com/TX/Houston/4546-Lelay-Cir-77022/home/30626885,HARMLS,69146658,N,Y,29.8317361,-95.3985976
PAST SALE,May-12-2021,Single Family Residential,1229 & 1231 Yorkshire St,Houston,TX,77022,180000,3,1.0,Colonial Gardens,1064,11700,1945,20,169,,Sold,,,http://www.redfin.com/TX/Houston/1231-Yorkshire-St-77022/home/175036842,HARMLS,19796117,N,Y,29.8279805,-95.3557821
PAST SALE,November-20-2020,Single Family Residential,7714 Helmers St,Houston,TX,77022,179900,3,1.0,Anna P Stewart Sub,1104,5901,1950,193,163,,Sold,,,http://www.redfin.com/TX/Houston/7714-Helmers-St-77022/home/29786241,HARMLS,24645337,N,Y,29.8318607,-95.3655972
PAST SALE,August-17-2018,Single Family Residential,536 Comile St,Houston,TX,77022,199970,3,2.0,Oakwood Ext Sec 01,1055,5668,1949,1019,190,,Sold,,,http://www.redfin.com/TX/Houston/536-Comile-St-77022/home/29809906,HARMLS,88313490,N,Y,29.8198478,-95.3661287
PAST SALE,March-31-2021,Single Family Residential,1206 King St,Houston,TX,77022,221900,2,1.0,Belt Jct City Ext,1048,9000,1940,62,212,,Sold,,,http://www.redfin.com/TX/Houston/1206-King-St-77022/home/29846391,HARMLS,88604656,N,Y,29.8170876,-95.3563588
PAST SALE,April-14-2021,Multi-Family (2-4 Unit),1415 Reid St,Houston,TX,77022,324900,0,2.0,Lindale Court,1964,9375,1938,48,165,,Sold,,,http://www.redfin.com/TX/Houston/1415-Reid-St-77022/home/29910278,HARMLS,36898914,N,Y,29.8150629,-95.354029
PAST SALE,April-12-2021,Single Family Residential,1203 Reid St,Houston,TX,77022,269900,3,2.0,Lindale Court,1267,10625,1930,50,213,,Sold,,,http://www.redfin.com/TX/Houston/1203-Reid-St-77022/home/29910450,HARMLS,52705703,N,Y,29.8150253,-95.3560727
PAST SALE,January-22-2019,Single Family Residential,608 Caplin St,Houston,TX,77022,192900,3,1.5,Lindale Court,1516,6250,1964,861,127,,Sold,,,http://www.redfin.com/TX/Houston/608-Caplin-St-77022/home/29910554,HARMLS,34541104,N,Y,29.8154303,-95.3627765
PAST SALE,December-16-2020,Single Family Residential,1102 Westford St,Houston,TX,77022,259000,3,2.0,Beverly Place,1477,10200,1965,167,175,,Sold,,,http://www.redfin.com/TX/Houston/1102-Westford-St-77022/home/29929280,HARMLS,48047257,N,Y,29.823832,-95.3573603
PAST SALE,May-12-2021,Single Family Residential,1233 Yorkshire St,Houston,TX,77022,110000,2,1.0,Colonial Gardens,948,11700,1955,20,116,,Sold,,,http://www.redfin.com/TX/Houston/1233-Yorkshire-St-77022/home/29929527,HARMLS,74364781,N,Y,29.828128,-95.3555381
PAST SALE,October-2-2018,Single Family Residential,630 Post St,Houston,TX,77022,135000,3,2.0,Colonial Gardens,1224,13260,1938,973,110,,Sold,,,http://www.redfin.com/TX/Houston/630-Post-St-77022/home/29929594,HARMLS,72862789,N,Y,29.8261936,-95.3641664
PAST SALE,June-5-2020,Single Family Residential,722 Yorkshire St,Houston,TX,77022,105000,3,1.0,Colonial Gardens,1300,11700,1941,361,81,,Sold,,,http://www.redfin.com/TX/Houston/722-Yorkshire-St-77022/home/29930036,HARMLS,23156314,N,Y,29.8273871,-95.3630831
PAST SALE,October-24-2018,Single Family Residential,1028 Caperton St,Houston,TX,77022,72000,3,1.0,Stratton Place,1134,12675,1952,951,63,,Sold,,,http://www.redfin.com/TX/Houston/1028-Caperton-St-77022/home/29935654,HARMLS,95541971,N,Y,29.8298779,-95.3577895
PAST SALE,May-31-2019,Single Family Residential,744 Mcdaniel St,Houston,TX,77022,125000,3,1.0,Stratton Place,1840,11700,1950,732,68,,Sold,,,http://www.redfin.com/TX/Houston/744-McDaniel-St-77022/home/29935691,HARMLS,41222967,N,Y,29.8310313,-95.361591
PAST SALE,May-31-2019,Single Family Residential,741 Mcdaniel St,Houston,TX,77022,150000,2,1.0,Stratton Place,1272,14400,1950,732,118,,Sold,,,http://www.redfin.com/TX/Houston/741-McDaniel-St-77022/home/29935715,HARMLS,23344924,N,Y,29.8314755,-95.3617545
PAST SALE,May-6-2019,Single Family Residential,637 Mcdaniel St,Houston,TX,77022,264900,3,2.0,Stratton Place,1466,11700,1960,757,181,,Sold,,,http://www.redfin.com/TX/Houston/637-McDaniel-St-77022/home/29935720,HARMLS,10769779,N,Y,29.8314712,-95.3640846
PAST SALE,April-19-2021,Single Family Residential,8110 Helmers St,Houston,TX,77022,324997,4,2.0,Oakcrest,1971,8100,1946,43,165,,Sold,,,http://www.redfin.com/TX/Houston/8110-Helmers-St-77022/home/29956742,HARMLS,17405521,N,Y,29.8354987,-95.3656483
PAST SALE,September-17-2019,Single Family Residential,7814 Melrose St,Houston,TX,77022,290000,5,2.5,Oakcrest,2233,16616,1945,623,130,,Sold,,,http://www.redfin.com/TX/Houston/7814-Melrose-St-77022/home/29956899,HARMLS,10266159,N,Y,29.833177,-95.366624
PAST SALE,July-25-2018,Single Family Residential,1301 Norham St,Houston,TX,77022,165000,3,1.0,Tarelton Place,1488,18900,1940,1042,111,,Sold,,,http://www.redfin.com/TX/Houston/1301-Norham-St-77022/home/29975090,HARMLS,97150843,N,Y,29.8361289,-95.3581573
PAST SALE,July-19-2019,Single Family Residential,1143 Norham St,Houston,TX,77022,175000,4,2.0,Reed P A,1136,7250,1945,683,154,,Sold,,,http://www.redfin.com/TX/Houston/1143-Norham-St-77022/home/30001171,HARMLS,55969484,N,Y,29.8361532,-95.3608961
PAST SALE,May-25-2021,Single Family Residential,1112 Eubanks St,Houston,TX,77022,199000,3,2.0,Danna,1467,11968,1958,7,136,,Sold,,,http://www.redfin.com/TX/Houston/1112-Eubanks-St-77022/home/30050824,HARMLS,53705113,N,Y,29.8326542,-95.3571354
PAST SALE,October-7-2020,Vacant Land,239 Julia St,Houston,TX,77022,530000,,,East Montgomery Acres,,40000,,237,,,Sold,,,http://www.redfin.com/TX/Houston/239-Julia-St-77022/home/29939788,HARMLS,57214475,N,Y,29.8347475,-95.3722203
PAST SALE,August-21-2020,Vacant Land,63 De Boll St,Houston,TX,77022,89000,,,Elmwood,,10440,,284,,,Sold,,,http://www.redfin.com/TX/Houston/63-De-Boll-St-77022/home/29973901,HARMLS,75526534,N,Y,29.842986,-95.378904
PAST SALE,February-26-2019,Vacant Land,0 Mcdaniel St,Houston,TX,77022,90000,,,Stratton Place,,11700,,826,,,Sold,,,http://www.redfin.com/TX/Houston/1120-McDaniel-St-77022/home/173680623,HARMLS,24732100,N,Y,29.8309925,-95.3569586
PAST SALE,September-28-2020,Vacant Land,0 East 40th St,Houston,TX,77022,85000,,,Independence Heights Park,,4000,,246,,,Sold,,,http://www.redfin.com/TX/Houston/1331-E-40th-St-77022/home/173659760,HARMLS,67668858,N,Y,29.8228673,-95.3822586
PAST SALE,August-2-2019,Vacant Land,TBD Crosstimbers,Houston,TX,77022,569000,,,Colonial Gardens,,21300,,669,,,Sold,,,http://www.redfin.com/TX/Houston/TBD-Crosstimbers-St-77022/home/167103149,HARMLS,10335443,N,Y,29.828772,-95.361962
PAST SALE,January-14-2021,Vacant Land,0 E 37th St,Houston,TX,77022,90000,,,Independence Heights Park,,4000,,138,,,Sold,,,http://www.redfin.com/TX/Houston/W-32nd-St-77022/home/147234259,HARMLS,60179588,N,Y,29.815942,-95.384186
PAST SALE,June-14-2019,Vacant Land,1514 E 33rd St,Houston,TX,77022,47500,,,East Independence Heights,,3180,,718,,,Sold,,,http://www.redfin.com/TX/Houston/1514-E-33rd-St-77022/home/29667620,HARMLS,78717654,N,Y,29.8164604,-95.378244
PAST SALE,June-7-2019,Vacant Land,1408 E 33rd St,Houston,TX,77022,50000,,,East Independence Heights,,3180,,725,,,Sold,,,http://www.redfin.com/TX/Houston/1408-E-33rd-St-77022/home/29667681,HARMLS,57990491,N,Y,29.816393,-95.380801
PAST SALE,July-31-2020,Vacant Land,3111 Eastman St,Houston,TX,77022,69999,,,East Independence Heights,,2760,,305,,,Sold,,,http://www.redfin.com/TX/Houston/3111-Eastman-St-77022/home/29667697,HARMLS,16417921,N,Y,29.815565,-95.3813289
PAST SALE,November-16-2020,Vacant Land,3515 Rogers St,Houston,TX,77022,84000,,,Lincoln Heights,,3000,,197,,,Sold,,,http://www.redfin.com/TX/Houston/3515-Rogers-St-77022/home/29709177,HARMLS,68478630,N,Y,29.81882,-95.386041
PAST SALE,December-14-2018,Vacant Land,314 Dorchester,North Houston,TX,77022,59900,,,J S Collins,,4950,,900,,,Sold,,,http://www.redfin.com/TX/Houston/314-Dorchester-St-77022/home/29787010,HARMLS,70340036,N,Y,29.822429,-95.371115
PAST SALE,October-15-2018,Vacant Land,3310 Airline Dr,Houston,TX,77022,150000,,,Bellavista,,10600,,960,,,Sold,,,http://www.redfin.com/TX/Houston/3310-Airline-Dr-77022/home/29865714,HARMLS,58789543,N,Y,29.816981,-95.382693
PAST SALE,December-2-2020,Vacant Land,1320 E 35th St E,Houston,TX,77022,199000,,,Bellavista,,8000,,181,,,Sold,,,http://www.redfin.com/TX/Houston/1320-E-35th-St-77022/home/29865716,HARMLS,91961689,N,Y,29.817744,-95.381465
PAST SALE,October-4-2019,Vacant Land,1313 E 35th St,Houston,TX,77022,58999,,,Bellavista Add,,4000,,606,,,Sold,,,http://www.redfin.com/TX/Houston/1313-E-35th-St-77022/home/29865820,HARMLS,8535367,N,Y,29.818118,-95.3821619
PAST SALE,November-25-2020,Vacant Land,1411 E 34th St,Houston,TX,77022,70000,,,Bellavista,,4000,,188,,,Sold,,,http://www.redfin.com/TX/Houston/1411-E-34th-St-77022/home/29866322,HARMLS,94571050,N,Y,29.817481,-95.380249
PAST SALE,February-7-2020,Vacant Land,4208 Castor St,Houston,TX,77022,70000,,,Whitney Place Sec 01,,5000,,480,,,Sold,,,http://www.redfin.com/TX/Houston/4208-Castor-St-77022/home/29885361,HARMLS,91034720,N,Y,29.826225,-95.387981
PAST SALE,September-18-2020,Vacant Land,211 Caplin St,Houston,TX,77022,110000,,,Paine Place,,5550,,256,,,Sold,,,http://www.redfin.com/TX/Houston/211-Caplin-St-77022/home/29911405,HARMLS,17555718,N,Y,29.8157546,-95.3692357
PAST SALE,February-13-2020,Vacant Land,22 Stokes St,Houston,TX,77022,59500,,,Mcclendon Place,,4160,,474,,,Sold,,,http://www.redfin.com/TX/Houston/22-Stokes-St-77022/home/29967285,HARMLS,23058869,N,Y,29.8187712,-95.3753994
PAST SALE,January-15-2019,Vacant Land,0 Omega St,Houston,TX,77022,800000,,,Independence Heights Sec 01,,22600,,868,,,Sold,,,http://www.redfin.com/TX/HOUSTON/OMEGA-ST-77022/home/170199865,HARMLS,81968655,N,Y,29.816384,-95.385299
PAST SALE,,Vacant Land,4200 Rogers St,Houston,TX,77022,,,,,,5000,,,,,Sold,,,http://www.redfin.com/TX/Houston/4200-Rogers-St-77022/home/112378802,HARMLS,,N,Y,29.825418,-95.386064
PAST SALE,September-11-2020,Vacant Land,731 E 40th,Houston,TX,77022,145000,,,Independence Heights Park,,6800,,263,,,Sold,,,http://www.redfin.com/TX/Houston/731-E-40th-St-77022/home/170555909,HARMLS,40206508,N,Y,29.8222577,-95.3894719
PAST SALE,October-28-2016,Vacant Land,716 E 33rd St,Houston,TX,77022,45000,,,Mccomb L B,,3856,,1677,,,Sold,,,http://www.redfin.com/TX/Houston/716-E-33rd-St-77022/home/109045367,HARMLS,83382480,N,Y,29.8162904,-95.389966
PAST SALE,September-29-2017,Vacant Land,308 Neyland St,Houston,TX,77022,82000,,,Independence Heights,,8000,,1341,,,Sold,,,http://www.redfin.com/TX/Houston/308-Neyland-St-77022/home/143406531,HARMLS,84996694,N,Y,29.825548,-95.3955101
PAST SALE,April-4-2017,Vacant Land,0 & 723 E 37th St,Houston,TX,77022,90000,,,Independence Heights Park,,8000,,1519,,,Sold,,,http://www.redfin.com/TX/Houston/723-E-37th-St-77022/home/29704909,HARMLS,48557084,N,Y,29.8199761,-95.3898464
PAST SALE,,Vacant Land,E 33RD ST,HOUSTON,TX,77022,118000,,,,,3856,,,,,,,,http://www.redfin.com/TX/HOUSTON/E-33RD-ST-77022/home/29817628,,,N,Y,29.816322,-95.389519
PAST SALE,December-21-2020,Vacant Land,407 E 42nd St,Houston,TX,77022,129900,,,Willadale Add,,5000,,162,,,Sold,,,http://www.redfin.com/TX/Houston/407-E-42nd-St-77022/home/29898922,HARMLS,74175879,N,Y,29.8244071,-95.3941276
PAST SALE,June-20-2018,Vacant Land,230 Norview Dr,Houston,TX,77022,72500,,,Norview Terrace,,6324,,1077,,,Sold,,,http://www.redfin.com/TX/Houston/230-Norview-Dr-77022/home/30030710,HARMLS,21872576,N,Y,29.834322,-95.398927
PAST SALE,August-28-2020,Vacant Land,106 E Thornton Rd,Houston,TX,77022,159900,,,Pecandale Court,,12590,,277,,,Sold,,,http://www.redfin.com/TX/Houston/106-E-Thornton-Rd-77022/home/30121527,HARMLS,62644152,N,Y,29.832571,-95.402036
PAST SALE,May-24-2021,Vacant Land,225 Noras Ln,Houston,TX,77022,265000,,,Gruss Place,,14895,,8,,,Sold,,,http://www.redfin.com/TX/Houston/225-Noras-Ln-77022/home/172408468,HARMLS,4790656,N,Y,29.829965,-95.3967569
PAST SALE,November-23-2020,Vacant Land,410 E 43rd St,Houston,TX,77022,65000,,,Willadale Sec 02,,2500,,190,,,Sold,,,http://www.redfin.com/TX/Houston/410-E-43rd-St-77022/home/112838066,HARMLS,30063099,N,Y,29.824695,-95.393984
PAST SALE,April-14-2021,Vacant Land,724 E 38th St,Houston,TX,77022,220000,,,Independence Heights Park,,8000,,48,,,Sold,,,http://www.redfin.com/TX/Houston/724-E-38th-St-77022/home/29704918,HARMLS,2136633,N,Y,29.8206804,-95.3897036
PAST SALE,April-6-2021,Vacant Land,816 E 38th St,Houston,TX,77022,199900,,,Independence Heights Park,,8000,,56,,,Sold,,,http://www.redfin.com/TX/Houston/816-E-38th-St-77022/home/29705072,HARMLS,87006712,N,Y,29.820694,-95.388066
PAST SALE,May-6-2021,Vacant Land,902 E 37th St,Houston,TX,77022,80000,,,Independence Heights Park,,4000,,26,,,Sold,,,http://www.redfin.com/TX/Houston/902-E-37th-St-77022/home/29705095,HARMLS,2989369,N,Y,29.820004,-95.386855
PAST SALE,May-26-2021,Vacant Land,0 E 39th St,Houston,TX,77022,225000,,,Independence Heights Park,,8000,,6,,,Sold,,,http://www.redfin.com/TX/Houston/E-39th-St-77022/home/29705192,HARMLS,20380304,N,Y,29.821387,-95.388584
PAST SALE,April-2-2021,Vacant Land,3105 Airline Dr,Houston,TX,77022,84900,,,Airline Heights,,3880,,60,,,Sold,,,http://www.redfin.com/TX/Houston/3105-Airline-Dr-77022/home/29840030,HARMLS,70340915,N,Y,29.814855,-95.382981
PAST SALE,May-14-2021,Vacant Land,3213 Hinton Blvd,Houston,TX,77022,110000,,,Airline Heights,,4080,,18,,,Sold,,,http://www.redfin.com/TX/Houston/3213-Hinton-Blvd-77022/home/29840085,HARMLS,68172023,N,Y,29.816034,-95.38443
PAST SALE,May-10-2021,Vacant Land,0 Cabell Street St,Houston,TX,77022,130000,,,Bellavista,,4500,,22,,,Sold,,,http://www.redfin.com/TX/HOUSTON/CABELL-ST-77022/home/29865780,HARMLS,91548467,N,Y,29.818507,-95.383787
PAST SALE,May-12-2021,Vacant Land,4215 Rogers Dr,Houston,TX,77022,112000,,,Whitney Place,,5000,,20,,,Sold,,,http://www.redfin.com/TX/Houston/4215-Rogers-St-77022/home/29885479,HARMLS,93494653,N,Y,29.8263858,-95.3860822
PAST SALE,April-24-2020,Vacant Land,3210 Airline Dr,Houston,TX,77022,65000,,,East Independence Heights,,3528,,403,,,Sold,,,http://www.redfin.com/TX/Houston/3210-Airline-Dr-77022/home/170017699,HARMLS,91365620,N,Y,29.8157357,-95.382568
PAST SALE,February-24-2020,Vacant Land,417 E 41st St,Houston,TX,77022,120900,,,Willadale Sec 03,,5005,,463,,,Sold,,,http://www.redfin.com/TX/Houston/417-E-41st-St-77022/home/29899005,HARMLS,20638057,N,Y,29.823729,-95.393809
PAST SALE,May-5-2020,Vacant Land,4924 Yale St,Houston,TX,77018,1800000,,,Kincaid Add,,118788,,392,,,Sold,,,http://www.redfin.com/TX/Houston/4924-Yale-St-77018/home/43505903,HARMLS,84706961,N,Y,29.838205,-95.402007
PAST SALE,March-5-2020,Vacant Land,3803 Oxford St,Houston,TX,77022,225000,,,Independence Heights School,,10358,,453,,,Sold,,,http://www.redfin.com/TX/Houston/3803-Oxford-St-77022/home/29703456,HARMLS,12482755,N,Y,29.821639,-95.3926773
PAST SALE,November-10-2017,Vacant Land,338 Plymouth,Houston,TX,77022,60000,,,Oakwood,,,,1299,,,Sold,,,http://www.redfin.com/TX/Houston/338-Plymouth-St-77022/home/29809841,HARMLS,76232323,N,Y,29.8236024,-95.3697059
PAST SALE,March-27-2017,Vacant Land,1101 E Apache St,Houston,TX,77022,65000,,,Hardy Park,,10140,,1527,,,Sold,,,http://www.redfin.com/TX/Houston/1101-Apache-St-77022/home/29966589,HARMLS,41404744,N,Y,29.8339586,-95.3583208
PAST SALE,October-5-2018,Vacant Land,635 E Crosstimbers St,Houston,TX,77022,110000,,,Colonial Gardens,,9870,,970,,,Sold,,,http://www.redfin.com/TX/Houston/635-E-Crosstimbers-St-77022/home/29929421,HARMLS,26943316,N,Y,29.8290986,-95.3636758
PAST SALE,,Single Family Residential,319 Spell St,Houston,TX,77022,,3,1.0,,1008,7800,1956,,,,Sold,,,http://www.redfin.com/TX/Houston/319-Spell-St-77022/home/30057306,HARMLS,,N,Y,29.8367244,-95.3967569
PAST SALE,December-23-2019,Vacant Land,505 E 40th St,Houston,TX,77022,79999,,,Independence Heights School,,3200,,526,,,Sold,,,http://www.redfin.com/TX/Houston/505-E-40th-St-77022/home/29703466,HARMLS,8628307,N,Y,29.822404,-95.393678
PAST SALE,April-3-2017,Vacant Land,1313 E 34th St,Houston,TX,77022,49990,,,Bellavista,,4000,,1520,,,Sold,,,http://www.redfin.com/TX/Houston/1313-E-34th-St-77022/home/29865720,HARMLS,90630298,N,Y,29.817455,-95.382025
PAST SALE,August-25-2017,Vacant Land,3507 Hinton Blvd,Houston,TX,77022,43000,,,Bellavista,,3600,,1376,,,Sold,,,http://www.redfin.com/TX/Houston/3507-Hinton-Blvd-77022/home/29865856,HARMLS,74114317,N,Y,29.818489,-95.384492
PAST SALE,January-31-2017,Vacant Land,415 Neyland St,Houston,TX,77022,50000,,,Willadale Sec 02,,5000,,1582,,,Sold,,,http://www.redfin.com/TX/Houston/415-Neyland-St-77022/home/109505822,HARMLS,71274676,N,Y,29.8260219,-95.3939464
PAST SALE,April-28-2017,Vacant Land,7134 Fulton St,Houston,TX,77022,90000,,,Sheffield Sec 02,,9620,,1495,,,Sold,,,http://www.redfin.com/TX/Houston/7134-Fulton-St-77022/home/58535514,HARMLS,92613875,N,Y,29.8257411,-95.3761557
PAST SALE,,Single Family Residential,118 N Ben Dr,Houston,TX,77022,,,,,,,,,,,Sold,,,http://www.redfin.com/TX/Houston/118-N-Ben-Dr-77022/home/147317657,HARMLS,,N,Y,29.843352,-95.375787
PAST SALE,December-11-2020,Vacant Land,1 E 32nd 1/2 St,Houston,TX,77022,69999,,,East Independence Heights,,3180,,172,,,Sold,,,http://www.redfin.com/TX/Houston/1-E-32nd-1-2-St-77022/home/173748788,HARMLS,36632404,N,Y,29.8159409,-95.3820962
PAST SALE,March-5-2021,Vacant Land,0 Fulton,Houston,TX,77076,825000,,,Rosalie Gardens,,53418,,88,,,Sold,,,http://www.redfin.com/TX/Houston/7502-Fulton-St-77022/home/174361843,HARMLS,82695083,N,Y,29.8296377,-95.3757094
PAST SALE,October-30-2020,Vacant Land,tbd2 E 40th St,Houston,TX,77022,39900,,,Hollinger Estates,,1828,,214,,,Sold,,,http://www.redfin.com/TX/Houston/tbd2-E-40th-St-77022/home/171816504,HARMLS,49590244,N,Y,29.822556,-95.385832
PAST SALE,October-5-2020,Vacant Land,tbd1 E 40th St,Houston,TX,77022,39900,,,Hollinger Estates,,1828,,239,,,Sold,,,http://www.redfin.com/TX/Houston/tbd1-E-40th-St-77022/home/171816503,HARMLS,98758165,N,Y,29.822503,-95.385766
PAST SALE,March-22-2021,Vacant Land,9201 Meta St,Houston,TX,77022,45000,,,E L Cochew,,9720,,71,,,Sold,,,http://www.redfin.com/TX/Houston/9201-Meta-St-77022/home/171175582,HARMLS,54989755,N,Y,29.8434195,-95.3809916
PAST SALE,March-19-2021,Vacant Land,1220 E 33rd St,Houston,TX,77022,86900,,,Airline Heights,,3480,,74,,,Sold,,,http://www.redfin.com/TX/Houston/1220-E-33rd-St-77022/home/52565238,HARMLS,52215189,N,Y,29.8163969,-95.3835921
PAST SALE,July-1-2020,Vacant Land,1416 E 31st St,Houston,TX,77022,59900,,,East Independence Heights,,3180,,335,,,Sold,,,http://www.redfin.com/TX/Houston/1416-E-31st-St-77022/home/29667561,HARMLS,71063760,N,Y,29.8149464,-95.3802892
PAST SALE,March-2-2021,Vacant Land,1213 E 32nd St,Houston,TX,77022,79900,,,Airline Heights,,4000,,91,,,Sold,,,http://www.redfin.com/TX/Houston/1213-E-32nd-St-77022/home/29840043,HARMLS,47309718,N,Y,29.81548,-95.383312
PAST SALE,November-16-2020,Vacant Land,603 Neyland,Houston,TX,77022,162500,,,Independance Heights,,6650,,197,,,Sold,,,http://www.redfin.com/TX/Houston/603-Neyland-St-77022/home/29953400,HARMLS,58685995,N,Y,29.826064,-95.391838
PAST SALE,,Single Family Residential,907 N N Loop,Houston,TX,77022,,2,2.0,,1480,4000,1994,,,,Sold,,,http://www.redfin.com/TX/Houston/907-North-Loop-77022/home/29817723,HARMLS,,N,Y,29.814771,-95.3870047
PAST SALE,,Single Family Residential,232 Styers St,Houston,TX,77022,,2,1.0,,948,6350,1950,,,,Sold,,,http://www.redfin.com/TX/Houston/232-Styers-St-77022/home/29792799,HARMLS,,N,Y,29.8175727,-95.3744282
PAST SALE,,Single Family Residential,6420 Frisco St,Houston,TX,77022,,3,2.0,,2595,20476,1979,,,,Sold,,,http://www.redfin.com/TX/Houston/6420-Frisco-St-77022/home/29846399,HARMLS,,N,Y,29.8173374,-95.3546421
PAST SALE,August-23-2019,Vacant Land,LOT 83 E Crosstimbers St,Houston,TX,77093,94900,,,Croyden Gardens,,11100,,648,,,Sold,,,http://www.redfin.com/TX/Houston/83-E-Crosstimbers-St-77022/home/160369102,HARMLS,42903300,N,Y,29.8283654,-95.3773971
PAST SALE,August-23-2019,Vacant Land,LOT 84 E Crosstimbers St,Houston,TX,77093,94900,,,Croyden Gardens,,10980,,648,,,Sold,,,http://www.redfin.com/TX/Houston/84-E-Crosstimbers-St-77022/home/160369108,HARMLS,51244688,N,Y,29.8278784,-95.3770859
PAST SALE,August-16-2018,Vacant Land,1202 E 32nd St,Houston,TX,77022,84999,,,Airline Heights,,4000,,1020,,,Sold,,,http://www.redfin.com/TX/Houston/1202-E-32nd-St-77022/home/144623733,HARMLS,89529249,N,Y,29.815087,-95.384063
PAST SALE,December-27-2017,Vacant Land,1311 E 31st St,Houston,TX,77022,68000,,,East Independence Heights,,3180,,1252,,,Sold,,,http://www.redfin.com/TX/Houston/1311-E-31st-St-77022/home/29667693,HARMLS,22223435,N,Y,29.8152289,-95.3813033
PAST SALE,,Vacant Land,3232 Airline Dr,Houston,TX,77022,60000,,,,,3250,,,,,,,,http://www.redfin.com/TX/Houston/3232-Airline-Dr-77022/home/29667704,,,N,Y,29.816202,-95.382526
PAST SALE,May-1-2017,Vacant Land,0 Airline Dr,Houston,TX,77022,115000,,,Bellavista,,10600,,1492,,,Sold,,,http://www.redfin.com/TX/HOUSTON/AIRLINE-DR-77022/home/29667707,HARMLS,850352,N,Y,29.816465,-95.382551
PAST SALE,October-13-2017,Vacant Land,920 E 39th,Houston,TX,77022,125000,,,Independence Heights Park,,8000,,1327,,,Sold,,,http://www.redfin.com/TX/Houston/920-E-39th-St-77022/home/29705010,HARMLS,15353813,N,Y,29.821403,-95.386202
PAST SALE,February-2-2018,Vacant Land,814 E 37th St,Houston,TX,77022,45000,,,Independence Heights Park,,4000,,1215,,,Sold,,,http://www.redfin.com/TX/Houston/814-E-37th-St-77022/home/29705025,HARMLS,17868472,N,Y,29.8199898,-95.3879517
PAST SALE,April-29-2019,Vacant Land,811 E 36th St,Houston,TX,77022,80000,,,Independence Heights Park,,4000,,764,,,Sold,,,http://www.redfin.com/TX/Houston/811-E-36th-St-77022/home/29705105,HARMLS,16749051,N,Y,29.8196708,-95.3882497
PAST SALE,May-22-2020,Vacant Land,1205 E 33rd St,Houston,TX,77022,135000,,,Lincoln Heights,,6480,,375,,,Sold,,,http://www.redfin.com/TX/Houston/1205-E-33rd-St-77022/home/29709208,HARMLS,11770038,N,Y,29.8166825,-95.3847992
PAST SALE,July-23-2020,Vacant Land,1217 E 34th St,Houston,TX,77022,99000,,,Laurel Heights,,3810,,313,,,Sold,,,http://www.redfin.com/TX/Unknown/Unknown-77022/home/29845282,HARMLS,16474269,N,Y,29.817596,-95.383896
PAST SALE,July-18-2017,Vacant Land,1423 East 35th,Houston,TX,77022,49900,,,Bellavista,,,,1414,,,Sold,,,http://www.redfin.com/TX/Houston/1423-E-35th-St-77022/home/29866332,HARMLS,43939614,N,Y,29.818164,-95.379512
PAST SALE,July-25-2019,Vacant Land,4225 Rogers St,Houston,TX,77022,119000,,,Whitney Place Sec 01,,10000,,677,,,Sold,,,http://www.redfin.com/TX/Houston/4225-Rogers-St-77022/home/29885492,HARMLS,10862594,N,Y,29.8269251,-95.3861231
PAST SALE,March-20-2020,Vacant Land,411 Berry Rd,Houston,TX,77022,595000,,,Jt Harrell Surv Abs #329,,73755,,438,,,Sold,,,http://www.redfin.com/TX/Houston/411-Berry-Rd-77022/home/167099206,HARMLS,12637168,N,Y,29.8378471,-95.3697059
PAST SALE,January-10-2020,Vacant Land,6226 E Tidwell Rd,Houston,TX,77016,195000,,,Shady Oaks Add,,39927,,508,,,Sold,,,http://www.redfin.com/TX/Houston/6226-E-Tidwell-Rd-77022/home/83223961,HARMLS,88479830,N,Y,29.8454639,-95.3927992
PAST SALE,,Vacant Land,1228 Norham St,Houston,TX,77022,,,,,,,,,,,Sold,,,http://www.redfin.com/TX/Houston/1228-Norham-St-77022/home/108379534,HARMLS,,N,Y,29.8356593,-95.3586306
PAST SALE,September-6-2017,Vacant Land,8417 Fulton St,Houston,TX,77022,180000,,,1 &11 Sec 6,,37463,,1364,,,Sold,,,http://www.redfin.com/TX/Houston/8417-Fulton-St-77022/home/29803861,HARMLS,25712294,N,Y,29.836939,-95.376237
PAST SALE,September-6-2017,Vacant Land,8413 Fulton St,Houston,TX,77022,145000,,,Adele Janowski Sec 6,,28725,,1364,,,Sold,,,http://www.redfin.com/TX/Houston/8413-Fulton-St-77022/home/29803864,HARMLS,7057034,N,Y,29.8366149,-95.3761863
PAST SALE,July-3-2017,Vacant Land,1232 Norham St,Houston,TX,77022,50000,,,Tarelton Place,,6450,,1429,,,Sold,,,http://www.redfin.com/TX/Houston/1232-Norham-St-77022/home/29975106,HARMLS,52184498,N,Y,29.8356625,-95.3583971
PAST SALE,January-31-2018,Vacant Land,500 Victoria Dr,Houston,TX,77022,485000,,,Mccowan,,102919,,1217,,,Sold,,,http://www.redfin.com/TX/Houston/500-Victoria-Dr-77022/home/43506344,HARMLS,62291904,N,Y,29.83365,-95.391653
PAST SALE,August-7-2018,Vacant Land,720 Berry,Houston,TX,77022,950000,,,Black JS,,178390,,1029,,,Sold,,,http://www.redfin.com/TX/Houston/720-Berry-Rd-77022/home/49750448,HARMLS,39973784,N,Y,29.8373734,-95.3652701
PAST SALE,April-21-2017,Vacant Land,0 E 33rd St,Houston,TX,77022,90000,,,Independence Heights,,6281,,1502,,,Sold,,,http://www.redfin.com/TX/Houston/701-E-33rd-St-77022/home/171520341,HARMLS,25288894,N,Y,29.8172902,-95.3903687
PAST SALE,August-9-2018,Vacant Land,0 E 37th St E,Houston,TX,77022,140000,,,Independence Heights,,6000,,1027,,,Sold,,,http://www.redfin.com/TX/Houston/E-37th-ST-E-77022/home/173686849,HARMLS,92630895,N,Y,29.819595,-95.393579
PAST SALE,November-25-2019,Vacant Land,8135 N Main St,Houston,TX,77022,100000,,,Willadale Sec 03,,4681,,554,,,Sold,,,http://www.redfin.com/TX/Houston/8135-N-Main-St-77022/home/168872346,HARMLS,59790809,N,Y,29.823229,-95.395291
PAST SALE,February-5-2019,Vacant Land,309 E 43rd St,Houston,TX,77022,85500,,,Willadale,,4750,,847,,,Sold,,,http://www.redfin.com/TX/Houston/309-E-43rd-St-77022/home/58429037,HARMLS,69525384,N,Y,29.825084,-95.395247
PAST SALE,December-16-2019,Vacant Land,804 E 37th St E,Houston,TX,77022,92500,,,Independence Heights Park,,4000,,533,,,Sold,,,http://www.redfin.com/TX/Houston/804-E-37th-St-77022/home/29705044,HARMLS,10538931,N,Y,29.8199916,-95.3887761
PAST SALE,May-6-2017,Vacant Land,719 E 40th St,Houston,TX,77022,49920,,,Independence Heights,,,,1487,,,Sold,,,http://www.redfin.com/TX/Houston/719-E-40th-St-77022/home/29705236,HARMLS,74449024,N,Y,29.8222099,-95.3901622
PAST SALE,September-10-2018,Vacant Land,307 E 42nd St,Houston,TX,77022,109000,,,Willadale,,5000,,995,,,Sold,,,http://www.redfin.com/TX/Houston/307-E-42nd-St-77022/home/29898916,HARMLS,23982891,N,Y,29.82441,-95.39492
PAST SALE,July-17-2018,Vacant Land,0 E 42nd B St,Houston,TX,77022,104999,,,St Maron Place,,5000,,1050,,,Sold,,,http://www.redfin.com/TX/Houston/E-42nd-St-77022/home/29898918,HARMLS,30550068,N,Y,29.82441,-95.395076
PAST SALE,October-4-2017,Vacant Land,0 E 41st St,Houston,TX,77022,75000,,,Willadale Sec 3,,,,1336,,,Sold,,,http://www.redfin.com/TX/Houston/E-41st-St-77022/home/29899029,HARMLS,19798444,N,Y,29.823318,-95.393621
PAST SALE,October-9-2018,Vacant Land,305 Neyland St,Houston,TX,77022,88000,,,Southward,,5000,,966,,,Sold,,,http://www.redfin.com/TX/Houston/305-Neyland-St-77022/home/29910604,HARMLS,47031458,N,Y,29.8259828,-95.3959798
PAST SALE,September-6-2018,Vacant Land,314 Neyland St,Houston,TX,77022,375000,,,Willadale Add,,23400,,999,,,Sold,,,http://www.redfin.com/TX/Houston/314-Neyland-St-77022/home/45416912,HARMLS,78185184,N,Y,29.825505,-95.395015
PAST SALE,June-25-2019,Vacant Land,0 W Hardy St,Houston,TX,77022,20000,,,Plymouth Place,,3400,,707,,,Sold,,,http://www.redfin.com/TX/HOUSTON/W-HARDY-RD-77022/home/29786207,HARMLS,54154643,N,Y,29.829601,-95.35587
PAST SALE,May-3-2017,Vacant Land,234 Neyland St,Houston,TX,77022,50000,,,Sheffield Sec 02,,6600,,1490,,,Sold,,,http://www.redfin.com/TX/Houston/234-Neyland-St-77022/home/29889613,HARMLS,86681045,N,Y,29.82586,-95.372066
PAST SALE,July-31-2017,Vacant Land,7112 Helmers St,Houston,TX,77022,159000,,,Beverly Place,,16190,,1401,,,Sold,,,http://www.redfin.com/TX/Houston/7112-Helmers-St-77022/home/29929082,HARMLS,99403941,N,Y,29.824843,-95.36545
PAST SALE,April-5-2019,Vacant Land,237 E Crosstimbers St,Houston,TX,77022,120000,,,Carrington Place,,7000,,788,,,Sold,,,http://www.redfin.com/TX/Houston/237-E-Crosstimbers-St-77022/home/29965950,HARMLS,63009385,N,Y,29.828694,-95.372386
PAST SALE,April-30-2018,Single Family Residential,3301 Omega St,Houston,TX,77022,329000,3,2.5,Lincoln Heights,1897,3000,2017,1128,173,,Sold,,,http://www.redfin.com/TX/Houston/3301-Omega-St-77022/unit-A/home/160495371,HARMLS,93675949,N,Y,29.8166725,-95.3852132
PAST SALE,June-21-2018,Multi-Family (2-4 Unit),413 Melbourne St,Houston,TX,77022,169900,0,,Romund,,,1960,1076,,,Sold,,,http://www.redfin.com/TX/Houston/413-Melbourne-St-77022/home/29915255,HARMLS,18001476,N,Y,29.8164534,-95.3664557
PAST SALE,May-31-2018,Single Family Residential,239 Betral St,Houston,TX,77022,103000,3,1.5,Baldwear,1344,7800,1950,1097,77,,Sold,,,http://www.redfin.com/TX/Houston/239-Betral-St-77022/home/30074207,HARMLS,86005806,N,Y,29.8409315,-95.4019109
PAST SALE,May-1-2020,Single Family Residential,3408 Castor St,Houston,TX,77022,349000,3,2.5,Lincoln Heights,1724,3000,2019,396,202,,Sold,,,http://www.redfin.com/TX/Houston/3408-Castor-St-77022/home/169914732,HARMLS,22579241,N,Y,29.8177396,-95.3878788
PAST SALE,July-10-2020,Single Family Residential,3504 Castor St,Houston,TX,77022,365000,3,2.5,Lincoln Heights,1882,3000,,326,194,,Sold,,,http://www.redfin.com/TX/Houston/3504-Castor-St-77022/home/170664140,HARMLS,14697460,N,Y,29.8184156,-95.387893
PAST SALE,July-17-2020,Single Family Residential,825 E 33rd St,Houston,TX,77022,269000,3,2.5,Lincoln Heights,1671,2500,2019,319,161,,Sold,,,http://www.redfin.com/TX/Houston/825-E-33rd-St-77022/home/160713261,HARMLS,45117130,N,Y,29.8166061,-95.3879028
PAST SALE,March-8-2021,Single Family Residential,3319 Delhi St,Houston,TX,77022,369900,3,2.5,Lincoln Heights,1802,3000,2021,85,205,,Sold,,,http://www.redfin.com/TX/Houston/3319-Delhi-St-77022/home/173970352,HARMLS,41906719,N,Y,29.8172353,-95.3875133
PAST SALE,April-9-2021,Single Family Residential,909 E 33rd St,Houston,TX,77022,355000,3,2.5,Lincoln Heights,1708,2790,2018,53,208,,Sold,,,http://www.redfin.com/TX/Houston/909-E-33rd-St-77022/home/144935819,HARMLS,31150045,N,Y,29.8166324,-95.3868491
PAST SALE,,Multi-Family (2-4 Unit),727 Caperton St,Houston,TX,77022,,3,1.0,,1260,11700,1943,,,,Sold,,,http://www.redfin.com/TX/Houston/727-Caperton-St-77022/home/29935695,HARMLS,,N,Y,29.8303377,-95.3621492
