SALE TYPE,SOLD DATE,PROPERTY TYPE,ADDRESS,CITY,STATE OR PROVINCE,ZIP OR POSTAL CODE,PRICE,BEDS,BATHS,LOCATION,SQUARE FEET,LOT SIZE,YEAR BUILT,DAYS ON MARKET,$/SQUARE FEET,HOA/MONTH,STATUS,NEXT OPEN HOUSE START TIME,NEXT OPEN HOUSE END TIME,URL (SEE http://www.redfin.com/buy-a-home/comparative-market-analysis FOR INFO ON PRICING),SOURCE,MLS#,FAVORITE,INTERESTED,LATITUDE,LONGITUDE
PAST SALE,March-1-2018,Townhouse,807 Saulnier St,Houston,TX,77019,299900,2,2.0,Robin Street Square,1779,1886,2004,1188,169,28,Sold,,,http://www.redfin.com/TX/Houston/807-Saulnier-St-77019/home/29193738,HARMLS,47780304,N,Y,29.7569393,-95.3762681
PAST SALE,April-19-2019,Condo/Co-op,1406 Columbus St #102,Houston,TX,77019,264000,1,1.5,Columbus Flats Condo,1206,14037,2006,774,219,316,Sold,,,http://www.redfin.com/TX/Houston/1406-Columbus-St-77019/unit-102/home/29615510,HARMLS,17387653,N,Y,29.7546458,-95.3915791
PAST SALE,July-13-2020,Condo/Co-op,1601 W Webster St #10,Houston,TX,77019,339000,2,2.0,West Webster Lofts,1754,35181,1998,323,193,333,Sold,,,http://www.redfin.com/TX/Houston/1601-W-Webster-St-77019/unit-10/home/29192551,HARMLS,9909300,N,Y,29.7519368,-95.3838462
PAST SALE,July-30-2018,Single Family Residential,2014 Dunlavy St,Houston,TX,77006,400000,2,2.0,Hyde Park Main Sec 02,1409,4500,1922,1037,284,,Sold,,,http://www.redfin.com/TX/Houston/2014-Dunlavy-St-77006/home/29815782,HARMLS,43652232,N,Y,29.74767,-95.4023609
PAST SALE,June-3-2019,Condo/Co-op,2111 Welch St Unit B112,Houston,TX,77019,299000,2,2.0,The Renaissance At River Oaks,1252,5871,1992,729,239,527,Sold,,,http://www.redfin.com/TX/Houston/2111-Welch-St-77019/unit-B112/home/29159821,HARMLS,50971659,N,Y,29.7473031,-95.4119135
PAST SALE,October-1-2020,Single Family Residential,3840 Del Monte Dr,Houston,TX,77019,2799000,3,3.5,River Oaks,3828,11970,1947,243,731,175,Sold,,,http://www.redfin.com/TX/Houston/3840-Del-Monte-Dr-77019/home/29883088,HARMLS,50706064,N,Y,29.749789,-95.44099
PAST SALE,November-3-2020,Townhouse,1123 W Gray St,Houston,TX,77019,399000,3,2.5,Rosemont Heights Ext,2448,2600,1998,210,163,,Sold,,,http://www.redfin.com/TX/Houston/1123-W-Gray-St-77019/home/30696965,HARMLS,70388387,N,Y,29.7531497,-95.3930731
PAST SALE,November-7-2018,Townhouse,2213 Dunraven Ln,Houston,TX,77019,999000,3,3.5,Glendower Court-park 01,4128,3000,2000,937,242,63,Sold,,,http://www.redfin.com/TX/Houston/2213-Dunraven-Ln-77019/home/30716893,HARMLS,6901325,N,Y,29.7437657,-95.4141331
PAST SALE,June-20-2019,Single Family Residential,1810 Dunlavy St,Houston,TX,77006,489900,2,2.0,Windsor Place,1537,5000,1938,712,319,,Sold,,,http://www.redfin.com/TX/Houston/1810-Dunlavy-St-77006/home/29816096,HARMLS,55268303,N,Y,29.7497866,-95.4024427
PAST SALE,April-18-2019,Single Family Residential,420 W Saulnier St,Houston,TX,77019,485000,3,2.0,Saulnier Manors,2270,2440,2004,775,214,,Sold,,,http://www.redfin.com/TX/Houston/420-W-Saulnier-St-77019/home/29328891,HARMLS,61590315,N,Y,29.75711,-95.3873398
PAST SALE,December-14-2020,Townhouse,920 Ruthven St,Houston,TX,77019,304900,2,2.0,Andrews Street T/h,1762,1526,2002,169,173,,Sold,,,http://www.redfin.com/TX/Houston/920-Ruthven-St-77019/home/29176706,HARMLS,98046452,N,Y,29.755292,-95.3776
PAST SALE,December-3-2019,Townhouse,2008 Fairview Ave,Houston,TX,77019,329000,2,2.5,2300 Driscoll Th,1720,1008,1984,546,191,,Sold,,,http://www.redfin.com/TX/Houston/2008-Fairview-St-77019/home/29730695,HARMLS,26107437,N,Y,29.74487,-95.4082561
PAST SALE,August-15-2019,Townhouse,2413 Park St,Houston,TX,77019,549900,3,3.5,Hyde Park Heights,2798,2500,1999,656,197,,Sold,,,http://www.redfin.com/TX/Houston/2413-Park-St-77019/home/30711896,HARMLS,22875205,N,Y,29.74408,-95.402665
PAST SALE,July-20-2020,Townhouse,1504 Cleveland St,Houston,TX,77019,300000,2,2.0,Cleveland Street T H,1707,2371,2003,316,176,,Sold,,,http://www.redfin.com/TX/Houston/1504-Cleveland-St-77019/home/29143391,HARMLS,92510003,N,Y,29.7546124,-95.3824835
PAST SALE,June-25-2020,Townhouse,1510 W Webster St,Houston,TX,77019,335000,2,2.0,Sutton-gillette T/h,2080,1400,2000,341,161,70,Sold,,,http://www.redfin.com/TX/Houston/1510-W-Webster-St-77019/home/30715557,HARMLS,44051109,N,Y,29.7521806,-95.3826122
PAST SALE,June-26-2020,Townhouse,1914 W Mckinney St Unit B,Houston,TX,77019,699900,3,2.5,Campise,3098,2500,2002,340,226,,Sold,,,http://www.redfin.com/TX/Houston/1914-W-McKinney-St-77019/unit-B/home/29224069,HARMLS,45155781,N,Y,29.759182,-95.386562
PAST SALE,December-5-2018,Townhouse,1812 Driscoll St,Houston,TX,77019,699000,4,3.5,Hyde Park Main Sec 06,3475,2610,2000,909,201,,Sold,,,http://www.redfin.com/TX/Houston/1812-Driscoll-St-77019/home/30712643,HARMLS,76832818,N,Y,29.74954,-95.406611
PAST SALE,March-3-2020,Townhouse,713 Andrews St,Houston,TX,77019,359000,2,2.5,Joseph -majumder Amd,1822,1666,2007,455,197,,Sold,,,http://www.redfin.com/TX/Houston/713-Andrews-St-77019/home/29520677,HARMLS,55208945,N,Y,29.7555627,-95.3757366
PAST SALE,,Condo/Co-op,1601 S Shepherd Dr #224,Houston,TX,77019,,1,1.5,,847,,1978,,,,Sold,,,http://www.redfin.com/TX/Houston/1601-S-Shepherd-Dr-77019/unit-224/home/30447677,HARMLS,,N,Y,29.751451,-95.409435
PAST SALE,June-2-2016,Single Family Residential,3044 Reba Dr,Houston,TX,77019,1370000,3,2.5,Avalon Place,2340,9825,1940,1825,585,72,Sold,,,http://www.redfin.com/TX/Houston/3044-Reba-Dr-77019/home/29920309,HARMLS,95835407,N,Y,29.7444965,-95.4209971
PAST SALE,,Single Family Residential,2309 Persa,Houston,TX,77019,,4,3.5,,5258,6600,2007,,,,Sold,,,http://www.redfin.com/TX/Houston/2309-Persa-St-77019/home/29962256,HARMLS,,N,Y,29.7454822,-95.4123226
PAST SALE,February-27-2017,Townhouse,2303 Huldy St,Houston,TX,77019,499500,3,3.5,Hyde Park Main Add 03,2313,1809,1996,1555,216,,Sold,,,http://www.redfin.com/TX/Houston/2303-Huldy-St-77019/home/29815870,HARMLS,17836483,N,Y,29.7454459,-95.4093242
PAST SALE,August-15-2016,Single Family Residential,513 W Pierce St,Houston,TX,77019,828000,3,4.0,Alden Place,3516,2500,2010,1751,235,,Sold,,,http://www.redfin.com/TX/Houston/513-W-Pierce-St-77019/home/29846282,HARMLS,55917014,N,Y,29.7539335,-95.3879369
PAST SALE,April-6-2017,Single Family Residential,2207 Devonshire,Houston,TX,77019,1385000,3,3.5,Glendower Court,3669,4950,1992,1517,377,63,Sold,,,http://www.redfin.com/TX/Houston/2207-Devonshire-St-77019/home/29839451,HARMLS,79997691,N,Y,29.7458915,-95.4138978
PAST SALE,June-15-2017,Single Family Residential,2142 Looscan Ln,Houston,TX,77019,2075000,4,3.5,River Oaks,5038,12638,1938,1447,412,164,Sold,,,http://www.redfin.com/TX/Houston/2142-Looscan-Ln-77019/home/29881343,HARMLS,21339984,N,Y,29.7561497,-95.4111975
PAST SALE,March-28-2018,Townhouse,835 Rosine St,Houston,TX,77019,399000,3,3.5,Rosine Street Twnhms Ph 03,2364,1400,2001,1161,169,,Sold,,,http://www.redfin.com/TX/Houston/835-Rosine-St-77019/home/30727189,HARMLS,71513836,N,Y,29.757774,-95.398707
PAST SALE,June-30-2017,Single Family Residential,1009 A Ruthven,Houston,TX,77019,499000,3,3.5,Skyline at Midtown,2350,1600,2017,1432,212,33,Sold,,,http://www.redfin.com/TX/Houston/1009-Ruthven-St-77019/unit-A/home/112818085,HARMLS,69892992,N,Y,29.7550589,-95.378149
PAST SALE,June-16-2018,Townhouse,1905 Revere,Houston,TX,77019,1499900,3,3.5,Cadogan Place,4014,,2018,1081,374,400,Sold,,,http://www.redfin.com/TX/Houston/1905-Revere-St-77019/home/59032450,HARMLS,95303206,N,Y,29.7486399,-95.4162465
PAST SALE,May-30-2018,Condo/Co-op,2221 Welch St #602,Houston,TX,77019,1480000,3,3.5,Chateau 10-welch,2832,,2013,1098,523,700,Sold,,,http://www.redfin.com/TX/Houston/2221-Welch-St-77019/unit-602/home/66047439,HARMLS,28472714,N,Y,29.7480114,-95.4144502
PAST SALE,April-26-2018,Single Family Residential,19 Robita St,Houston,TX,77019,649900,3,3.5,Robita Commons,3213,,2018,1132,202,234,Sold,,,http://www.redfin.com/TX/Houston/19-Robita-St-77019/home/112817325,HARMLS,73693398,N,Y,29.7583369,-95.3842449
PAST SALE,August-9-2017,Single Family Residential,2235 Mimosa Dr,Houston,TX,77019,1399000,4,4.5,Vermont Place,4375,3762,2015,1392,320,,Sold,,,http://www.redfin.com/TX/Houston/2235-Mimosa-Dr-77019/home/52560348,HARMLS,27233455,N,Y,29.7473799,-95.4144502
PAST SALE,,Townhouse,2415 San Felipe St #20,Houston,TX,77019,,3,5.0,,3740,2644,2013,,,,Sold,,,http://www.redfin.com/TX/Houston/2415-San-Felipe-St-77019/unit-20/home/52560354,HARMLS,,N,Y,29.7484979,-95.4174865
PAST SALE,August-5-2016,Condo/Co-op,1204 Taft,Houston,TX,77019,848900,3,3.5,Montrose,2837,2577,2016,1761,299,,Sold,,,http://www.redfin.com/TX/Houston/1204-Taft-St-77019/home/110193469,HARMLS,12751844,N,Y,29.7559652,-95.385873
PAST SALE,February-8-2018,Townhouse,2014 Fairview St Unit A,Houston,TX,77019,484600,3,2.5,Hyde Park Main Add 03,2423,1780,1995,1209,200,,Sold,,,http://www.redfin.com/TX/Houston/2014-Fairview-St-77019/unit-A/home/29815843,HARMLS,18932849,N,Y,29.744868,-95.408635
PAST SALE,July-3-2018,Townhouse,2105 Woodhead St,Houston,TX,77019,499900,3,3.5,Indiana Grove,2481,1436,2007,1064,201,,Sold,,,http://www.redfin.com/TX/Houston/2105-Woodhead-St-77019/home/29568510,HARMLS,28453053,N,Y,29.7466863,-95.4043654
PAST SALE,June-15-2017,Single Family Residential,1601 W Clay St,Houston,TX,77019,535000,3,3.5,Manfre Court Place,3155,2554,2001,1447,170,,Sold,,,http://www.redfin.com/TX/Houston/1601-W-Clay-St-77019/home/30726861,HARMLS,88554397,N,Y,29.75506,-95.4003156
PAST SALE,July-24-2017,Condo/Co-op,1419 Montrose Blvd #701,Houston,TX,77019,699000,3,3.0,One Montrose Place Condo,2531,,2004,1408,276,925,Sold,,,http://www.redfin.com/TX/Houston/1419-Montrose-Blvd-77019/unit-701/home/29278961,HARMLS,58336483,N,Y,29.7539555,-95.391709
PAST SALE,September-8-2017,Single Family Residential,1614 Kirby Dr,Houston,TX,77019,3950000,4,6.5,River Oaks,7996,24400,1993,1362,494,197,Sold,,,http://www.redfin.com/TX/Houston/1614-Kirby-Dr-77019/home/29880551,HARMLS,13159006,N,Y,29.7529825,-95.4186237
PAST SALE,January-30-2018,Single Family Residential,3256 Huntingdon Pl,Houston,TX,77019,1849000,3,4.5,Country Club Estates,3481,10800,1928,1218,531,161,Sold,,,http://www.redfin.com/TX/Houston/3256-Huntingdon-Pl-77019/home/29880512,HARMLS,25214592,N,Y,29.7475465,-95.4252734
PAST SALE,August-10-2017,Townhouse,2415 San Felipe St #10,Houston,TX,77019,1795000,4,4.5,Winfield Gate,4138,2567,2013,1391,434,608,Sold,,,http://www.redfin.com/TX/Houston/2415-San-Felipe-St-77019/unit-10/home/52560359,HARMLS,45391528,N,Y,29.7484979,-95.4174865
PAST SALE,August-22-2017,Single Family Residential,3228 Westheimer Rd,Houston,TX,77098,930000,4,3.5,River Oaks Sec 04,3004,8320,1938,1379,310,154,Sold,,,http://www.redfin.com/TX/Houston/3228-Westheimer-Rd-77098/home/29880650,HARMLS,95238249,N,Y,29.7423814,-95.4241889
PAST SALE,May-7-2018,Single Family Residential,2107 Looscan Ln,Houston,TX,77019,1400000,3,2.5,River Oaks,2899,9312,1937,1121,483,144,Sold,,,http://www.redfin.com/TX/Houston/2107-Looscan-Ln-77019/home/29881667,HARMLS,34900993,N,Y,29.756452,-95.4093155
PAST SALE,May-4-2018,Single Family Residential,1510 Hazard St,Houston,TX,77019,1375000,3,4.5,Wilfran Place,4338,5000,2011,1124,317,,Sold,,,http://www.redfin.com/TX/Houston/1510-Hazard-St-77019/home/29897659,HARMLS,80222078,N,Y,29.7518399,-95.4073927
PAST SALE,September-6-2017,Condo/Co-op,1601 S Shepherd Dr #144,Houston,TX,77019,215000,2,1.5,River Oaks Gardens Condo,956,,1978,1364,225,395,Sold,,,http://www.redfin.com/TX/Houston/1601-S-Shepherd-Dr-77019/unit-144/home/30447750,HARMLS,18450086,N,Y,29.751451,-95.409435
PAST SALE,June-6-2018,Condo/Co-op,1601 S Shepherd Dr #21,Houston,TX,77019,209000,1,1.0,River Oaks Gardens Condo,,343758,1978,1091,,315,Sold,,,http://www.redfin.com/TX/Houston/1601-S-Shepherd-Dr-77019/unit-21/home/30447712,HARMLS,27215994,N,Y,29.751451,-95.409435
PAST SALE,August-25-2017,Townhouse,2228 Mimosa Dr,Houston,TX,77019,599000,3,3.5,Vermont Place,2588,1852,1996,1376,231,,Sold,,,http://www.redfin.com/TX/Houston/2228-Mimosa-Dr-77019/home/29849464,HARMLS,66151330,N,Y,29.7476944,-95.4139737
PAST SALE,May-18-2018,Single Family Residential,1203 Ruthven St,Houston,TX,77019,319000,3,2.5,Fourth Ward Estates,1546,2488,2001,1110,206,,Sold,,,http://www.redfin.com/TX/Houston/1203-Ruthven-St-77019/home/30723276,HARMLS,87360782,N,Y,29.7549932,-95.3797402
PAST SALE,June-15-2018,Condo/Co-op,2111 Welch St Unit A125,Houston,TX,77019,178000,1,1.0,Renaissance At River Oaks,850,5871,1992,1082,209,347,Sold,,,http://www.redfin.com/TX/Houston/2111-Welch-St-77019/unit-A125/home/29159759,HARMLS,72142115,N,Y,29.7473031,-95.4119135
PAST SALE,January-30-2018,Condo/Co-op,2111 Welch St Unit A205,Houston,TX,77019,315000,2,2.0,Renaissance/riv Oaks Private R,1390,,1992,1218,227,568,Sold,,,http://www.redfin.com/TX/Houston/2111-Welch-St-77019/unit-A205/home/29159749,HARMLS,16481303,N,Y,29.7473031,-95.4119135
PAST SALE,December-28-2017,Single Family Residential,3 Robita St,Houston,TX,77019,549900,3,3.5,Robita Commons,2707,,2017,1251,203,234,Sold,,,http://www.redfin.com/TX/Houston/3-Robita-St-77019/home/112817377,HARMLS,97804211,N,Y,29.7585249,-95.3842288
PAST SALE,October-9-2017,Condo/Co-op,1419 Montrose Blvd #703,Houston,TX,77019,499000,2,2.0,One Montrose Place Condo,1653,,2004,1331,302,579,Sold,,,http://www.redfin.com/TX/Houston/1419-Montrose-Blvd-77019/unit-703/home/29278963,HARMLS,59057957,N,Y,29.7539555,-95.391709
PAST SALE,June-15-2017,Townhouse,1913 Gillette St Unit E,Houston,TX,77006,235000,1,1.5,Cook Street Condo,1120,,2004,1447,210,232,Sold,,,http://www.redfin.com/TX/Houston/1913-Gillette-St-77006/unit-E/home/29346105,HARMLS,4298343,N,Y,29.7515356,-95.3832809
PAST SALE,May-12-2017,Townhouse,2026 Woodhead St,Houston,TX,77019,549000,3,2.5,Hyde Park Main,2076,2720,1984,1481,264,,Sold,,,http://www.redfin.com/TX/Houston/2026-Woodhead-St-77019/home/29815993,HARMLS,50451224,N,Y,29.7472293,-95.4048768
PAST SALE,July-3-2018,Townhouse,1311 Woodhead St,Houston,TX,77019,475000,3,3.5,Hyde Park Court,2679,1917,1995,1064,177,,Sold,,,http://www.redfin.com/TX/Houston/1311-Woodhead-St-77019/home/29816391,HARMLS,53420986,N,Y,29.754878,-95.404608
PAST SALE,June-29-2018,Single Family Residential,920 Kirby,Houston,TX,77019,8500000,5,8.0,River Oaks,9300,33583,2017,1068,914,223,Sold,,,http://www.redfin.com/TX/Houston/920-Kirby-Dr-77019/home/29881314,HARMLS,51304737,N,Y,29.7594219,-95.4105838
PAST SALE,June-5-2018,Single Family Residential,1815 Mcduffie St,Houston,TX,77019,650000,2,2.0,Montrose,1483,5000,1928,1092,438,,Sold,,,http://www.redfin.com/TX/Houston/1815-McDuffie-St-77019/home/29897670,HARMLS,82346494,N,Y,29.7494345,-95.4077609
PAST SALE,April-27-2017,Townhouse,2020 Park St Unit B,Houston,TX,77019,549900,3,3.5,Sandyside,2745,2625,1998,1496,200,,Sold,,,http://www.redfin.com/TX/Houston/2020-Park-St-77019/unit-B/home/30696758,HARMLS,28624541,N,Y,29.74743,-95.403225
PAST SALE,,Single Family Residential,711 W Clay St,Houston,TX,77019,,3,3.5,,3426,2750,2015,,,,Sold,,,http://www.redfin.com/TX/Houston/711-W-Clay-St-77019/home/112824562,HARMLS,,N,Y,29.7553657,-95.3894766
PAST SALE,,Townhouse,1218 Taft,Houston,TX,77019,,4,4.5,,3262,1813,2014,,,,Sold,,,http://www.redfin.com/TX/Houston/1218-Taft-St-77019/home/110191861,HARMLS,,N,Y,29.7557519,-95.3859446
PAST SALE,March-15-2017,Single Family Residential,1912 Brun,Houston,TX,77019,765000,3,3.5,Manors at Brun,3531,2500,2006,1539,217,,Sold,,,http://www.redfin.com/TX/Houston/1912-Brun-St-77019/home/29546404,HARMLS,30488065,N,Y,29.748578,-95.409125
PAST SALE,,Townhouse,1036 La Rue St,Houston,TX,77019,,3,2.5,,1996,1407,2003,,,,Sold,,,http://www.redfin.com/TX/Houston/1036-La-Rue-St-77019/home/29240277,HARMLS,,N,Y,29.7565089,-95.3957613
PAST SALE,July-28-2017,Condo/Co-op,1605 W Dallas Unit D,Houston,TX,77019,339900,2,2.5,West Dallas Square,2157,1424,2006,1404,158,113,Sold,,,http://www.redfin.com/TX/Houston/1605-W-Dallas-St-77019/unit-D/home/29506783,HARMLS,8080634,N,Y,29.757379,-95.383429
PAST SALE,October-6-2016,Single Family Residential,1404 Stanford,Houston,TX,77019,1395000,4,3.5,Montrose,4321,,2016,1699,323,,Sold,,,http://www.redfin.com/TX/Houston/1404-Stanford-St-77019/home/29826515,HARMLS,54545053,N,Y,29.7548144,-95.3891699
PAST SALE,July-18-2016,Townhouse,1710 W Webster St,Houston,TX,77019,340000,2,2.0,Sutton-gillette TH,1930,1795,2003,1779,176,66,Sold,,,http://www.redfin.com/TX/Houston/1710-W-Webster-St-77019/home/29240071,HARMLS,48180814,N,Y,29.7521841,-95.3845282
PAST SALE,June-8-2018,Townhouse,2023 Mcduffie St,Houston,TX,77019,775000,3,3.5,Summit Place,3155,2500,1993,1089,246,,Sold,,,http://www.redfin.com/TX/Houston/2023-McDuffie-St-77019/home/29816492,HARMLS,46552833,N,Y,29.747312,-95.407681
PAST SALE,March-29-2018,Townhouse,1926 Indiana St,Houston,TX,77019,370000,2,2.5,Hyde Park Main,1958,1085,1985,1160,189,,Sold,,,http://www.redfin.com/TX/Houston/1926-Indiana-St-77019/home/29815985,HARMLS,2962644,N,Y,29.747105,-95.404066
PAST SALE,December-29-2017,Single Family Residential,1211 Marconi St,Houston,TX,77019,649900,4,3.5,Montrose,2878,2675,2017,1250,226,,Sold,,,http://www.redfin.com/TX/Houston/1211-Marconi-St-77019/home/167828983,HARMLS,80173830,N,Y,29.755888,-95.392774
PAST SALE,,Townhouse,1015 Marconi St,Houston,TX,77019,,3,3.5,,2439,2150,1998,,,,Sold,,,http://www.redfin.com/TX/Houston/1015-Marconi-St-77019/home/29659272,HARMLS,,N,Y,29.7568766,-95.3928597
PAST SALE,March-2-2017,Townhouse,1815 Driscoll St,Houston,TX,77019,650000,4,3.5,Hyde Park Main Add Sec 06,3345,2632,1999,1552,194,,Sold,,,http://www.redfin.com/TX/Houston/1815-Driscoll-St-77019/home/29816437,HARMLS,70647334,N,Y,29.749474,-95.406139
PAST SALE,July-13-2017,Single Family Residential,2314 Elmen St,Houston,TX,77019,1549000,4,4.5,Plainview Sec 01,3860,5000,2016,1419,401,,Sold,,,http://www.redfin.com/TX/Houston/2314-Elmen-St-77019/home/29730624,HARMLS,30413087,N,Y,29.7451661,-95.4040381
PAST SALE,September-22-2017,Townhouse,917 Nash St,Houston,TX,77019,379900,3,3.5,City View Courtyard,2494,1575,2008,1348,152,,Sold,,,http://www.redfin.com/TX/Houston/917-Nash-St-77019/home/29597931,HARMLS,83441521,N,Y,29.758204,-95.379217
PAST SALE,June-30-2016,Townhouse,1003 Gillette St,Houston,TX,77019,355000,3,4.0,Jaav Estates,2318,1350,2007,1797,153,,Sold,,,http://www.redfin.com/TX/Houston/1003-Gillette-St-77019/home/29560044,HARMLS,41498722,N,Y,29.7574322,-95.3830151
PAST SALE,June-12-2017,Single Family Residential,1606 Ruthven St,Houston,TX,77019,285000,3,2.0,Baker W R Ssbb,1166,4000,1930,1450,244,,Sold,,,http://www.redfin.com/TX/Houston/1606-Ruthven-St-77019/home/29648708,HARMLS,65226004,N,Y,29.7552524,-95.3833832
PAST SALE,November-28-2016,Single Family Residential,2007-C Brun St,Houston,TX,77019,574900,3,3.5,Tricons Brun Enclave,2650,2100,2016,1646,217,,Sold,,,http://www.redfin.com/TX/Houston/2007-Brun-St-77019/unit-C/home/112794647,HARMLS,99701283,N,Y,29.7476705,-95.4084359
PAST SALE,June-8-2016,Single Family Residential,3245 Ella Lee Ln,Houston,TX,77019,3125000,4,4.5,River Oaks,5945,9100,2004,1819,526,153,Sold,,,http://www.redfin.com/TX/Houston/3245-Ella-Lee-Ln-77019/home/29880333,HARMLS,86098660,N,Y,29.7447902,-95.4248437
PAST SALE,,Condo/Co-op,1004 Robin St,Houston,TX,77019,,3,3.5,,2413,1448,2015,,,,Sold,,,http://www.redfin.com/TX/Houston/1004-Robin-St-77019/home/105430666,HARMLS,,N,Y,29.7565444,-95.3780251
PAST SALE,June-14-2016,Townhouse,1806 Cushing St,Houston,TX,77019,350000,2,2.5,Webster Ave T H,2016,1886,2003,1813,174,66,Sold,,,http://www.redfin.com/TX/Houston/1806-Cushing-St-77019/home/29202105,HARMLS,71707063,N,Y,29.752326,-95.379707
PAST SALE,June-8-2017,Single Family Residential,1120 Columbus B,Houston,TX,77019,579900,4,4.5,Columbus,3136,1800,2015,1454,185,55,Sold,,,http://www.redfin.com/TX/Houston/1120-Columbus-St-77019/unit-B/home/110009330,HARMLS,70580224,N,Y,29.75619,-95.391593
PAST SALE,November-17-2016,Townhouse,1809 Woodhead St Unit B,Houston,TX,77019,530000,3,3.5,Hyde Park Main,2864,2500,1998,1657,185,,Sold,,,http://www.redfin.com/TX/Houston/1809-Woodhead-St-77019/unit-B/home/30696868,HARMLS,28491765,N,Y,29.749484,-95.4044459
PAST SALE,July-7-2017,Townhouse,2015 Park St,Houston,TX,77019,550000,3,3.5,Hyde Park Main Sec 02,3197,2267,2000,1425,172,,Sold,,,http://www.redfin.com/TX/Houston/2015-Park-St-77019/home/30712675,HARMLS,2002794,N,Y,29.747635,-95.40271
PAST SALE,May-22-2017,Condo/Co-op,3333 Allen Pkwy #507,Houston,TX,77019,524900,2,2.5,Royalton/river Oaks,1749,,2003,1471,300,822,Sold,,,http://www.redfin.com/TX/Houston/3333-Allen-Pkwy-77019/unit-507/home/29388212,HARMLS,32732545,N,Y,29.7600656,-95.4008486
PAST SALE,March-31-2017,Single Family Residential,3238 Huntingdon,Houston,TX,77019,2400000,5,6.5,River Oaks,8471,10875,1969,1523,283,161,Sold,,,http://www.redfin.com/TX/Houston/3238-Huntingdon-Pl-77019/home/29880527,HARMLS,88975285,N,Y,29.7475098,-95.4245163
PAST SALE,August-31-2017,Single Family Residential,3065 Reba Dr,Houston,TX,77019,1799000,3,3.5,Avalon Place,3562,11250,1940,1370,505,865,Sold,,,http://www.redfin.com/TX/Houston/3065-Reba-Dr-77019/home/29920286,HARMLS,47577904,N,Y,29.743846,-95.421806
PAST SALE,,Townhouse,2317 Peckham St,Houston,TX,77019,,3,3.5,,2754,2888,1994,,,,Sold,,,http://www.redfin.com/TX/Houston/2317-Peckham-St-77019/home/29962248,HARMLS,,N,Y,29.74523,-95.4113202
PAST SALE,August-16-2017,Single Family Residential,2103 Argonne St Unit A,Houston,TX,77019,1349000,4,3.5,Argonne Street Landng,3590,2142,2016,1385,376,,Sold,,,http://www.redfin.com/TX/Houston/2103-Argonne-St-77019/unit-A/home/112829926,HARMLS,26068284,N,Y,29.7477633,-95.4174883
PAST SALE,August-25-2017,Townhouse,2425 Brun St,Houston,TX,77019,669000,4,3.5,Brun Manors,3564,2949,2005,1376,188,,Sold,,,http://www.redfin.com/TX/Houston/2425-Brun-St-77019/home/29375950,HARMLS,48441428,N,Y,29.7438796,-95.4086209
PAST SALE,,Townhouse,2301 Hazard St Unit B,Houston,TX,77019,,3,3.5,,3410,2500,2008,,,,Sold,,,http://www.redfin.com/TX/Houston/2301-Hazard-St-77019/unit-B/home/29543155,HARMLS,,N,Y,29.74547,-95.4068659
PAST SALE,,Townhouse,2018 Mcduffie,Houston,TX,77019,,2,2.5,,2007,2700,1983,,,,Sold,,,http://www.redfin.com/TX/Houston/2018-McDuffie-St-77019/home/29816451,HARMLS,,N,Y,29.7475468,-95.4081495
PAST SALE,September-19-2016,Single Family Residential,2417 Stanmore Dr,Houston,TX,77019,2100000,4,4.0,River Oaks,4560,10040,1995,1716,461,155,Sold,,,http://www.redfin.com/TX/Houston/2417-Stanmore-Dr-77019/home/29881605,HARMLS,71419494,N,Y,29.7493695,-95.4159846
PAST SALE,June-12-2017,Single Family Residential,1004 Ruthven St,Houston,TX,77019,280000,3,2.5,Fourth Ward Place Sec 01,1232,2660,2005,1450,227,,Sold,,,http://www.redfin.com/TX/Houston/1004-Ruthven-St-77019/home/29278667,HARMLS,96348648,N,Y,29.7552911,-95.3779855
PAST SALE,,Townhouse,1312 W Dallas St,Houston,TX,77019,,3,2.5,,2290,1845,2007,,,,Sold,,,http://www.redfin.com/TX/Houston/1312-W-Dallas-St-77019/home/29606372,HARMLS,,N,Y,29.7580376,-95.3807386
PAST SALE,January-27-2017,Condo/Co-op,3231 Allen Pkwy #1106,Houston,TX,77019,169900,1,1.0,Reata/river Oaks,580,,1993,1586,293,245,Sold,,,http://www.redfin.com/TX/Houston/3231-Allen-Pkwy-77019/unit-1106/home/29306521,HARMLS,16064814,N,Y,29.7601522,-95.3998777
PAST SALE,,Condo/Co-op,3231 Allen Pkwy #3305,Houston,TX,77019,,2,2.0,,1006,,1993,,,,Sold,,,http://www.redfin.com/TX/Houston/3231-Allen-Pkwy-77019/unit-3305/home/29306605,HARMLS,,N,Y,29.7601522,-95.3998777
PAST SALE,August-7-2017,Condo/Co-op,3333 Allen Pkwy #1404,Houston,TX,77019,368000,1,1.5,Royalton/river Oaks,1273,,2003,1394,289,599,Sold,,,http://www.redfin.com/TX/Houston/3333-Allen-Pkwy-77019/unit-1404/home/29388066,HARMLS,74942947,N,Y,29.7600656,-95.4008486
PAST SALE,June-30-2017,Single Family Residential,2136 Looscan Ln,Houston,TX,77019,2235000,4,4.0,River Oaks,4690,12068,1935,1432,477,165,Sold,,,http://www.redfin.com/TX/Houston/2136-Looscan-Ln-77019/home/29881352,HARMLS,83528254,N,Y,29.7561831,-95.4109316
PAST SALE,June-21-2016,Condo/Co-op,3231 Allen Pkwy #1313,Houston,TX,77019,208000,1,1.0,Reata/river Oaks,816,,1993,1806,255,328,Sold,,,http://www.redfin.com/TX/Houston/3231-Allen-Pkwy-77019/unit-1313/home/29306562,HARMLS,56660458,N,Y,29.7601522,-95.3998777
PAST SALE,November-1-2016,Single Family Residential,2207 Park St,Houston,TX,77019,670000,3,3.5,Tricon Pk Villas,3402,2500,2016,1673,197,,Sold,,,http://www.redfin.com/TX/Houston/2207-Park-St-77019/home/102357346,HARMLS,37775297,N,Y,29.7460585,-95.4026859
PAST SALE,May-3-2017,Multi-Family (2-4 Unit),1903 Vermont St,Houston,TX,77019,749000,0,2.0,Nineteen O Five Park Blvd Th,2762,5000,1953,1490,271,,Sold,,,http://www.redfin.com/TX/Houston/1903-Vermont-St-77019/home/113107718,HARMLS,71255074,N,Y,29.7490482,-95.4025127
PAST SALE,July-29-2016,Single Family Residential,1900 Vermont St Unit B,Houston,TX,77019,659900,4,3.5,Windsor Place,2815,2625,2000,1768,234,,Sold,,,http://www.redfin.com/TX/Houston/1900-Vermont-St-77019/unit-B/home/29132750,HARMLS,57414854,N,Y,29.7493375,-95.4026274
PAST SALE,June-30-2016,Townhouse,1006 Rochow St Unit A,Houston,TX,77019,485000,3,2.5,Roc Homes Rochow,2529,2500,2005,1797,192,,Sold,,,http://www.redfin.com/TX/Houston/1006-Rochow-St-77019/unit-A/home/29369389,HARMLS,66372278,N,Y,29.7568774,-95.4005406
PAST SALE,,Multi-Family (2-4 Unit),2423 Woodhead St,Houston,TX,77019,,,,,3996,5000,1915,,,,Sold,,,http://www.redfin.com/TX/Houston/2423-Woodhead-St-77019/unit-4/home/29730752,HARMLS,,N,Y,29.7438882,-95.4044063
PAST SALE,,Townhouse,1908 Elmen St,Houston,TX,77019,,3,3.5,,2653,2340,1998,,,,Sold,,,http://www.redfin.com/TX/Houston/1908-Elmen-St-77019/home/29815688,HARMLS,,N,Y,29.748849,-95.404115
PAST SALE,June-19-2017,Single Family Residential,1009 B Ruthven,Houston,TX,77019,535000,3,3.5,Skyline at Midtown,2129,1832,2015,1443,251,33,Sold,,,http://www.redfin.com/TX/Houston/1009-Ruthven-St-77019/unit-B/home/112818259,HARMLS,37235014,N,Y,29.7550867,-95.3781097
PAST SALE,September-23-2016,Single Family Residential,508 W Bell,Houston,TX,77019,659900,3,4.5,Lofts on West Bell,,,,1712,,55,Sold,,,http://www.redfin.com/TX/Houston/508-W-Bell-St-77019/home/66047072,HARMLS,50418766,N,Y,29.754938,-95.3877903
PAST SALE,July-22-2016,Single Family Residential,1307 Eberhard St,Houston,TX,77019,539900,3,3.5,Tricon West Clay Court,2350,1617,2016,1775,230,,Sold,,,http://www.redfin.com/TX/Houston/1307-Eberhard-St-77019/home/112825262,HARMLS,52946161,N,Y,29.7550844,-95.3945796
PAST SALE,May-19-2017,Single Family Residential,1312 W Pierce,Houston,TX,77019,649900,4,3.5,Montrose,2878,,2017,1474,226,,Sold,,,http://www.redfin.com/TX/Houston/1312-W-Pierce-St-77019/home/144619283,HARMLS,63227297,N,Y,29.7541842,-95.3963479
PAST SALE,,Single Family Residential,2129 Brentwood Dr,Houston,TX,77019,,4,4.5,,4262,15000,1935,,,,Sold,,,http://www.redfin.com/TX/Houston/2129-Brentwood-Dr-77019/home/29881723,HARMLS,,N,Y,29.7535472,-95.4119749
PAST SALE,November-15-2016,Single Family Residential,2407A Brazoria,Houston,TX,77019,799000,3,3.5,Brazoria Manor,3024,1818,2007,1659,264,221,Sold,,,http://www.redfin.com/TX/Houston/2407A-Brazoria-St-77019/home/147162246,HARMLS,56087562,N,Y,29.747636,-95.416781
PAST SALE,,Single Family Residential,2410 Avalon Pl,Houston,TX,77019,,5,5.5,,6525,8833,2014,,,,Sold,,,http://www.redfin.com/TX/Houston/2410-Avalon-Pl-77019/home/29920344,HARMLS,,N,Y,29.7468587,-95.4161687
PAST SALE,July-18-2017,Single Family Residential,2101 Dickey Pl,Houston,TX,77019,1995000,2,2.5,Avalon Place,3367,10991,2013,1414,593,72,Sold,,,http://www.redfin.com/TX/Houston/2101-Dickey-Pl-77019/home/29920382,HARMLS,73309499,N,Y,29.7466215,-95.4153504
PAST SALE,,Single Family Residential,3044 Locke Ln,Houston,TX,77019,,3,4.0,,4983,9908,2017,,,,Sold,,,http://www.redfin.com/TX/Houston/3044-Locke-Ln-77019/home/29920294,HARMLS,,N,Y,29.7435727,-95.4209766
PAST SALE,August-8-2017,Single Family Residential,1416 Ruthven St,Houston,TX,77019,399900,3,3.5,Ruthven Lofts,2242,1827,2016,1393,178,,Sold,,,http://www.redfin.com/TX/Houston/1416-Ruthven-St-77019/home/105722583,HARMLS,34887444,N,Y,29.7552382,-95.3817664
PAST SALE,June-16-2017,Single Family Residential,1212 W Pierce,Houston,TX,77019,675000,3,3.5,Tricons Enclave on West Pierce,3188,2500,2013,1446,212,,Sold,,,http://www.redfin.com/TX/Houston/1212-W-Pierce-St-77019/home/109035183,HARMLS,64678413,N,Y,29.7542239,-95.3942619
PAST SALE,February-10-2017,Multi-Family (2-4 Unit),2209 Hazard St,Houston,TX,77019,538800,0,,Plainview,2458,4900,1930,1572,219,,Sold,,,http://www.redfin.com/TX/Houston/2209-Hazard-St-77019/home/29730630,HARMLS,71896143,N,Y,29.745847,-95.406873
PAST SALE,March-24-2017,Townhouse,2505 Hazard St,Houston,TX,77019,649900,3,3.5,Plainview Sec 02,3251,2500,2008,1530,200,,Sold,,,http://www.redfin.com/TX/Houston/2505-Hazard-St-77019/home/29731591,HARMLS,37896887,N,Y,29.743523,-95.406834
PAST SALE,June-29-2017,Single Family Residential,2232 Brentwood,Houston,TX,77019,4445000,5,5.5,River Oaks,5137,16036,1929,1433,865,181,Sold,,,http://www.redfin.com/TX/Houston/2232-Brentwood-Dr-77019/home/29881701,HARMLS,96024529,N,Y,29.7540584,-95.4143684
PAST SALE,,Single Family Residential,3620 Inverness Dr,Houston,TX,77019,,3,3.5,,4958,23760,1946,,,,Sold,,,http://www.redfin.com/TX/Houston/3620-Inverness-Dr-77019/home/29882084,HARMLS,,N,Y,29.7530941,-95.4357302
PAST SALE,,Single Family Residential,2026 Persa St,Houston,TX,77019,,4,3.5,,4575,5500,2012,,,,Sold,,,http://www.redfin.com/TX/Houston/2026-Persa-St-77019/home/29902840,HARMLS,,N,Y,29.7471511,-95.412875
PAST SALE,,Single Family Residential,1011 Andrews St,Houston,TX,77019,,3,2.5,,2323,4787,2014,,,,Sold,,,http://www.redfin.com/TX/Houston/1011-Andrews-St-77019/home/29648852,HARMLS,,N,Y,29.7556047,-95.378237
PAST SALE,,Single Family Residential,2008 W Mckinney,Houston,TX,77019,,3,,,2080,5000,1940,,,,Sold,,,http://www.redfin.com/TX/Houston/2008-W-McKinney-St-77019/home/29875355,HARMLS,,N,Y,29.7595617,-95.3894357
PAST SALE,,Townhouse,1814 W Bell St,Houston,TX,77019,,3,3.5,,3128,2500,2003,,,,Sold,,,http://www.redfin.com/TX/Houston/1814-W-Bell-St-77019/home/29180778,HARMLS,,N,Y,29.7547728,-95.4018291
PAST SALE,August-29-2016,Single Family Residential,505 W Bell,Houston,TX,77019,749900,3,4.0,Alden Place,3538,2500,2013,1737,212,,Sold,,,http://www.redfin.com/TX/Houston/505-W-Bell-St-77019/home/50257215,HARMLS,3651641,N,Y,29.7545795,-95.3874761
PAST SALE,January-18-2017,Single Family Residential,1104 Robin St,Houston,TX,77019,269500,2,2.5,Castanie R/p 01,1296,2532,2002,1595,208,,Sold,,,http://www.redfin.com/TX/Houston/1104-Robin-St-77019/home/29148701,HARMLS,95055244,N,Y,29.7565174,-95.3788851
PAST SALE,,Single Family Residential,1202 Cleveland St,Houston,TX,77019,,2,1.5,,1353,2490,2003,,,,Sold,,,http://www.redfin.com/TX/Houston/1202-Cleveland-St-77019/home/30723274,HARMLS,,N,Y,29.7546818,-95.379662
PAST SALE,,Townhouse,2024 Morse St,Houston,TX,77019,,4,3.5,,3801,2500,1998,,,,Sold,,,http://www.redfin.com/TX/Houston/2024-Morse-St-77019/home/29816032,HARMLS,,N,Y,29.747329,-95.405788
PAST SALE,December-2-2016,Townhouse,803 Robin St,Houston,TX,77019,319500,2,2.0,Crosby Street Square Twnhms,1880,1986,2005,1642,170,29,Sold,,,http://www.redfin.com/TX/Houston/803-Robin-St-77019/home/29214262,HARMLS,35502394,N,Y,29.7563588,-95.376401
PAST SALE,July-21-2017,Condo/Co-op,3333 Allen Pkwy #1906,Houston,TX,77019,999999,2,2.5,Royalton at River Oaks,2131,,2003,1411,469,1080,Sold,,,http://www.redfin.com/TX/Houston/3333-Allen-Pkwy-77019/unit-1906/home/29364918,HARMLS,50658300,N,Y,29.7600656,-95.4008486
PAST SALE,,Single Family Residential,1102 Saulnier Cir,Houston,TX,77019,,3,2.0,,1214,1542,2003,,,,Sold,,,http://www.redfin.com/TX/Houston/1102-Saulnier-St-77019/home/30722205,HARMLS,,N,Y,29.7569588,-95.3802345
PAST SALE,July-14-2016,Townhouse,1114 Robin St Unit A,Houston,TX,77019,314500,3,2.5,Robin Street Place Townhomes,2009,1425,2004,1783,157,,Sold,,,http://www.redfin.com/TX/Houston/1114-Robin-St-77019/unit-A/home/29314746,HARMLS,89878242,N,Y,29.756612,-95.3793102
PAST SALE,March-23-2018,Condo/Co-op,3333 Allen Pkwy #2803,Houston,TX,77019,2199999,4,5.0,Royalton at River Oaks Condo,4435,,2003,1166,496,1849,Sold,,,http://www.redfin.com/TX/Houston/3333-Allen-Pkwy-77019/unit-2803/home/29388165,HARMLS,99043607,N,Y,29.7600656,-95.4008486
PAST SALE,,Single Family Residential,1108 Peveto Unit C,Houston,TX,77019,,3,3.5,,2346,1931,2012,,,,Sold,,,http://www.redfin.com/TX/Houston/1108-Peveto-St-77019/unit-C/home/52543432,HARMLS,,N,Y,29.7564862,-95.3974114
PAST SALE,October-16-2020,Townhouse,1217 Dunlavy St,Houston,TX,77019,549900,3,2.5,Hyde Park Court,2666,2541,1997,228,206,,Sold,,,http://www.redfin.com/TX/Houston/1217-Dunlavy-St-77019/home/29816306,HARMLS,9861695,N,Y,29.7554234,-95.4021315
PAST SALE,September-30-2020,Townhouse,722 Tirrell St,Houston,TX,77019,449000,3,3.5,John Austin,2573,2144,1996,244,175,267,Sold,,,http://www.redfin.com/TX/Houston/722-Tirrell-St-77019/home/29774907,HARMLS,71693528,N,Y,29.758357,-95.404439
PAST SALE,February-14-2017,Townhouse,2415 San Felipe St #4,Houston,TX,77019,2225000,4,5.0,Winfield Gate,4419,2471,2013,1568,504,650,Sold,,,http://www.redfin.com/TX/Houston/2415-San-Felipe-St-77019/unit-4/home/52560328,HARMLS,62061134,N,Y,29.7484979,-95.4174865
PAST SALE,May-17-2018,Condo/Co-op,3231 Allen Pkwy #3205,Houston,TX,77019,230000,2,2.0,Reata at River Oaks,1006,,1993,1111,229,406,Sold,,,http://www.redfin.com/TX/Houston/3231-Allen-Pkwy-77019/unit-3205/home/29306597,HARMLS,67447858,N,Y,29.7601522,-95.3998777
PAST SALE,,Condo/Co-op,2111 Welch St Unit A104,Houston,TX,77019,,1,1.5,,1082,,1992,,,,Sold,,,http://www.redfin.com/TX/Houston/2111-Welch-St-77019/unit-A104/home/29159972,HARMLS,,N,Y,29.7473031,-95.4119135
PAST SALE,March-6-2019,Single Family Residential,966 Rochow St,Houston,TX,77019,729000,3,2.5,River Oaks Shopping Area,2698,2500,1984,818,270,,Sold,,,http://www.redfin.com/TX/Houston/966-Rochow-St-77019/home/29830443,HARMLS,42052378,N,Y,29.7574887,-95.4004792
PAST SALE,October-31-2018,Single Family Residential,1419 Kirby,Houston,TX,77019,3795000,5,6.0,River Oaks,6294,22365,1931,944,603,192,Sold,,,http://www.redfin.com/TX/Houston/1419-Kirby-Dr-77019/home/29880542,HARMLS,2563605,N,Y,29.7559108,-95.4159436
PAST SALE,June-5-2020,Single Family Residential,2135 Looscan Ln,Houston,TX,77019,2250000,4,5.5,River Oaks Add Sec 03,3896,8190,1937,361,578,125,Sold,,,http://www.redfin.com/TX/Houston/2135-Looscan-Ln-77019/home/29881666,HARMLS,45731898,N,Y,29.7556502,-95.4101747
PAST SALE,August-27-2020,Townhouse,3316 West Dallas St,Houston,TX,77019,397500,3,2.5,Rochow,2532,1600,1998,278,157,,Sold,,,http://www.redfin.com/TX/Houston/3316-W-Dallas-St-77019/home/30684450,HARMLS,96348716,N,Y,29.757435,-95.401105
PAST SALE,June-4-2020,Condo/Co-op,3333 Allen Pkwy #2703,Houston,TX,77019,349900,1,1.0,Royalton at River Oaks,1328,,2003,362,263,756,Sold,,,http://www.redfin.com/TX/Houston/3333-Allen-Pkwy-77019/unit-2703/home/43502023,HARMLS,13872950,N,Y,29.7602983,-95.4007042
PAST SALE,June-20-2019,Condo/Co-op,1005 S Shepherd Dr #301,Houston,TX,77019,269900,1,1.0,Renoir Condo,1247,,2000,712,216,710,Sold,,,http://www.redfin.com/TX/Houston/1005-S-Shepherd-Dr-77019/unit-301/home/29155543,HARMLS,96132198,N,Y,29.7566914,-95.4079923
PAST SALE,October-16-2020,Townhouse,1038 La Rue St,Houston,TX,77019,359000,2,2.5,La Rue Street Townhomes,2084,1404,2003,228,172,167,Sold,,,http://www.redfin.com/TX/Houston/1038-La-Rue-St-77019/home/29240279,HARMLS,79757147,N,Y,29.7564487,-95.3957589
PAST SALE,April-9-2019,Townhouse,1507 Eberhard St,Houston,TX,77019,625000,3,3.5,Modern Commons/eberhard,2932,1500,2014,784,213,,Sold,,,http://www.redfin.com/TX/Houston/1507-Eberhard-St-77019/home/56360456,HARMLS,54185989,N,Y,29.7537414,-95.394487
PAST SALE,July-31-2020,Single Family Residential,1122 W Pierce St,Houston,TX,77019,1035000,4,4.5,Terraces of West Pierce,4068,2388,2016,305,254,,Sold,,,http://www.redfin.com/TX/Houston/1122-W-Pierce-St-77019/home/102925993,HARMLS,80554782,N,Y,29.7542254,-95.3931167
PAST SALE,August-6-2020,Condo/Co-op,1419 Montrose Blvd #303,Houston,TX,77019,265000,2,2.0,One Montrose Place Condo,1283,,2004,299,207,556,Sold,,,http://www.redfin.com/TX/Houston/1419-Montrose-Blvd-77019/unit-303/home/29278951,HARMLS,16219190,N,Y,29.7539555,-95.391709
PAST SALE,May-31-2019,Townhouse,2009 Park St,Houston,TX,77019,599900,3,3.5,Hyde Park Main Sec 02,3197,2500,2000,732,188,,Sold,,,http://www.redfin.com/TX/Houston/2009-Park-St-77019/home/29815787,HARMLS,26087473,N,Y,29.74784,-95.402713
PAST SALE,November-6-2020,Single Family Residential,1716 Dunlavy St,Houston,TX,77006,589000,3,3.5,Wawrose Estate,2352,2500,2007,207,250,,Sold,,,http://www.redfin.com/TX/Houston/1716-Dunlavy-St-77019/home/29199635,HARMLS,34255755,N,Y,29.7501942,-95.4024018
PAST SALE,June-24-2019,Vacant Land,1938 W Dallas St,Houston,TX,77019,1299000,,,Temple Terrace,,15000,,708,,,Sold,,,http://www.redfin.com/TX/Houston/1938-W-Dallas-St-77019/home/112822659,HARMLS,36003552,N,Y,29.757749,-95.3874318
PAST SALE,July-31-2019,Single Family Residential,512 W W Clay St,Houston,TX,77019,759000,3,4.0,West Clay Villas,3313,2500,2017,671,229,,Sold,,,http://www.redfin.com/TX/Houston/512-W-Clay-St-77019/home/144617417,HARMLS,88248591,N,Y,29.7556079,-95.3877447
PAST SALE,April-23-2018,Multi-Family (2-4 Unit),1929 W Dallas St,Houston,TX,77019,499000,5,4.0,Alden Place,3090,4900,1930,1135,161,,Sold,,,http://www.redfin.com/TX/Houston/1929-W-Dallas-St-77019/home/29846129,HARMLS,31803152,N,Y,29.7574031,-95.3870637
PAST SALE,September-4-2019,Multi-Family (5+ Unit),1930 W Dallas St,Houston,TX,77019,899999,0,,Temple Terrace,4506,10000,1904,636,200,,Sold,,,http://www.redfin.com/TX/Houston/1930-W-Dallas-St-77019/unit-8/home/29875338,HARMLS,47319116,N,Y,29.7577623,-95.3871046
PAST SALE,October-15-2020,Townhouse,1222 Stanford St,Houston,TX,77019,369000,2,2.5,Bakerdale Amd,1938,1046,2000,229,190,100,Sold,,,http://www.redfin.com/TX/Houston/1222-Stanford-St-77019/home/30695812,HARMLS,40501888,N,Y,29.7557188,-95.3891387
PAST SALE,March-20-2020,Single Family Residential,610 W Bell,Houston,TX,77019,1241629,4,4.5,Alden Place,4164,,2018,438,298,,Sold,,,http://www.redfin.com/TX/Houston/610-W-Bell-St-77019/home/43517216,HARMLS,74912917,N,Y,29.7549805,-95.3884316
PAST SALE,July-16-2020,Townhouse,2012 Buffalo Ter,Houston,TX,77019,595000,3,3.5,Townes Buffalo Bayou,2524,1024,1999,320,236,200,Sold,,,http://www.redfin.com/TX/Houston/2012-Buffalo-Ter-77019/home/30672293,HARMLS,59213252,N,Y,29.760144,-95.3887699
PAST SALE,April-9-2019,Townhouse,1016 Van Buren St,Houston,TX,77019,380000,2,2.5,Van Buren Ave T/h,2113,1751,2001,784,180,162,Sold,,,http://www.redfin.com/TX/Houston/1016-Van-Buren-St-77019/home/29135509,HARMLS,47021303,N,Y,29.756812,-95.394407
PAST SALE,August-31-2020,Townhouse,1014 Montrose Blvd Unit B,Houston,TX,77019,435000,3,3.0,Montrose Terrace,2166,1577,2001,274,201,167,Sold,,,http://www.redfin.com/TX/Houston/1014-Montrose-Blvd-77019/unit-B/home/29135521,HARMLS,49871579,N,Y,29.7565106,-95.392458
PAST SALE,August-13-2019,Townhouse,1001 Van Buren St,Houston,TX,77019,399000,3,3.5,Marconi Ave Twnhms,2175,1823,2002,658,183,150,Sold,,,http://www.redfin.com/TX/Houston/1001-Van-Buren-St-77019/home/29165704,HARMLS,95505882,N,Y,29.757037,-95.393551
PAST SALE,July-11-2019,Single Family Residential,513 W Bell St,Houston,TX,77019,599900,3,2.5,West Bell Street Terrace,2502,2500,2019,691,240,,Sold,,,http://www.redfin.com/TX/Houston/513-W-Bell-St-77019/home/160476504,HARMLS,98393174,N,Y,29.7547237,-95.3878621
PAST SALE,October-10-2019,Single Family Residential,1107 Robin St,Houston,TX,77019,234900,3,2.5,Castanie R P 01,1360,2471,2002,600,173,,Sold,,,http://www.redfin.com/TX/Houston/1107-Robin-St-77019/home/29148692,HARMLS,70725775,N,Y,29.7562886,-95.3789668
PAST SALE,July-18-2019,Single Family Residential,307 W Bell St,Houston,TX,77019,589783,3,3.5,Bercon ON West Bell Avenue,2688,2500,2007,684,219,,Sold,,,http://www.redfin.com/TX/Houston/307-W-Bell-St-77019/home/29579073,HARMLS,94183362,N,Y,29.7546918,-95.3860822
PAST SALE,August-1-2019,Townhouse,514 W Polk St,Houston,TX,77019,699000,3,4.0,Montrose,2969,2562,2009,670,235,,Sold,,,http://www.redfin.com/TX/Houston/514-W-Polk-St-77019/home/29634476,HARMLS,57274263,N,Y,29.756387,-95.387923
PAST SALE,October-3-2018,Single Family Residential,1938 W Lamar St,Houston,TX,77019,775000,3,2.5,Temple Terrace,2203,5000,1951,972,352,,Sold,,,http://www.redfin.com/TX/Houston/1938-W-Lamar-St-77019/home/29875417,HARMLS,23538698,N,Y,29.7584639,-95.3875954
PAST SALE,May-18-2018,Townhouse,1506 Cleveland St,Houston,TX,77019,299900,2,2.0,Midtown,1911,1577,2003,1110,157,,Sold,,,http://www.redfin.com/TX/Houston/1506-Cleveland-St-77019/home/29202102,HARMLS,33055861,N,Y,29.754703,-95.3824941
PAST SALE,October-22-2019,Vacant Land,1416 Stanford St,Houston,TX,77019,550000,,,Bakerdale,,5000,,588,,,Sold,,,http://www.redfin.com/TX/Houston/1416-Stanford-St-77019/home/29826518,HARMLS,58324363,N,Y,29.754273,-95.389166
PAST SALE,March-1-2019,Single Family Residential,1502 Robin St,Houston,TX,77019,425000,3,2.0,Castanie Add,1395,5350,2012,823,305,,Sold,,,http://www.redfin.com/TX/Houston/1502-Robin-St-77019/home/45416547,HARMLS,89304131,N,Y,29.7565568,-95.3823608
PAST SALE,March-27-2019,Single Family Residential,1618 Saulnier St,Houston,TX,77019,285000,3,2.5,Miracle Hope-fourth Ward,1625,2490,2002,797,175,,Sold,,,http://www.redfin.com/TX/Houston/1618-Saulnier-St-77019/home/29222390,HARMLS,83399022,N,Y,29.7571935,-95.3838612
PAST SALE,November-11-2019,Single Family Residential,1320 Cleveland St,Houston,TX,77019,274900,3,1.5,Miracle Hope-fourth Ward,1353,2575,2003,568,203,,Sold,,,http://www.redfin.com/TX/Houston/1320-Cleveland-St-77019/home/29222116,HARMLS,34727525,N,Y,29.7546655,-95.381175
PAST SALE,June-14-2019,Townhouse,1412 Cleveland St Unit C,Houston,TX,77019,289000,2,2.0,Cleveland Place Townhomes,1844,1803,2003,718,157,50,Sold,,,http://www.redfin.com/TX/Houston/1412-Cleveland-St-77019/unit-C/home/29226875,HARMLS,4555364,N,Y,29.7546404,-95.3817625
PAST SALE,March-4-2019,Single Family Residential,1108 Gross St,Houston,TX,77019,609900,3,2.5,Montrose/river Oaks,2402,2625,2018,820,254,,Sold,,,http://www.redfin.com/TX/Houston/1108-Gross-St-77019/home/145522259,HARMLS,68045536,N,Y,29.7560913,-95.4065622
PAST SALE,August-15-2018,Single Family Residential,1117 Gross St,Houston,TX,77019,550000,4,3.5,First College Add,3050,2500,1999,1021,180,,Sold,,,http://www.redfin.com/TX/Houston/1117-Gross-St-77019/home/29673429,HARMLS,68536203,N,Y,29.7558572,-95.4062063
PAST SALE,July-31-2020,Single Family Residential,2125 Troon Rd,Houston,TX,77019,2699000,3,4.5,River Oaks,5209,10193,2009,305,518,179,Sold,,,http://www.redfin.com/TX/Houston/2125-Troon-Rd-77019/home/29880633,HARMLS,85340583,N,Y,29.7578551,-95.4091928
PAST SALE,July-24-2019,Single Family Residential,904 S Shepherd Dr,Houston,TX,77019,880000,4,4.0,River Oaks Sec 03 R/p,3942,5280,1999,678,223,123,Sold,,,http://www.redfin.com/TX/Houston/904-S-Shepherd-Dr-77019/home/29880643,HARMLS,22776436,N,Y,29.7587705,-95.4088655
PAST SALE,October-9-2018,Single Family Residential,2122 Chilton Rd,Houston,TX,77019,2950000,5,5.0,River Oaks,5869,12630,1935,966,503,166,Sold,,,http://www.redfin.com/TX/Houston/2122-Chilton-Rd-77019/home/29881391,HARMLS,41843662,N,Y,29.757172,-95.4104611
PAST SALE,August-6-2020,Condo/Co-op,1201 Mcduffie St #160,Houston,TX,77019,310000,2,2.5,River Oaks Place,1520,288214,1979,299,204,502,Sold,,,http://www.redfin.com/TX/Houston/1201-McDuffie-St-77019/unit-160/home/30463011,HARMLS,48554727,N,Y,29.7547866,-95.4075768
PAST SALE,June-12-2019,Townhouse,1201 Mcduffie St #220,Houston,TX,77019,372000,2,2.5,River Oaks Place Condo Amd,1520,,1979,720,245,488,Sold,,,http://www.redfin.com/TX/Houston/1201-McDuffie-St-77019/unit-220/home/30462965,HARMLS,34536038,N,Y,29.7547866,-95.4075768
PAST SALE,September-30-2019,Condo/Co-op,1025 S Shepherd Dr #107,Houston,TX,77019,699000,2,2.0,Gotham Condo,2933,,1998,610,238,790,Sold,,,http://www.redfin.com/TX/Houston/1025-S-Shepherd-Dr-77019/unit-107/home/30688318,HARMLS,18322118,N,Y,29.755788,-95.4079684
PAST SALE,August-3-2020,Condo/Co-op,1005 S Shepherd Dr #405,Houston,TX,77019,575000,2,2.0,Renoir Condo,2336,,2000,302,246,710,Sold,,,http://www.redfin.com/TX/Houston/1005-S-Shepherd-Dr-77019/unit-405/home/29155519,HARMLS,69556413,N,Y,29.7566914,-95.4079923
PAST SALE,October-6-2020,Condo/Co-op,1005 S Shepherd Dr #813,Houston,TX,77019,659000,2,2.0,Renoir Condo,2440,,2000,238,270,710,Sold,,,http://www.redfin.com/TX/Houston/1005-S-Shepherd-Dr-77019/unit-813/home/29132828,HARMLS,24111207,N,Y,29.7566914,-95.4079923
PAST SALE,September-7-2019,Single Family Residential,2007 Brun St Unit E,Houston,TX,77019,615000,3,3.5,Tricons Brun Enclave,2601,2000,2015,633,236,,Sold,,,http://www.redfin.com/TX/Houston/2007-Brun-St-77019/unit-E/home/112794975,HARMLS,50482020,N,Y,29.7476705,-95.4084359
PAST SALE,November-30-2017,Single Family Residential,2033 Vermont St,Houston,TX,77019,729000,3,3.5,Linear at Vermont,2649,2050,2017,1279,275,,Sold,,,http://www.redfin.com/TX/Houston/2033-Vermont-St-77019/home/144619531,HARMLS,69416064,N,Y,29.7490134,-95.4095993
PAST SALE,July-10-2020,Single Family Residential,2204 Driscoll St,Houston,TX,77019,844999,4,3.5,Summit Place,3330,2500,2019,326,254,,Sold,,,http://www.redfin.com/TX/Houston/2204-Driscoll-St-77019/home/147861459,HARMLS,73746233,N,Y,29.746011,-95.4065499
PAST SALE,January-31-2019,Townhouse,1975 Indiana St,Houston,TX,77019,469000,3,3.5,Hyde Park Oaks,2514,1576,2006,852,187,,Sold,,,http://www.redfin.com/TX/Houston/1975-Indiana-St-77019/home/29486496,HARMLS,76360666,N,Y,29.7467962,-95.4066914
PAST SALE,November-6-2018,Single Family Residential,2415 Brazoria St Unit C,Houston,TX,77019,835000,3,3.5,Brazoria Manor,2992,1818,2007,938,279,220,Sold,,,http://www.redfin.com/TX/Houston/2415-Brazoria-St-77019/unit-C/home/29514007,HARMLS,46462617,N,Y,29.7478343,-95.4171302
PAST SALE,September-8-2020,Single Family Residential,2315 Mimosa Dr,Houston,TX,77019,1475000,4,5.5,Mimosa Place,4700,5000,2009,266,314,,Sold,,,http://www.redfin.com/TX/Houston/2315-Mimosa-Dr-77019/home/29634672,HARMLS,62006051,N,Y,29.7473282,-95.4151662
PAST SALE,November-21-2018,Single Family Residential,2320 Driscoll St,Houston,TX,77019,779000,5,3.0,Plainview Add 02,2556,5000,1930,923,305,,Sold,,,http://www.redfin.com/TX/Houston/2320-Driscoll-St-77019/home/29730636,HARMLS,3004280,N,Y,29.744884,-95.4065336
PAST SALE,June-1-2018,Townhouse,1718 Morse St,Houston,TX,77019,325000,2,2.0,Hyde Park Main,1509,1942,1985,1096,215,,Sold,,,http://www.redfin.com/TX/Houston/1718-Morse-St-77019/home/29815729,HARMLS,27236004,N,Y,29.7500591,-95.4057154
PAST SALE,May-1-2019,Townhouse,1956 Vermont St,Houston,TX,77019,479900,3,3.5,Hyde Park Main Sec 06,2424,1916,1999,762,198,,Sold,,,http://www.redfin.com/TX/Houston/1956-Vermont-St-77019/home/29816436,HARMLS,81133879,N,Y,29.749279,-95.4060427
PAST SALE,October-19-2018,Townhouse,1976 Indiana St,Houston,TX,77019,549000,3,3.5,Summit Place,2624,1792,1995,956,209,,Sold,,,http://www.redfin.com/TX/Houston/1976-Indiana-St-77019/home/29816481,HARMLS,82998545,N,Y,29.747074,-95.4068037
PAST SALE,March-29-2019,Single Family Residential,2118 Driscoll St,Houston,TX,77019,1149000,4,3.5,Summit Place,4274,5000,2007,795,269,,Sold,,,http://www.redfin.com/TX/Houston/2118-Driscoll-St-77019/home/29816488,HARMLS,31581567,N,Y,29.7462571,-95.4065949
PAST SALE,October-15-2019,Multi-Family (2-4 Unit),1924 Brun St,Houston,TX,77019,620000,0,1.0,Hillcrest,2666,5000,1929,595,233,,Sold,,,http://www.redfin.com/TX/Houston/1924-Brun-St-77019/home/29821760,HARMLS,5687753,N,Y,29.7482986,-95.4090701
PAST SALE,August-9-2019,Multi-Family (2-4 Unit),2002 Huldy St,Houston,TX,77019,590000,0,,River Oaks Shopping Area,2493,5000,1930,662,237,,Sold,,,http://www.redfin.com/TX/Houston/2002-Huldy-St-77019/home/29821787,HARMLS,82303921,N,Y,29.7479896,-95.410011
PAST SALE,September-30-2020,Single Family Residential,2147 Stanmore Dr,Houston,TX,77019,1625000,4,4.5,River Oaks,4093,12908,1937,244,397,174,Sold,,,http://www.redfin.com/TX/Houston/2147-Stanmore-Dr-77019/home/29881613,HARMLS,32657447,N,Y,29.7493227,-95.4127113
PAST SALE,June-16-2020,Single Family Residential,2237 Pelham,Houston,TX,77019,1485000,4,3.5,River Oaks,3229,8000,1935,350,460,172,Sold,,,http://www.redfin.com/TX/Houston/2237-Pelham-Dr-77019/home/29881568,HARMLS,32366970,N,Y,29.7506023,-95.4145116
PAST SALE,August-28-2019,Single Family Residential,2240 Inwood Dr,Houston,TX,77019,3500000,5,5.5,River Oaks,6246,12711,2013,643,560,169,Sold,,,http://www.redfin.com/TX/Houston/2240-Inwood-Dr-77019/home/29881727,HARMLS,3897785,N,Y,29.753143,-95.4146957
PAST SALE,November-12-2019,Single Family Residential,2248 Pelham Dr,Houston,TX,77019,1875000,4,4.5,River Oaks,4173,8678,1945,567,449,196,Sold,,,http://www.redfin.com/TX/Houston/2248-Pelham-Dr-77019/home/29881747,HARMLS,68142800,N,Y,29.7510583,-95.4149412
PAST SALE,September-25-2020,Single Family Residential,1610 Morse St,Houston,TX,77019,1499900,4,4.0,Lewisdale,4075,5250,2019,249,368,,Sold,,,http://www.redfin.com/TX/Houston/1610-Morse-St-77019/home/29884667,HARMLS,79962206,N,Y,29.7511817,-95.4058381
PAST SALE,June-26-2020,Townhouse,2023 Haddon St,Houston,TX,77019,399000,2,2.0,Wilfran Place,1551,1450,1983,340,257,,Sold,,,http://www.redfin.com/TX/Houston/2023-Haddon-St-77019/home/29898912,HARMLS,71948292,N,Y,29.7505813,-95.4081189
PAST SALE,May-29-2020,Single Family Residential,2603 Avalon Pl,Houston,TX,77019,1499900,3,3.5,Avalon Place,3688,7930,2003,368,407,79,Sold,,,http://www.redfin.com/TX/Houston/2603-Avalon-Pl-77019/home/29920386,HARMLS,5064895,N,Y,29.7462239,-95.4179077
PAST SALE,August-14-2020,Townhouse,1963 Vermont St,Houston,TX,77019,599500,3,3.5,Hyde Park Main,2629,1742,1998,291,228,,Sold,,,http://www.redfin.com/TX/Houston/1963-Vermont-St-77019/home/30684018,HARMLS,2952363,N,Y,29.748981,-95.406815
PAST SALE,July-17-2020,Townhouse,1601 S Shepherd Dr #58,Houston,TX,77019,219900,1,1.5,River Oaks Gardens,850,343758,1978,319,259,315,Sold,,,http://www.redfin.com/TX/Houston/1601-S-Shepherd-Dr-77019/unit-58/home/30447224,HARMLS,89384784,N,Y,29.751451,-95.409435
PAST SALE,November-28-2018,Condo/Co-op,1601 S Shepherd Dr #167,Houston,TX,77019,169900,2,1.5,River Oaks Gardens Condo,928,343758,1978,916,183,378,Sold,,,http://www.redfin.com/TX/Houston/1601-S-Shepherd-Dr-77019/unit-167/home/30447190,HARMLS,67955507,N,Y,29.751451,-95.409435
PAST SALE,September-11-2020,Condo/Co-op,1601 S Shepherd Dr #270,Houston,TX,77019,234900,1,1.5,River Oaks Gardens Condo,928,343758,1978,263,253,351,Sold,,,http://www.redfin.com/TX/Houston/1601-S-Shepherd-Dr-77019/unit-270/home/30447197,HARMLS,28219019,N,Y,29.751451,-95.409435
PAST SALE,March-7-2019,Condo/Co-op,1601 S Shepherd Dr #138,Houston,TX,77019,170000,2,1.5,River Oaks Gardens Condo,956,343758,1978,817,178,399,Sold,,,http://www.redfin.com/TX/Houston/1601-S-Shepherd-Dr-77019/unit-138/home/30447752,HARMLS,42497633,N,Y,29.751451,-95.409435
PAST SALE,December-12-2019,Condo/Co-op,1601 S Shepherd Dr #201,Houston,TX,77019,214000,1,1.0,River Oaks Gardens,798,343758,1978,537,268,297,Sold,,,http://www.redfin.com/TX/Houston/1601-S-Shepherd-Dr-77019/unit-201/home/30447737,HARMLS,89332868,N,Y,29.751451,-95.409435
PAST SALE,February-15-2019,Condo/Co-op,1601 S Shepherd Dr #26,Houston,TX,77019,205000,1,1.0,River Oaks Gardens Condo,850,343758,1978,837,241,288,Sold,,,http://www.redfin.com/TX/Houston/1601-S-Shepherd-Dr-77019/unit-26/home/30447703,HARMLS,2756488,N,Y,29.751451,-95.409435
PAST SALE,March-28-2019,Single Family Residential,1923 Spann St,Houston,TX,77019,854000,3,3.5,Stanford Oaks Court,3472,2589,1999,796,246,267,Sold,,,http://www.redfin.com/TX/Houston/1923-Spann-St-77019/home/30695657,HARMLS,65455423,N,Y,29.7486846,-95.4139797
PAST SALE,November-8-2019,Single Family Residential,2518 Kingston St,Houston,TX,77019,929000,3,3.5,Enclave at Kingston,3652,4504,2000,571,254,104,Sold,,,http://www.redfin.com/TX/Houston/2518-Kingston-St-77019/home/29839401,HARMLS,86804790,N,Y,29.743055,-95.4137751
PAST SALE,August-30-2019,Condo/Co-op,3333 Allen Pkwy #1201,Houston,TX,77019,700000,2,2.0,Royalton at River Oaks Condo,1738,,2003,641,403,991,Sold,,,http://www.redfin.com/TX/Houston/3333-Allen-Pkwy-77019/unit-1201/home/29388272,HARMLS,15588275,N,Y,29.7600656,-95.4008486
PAST SALE,April-12-2019,Single Family Residential,2028 Vermont St,Houston,TX,77019,540000,3,2.5,Vermont Crest,2765,2531,2002,781,195,,Sold,,,http://www.redfin.com/TX/Houston/2028-Vermont-St-77019/home/30724788,HARMLS,63679829,N,Y,29.7492307,-95.4094383
PAST SALE,January-13-2020,Townhouse,2103 Mcduffie St,Houston,TX,77019,575000,4,3.5,River Oaks Villas 01 R P,3547,2485,2001,505,162,,Sold,,,http://www.redfin.com/TX/Houston/2103-McDuffie-St-77019/home/29816397,HARMLS,63622752,N,Y,29.7466712,-95.407755
PAST SALE,December-4-2019,Condo/Co-op,2111 Welch St Unit A118,Houston,TX,77019,330000,2,2.0,Renaissance At River Oaks,1252,,1992,545,264,527,Sold,,,http://www.redfin.com/TX/Houston/2111-Welch-St-77019/unit-A118/home/29159984,HARMLS,75569999,N,Y,29.7473031,-95.4119135
PAST SALE,June-12-2020,Condo/Co-op,2111 Welch Unit B209,Houston,TX,77019,265000,2,1.5,The Renaissance at River Oaks,1244,,1992,354,213,524,Sold,,,http://www.redfin.com/TX/Houston/2111-Welch-St-77019/unit-B209/home/29159827,HARMLS,61470955,N,Y,29.7473031,-95.4119135
PAST SALE,September-22-2020,Condo/Co-op,2111 Welch St Unit B309,Houston,TX,77019,255000,2,1.5,Renaissance At River Oaks,1244,173261,1992,252,205,524,Sold,,,http://www.redfin.com/TX/Houston/2111-Welch-St-77019/unit-B309/home/29159780,HARMLS,55646138,N,Y,29.7473031,-95.4119135
PAST SALE,September-26-2019,Condo/Co-op,2111 Welch St Unit B311,Houston,TX,77019,289900,2,1.5,Renaissance At River Oaks,1363,173261,1992,614,213,568,Sold,,,http://www.redfin.com/TX/Houston/2111-Welch-St-77019/unit-B311/home/29159782,HARMLS,64591089,N,Y,29.7473031,-95.4119135
PAST SALE,July-9-2019,Townhouse,1951 Welch St,Houston,TX,77019,789000,4,3.5,Morse Welch,4164,2500,2003,693,189,,Sold,,,http://www.redfin.com/TX/Houston/1951-Welch-St-77019/home/29169175,HARMLS,57315024,N,Y,29.7480261,-95.4057972
PAST SALE,December-27-2019,Condo/Co-op,2111 Welch Street St Unit A112,Houston,TX,77019,229000,1,1.0,Renaissance At River Oaks,995,173261,1992,522,230,419,Sold,,,http://www.redfin.com/TX/Houston/2111-Welch-St-77019/unit-A112/home/29159978,HARMLS,45909083,N,Y,29.7473031,-95.4119135
PAST SALE,November-13-2019,Single Family Residential,3208 Huntingdon Pl,Houston,TX,77019,1895000,3,2.5,River Oaks Country Club Estate,2966,10585,1931,566,639,171,Sold,,,http://www.redfin.com/TX/Houston/3208-Huntingdon-Pl-77019/home/29880520,HARMLS,29728931,N,Y,29.7475349,-95.42335
PAST SALE,May-17-2019,Single Family Residential,3023 Del Monte,Houston,TX,77019,4999500,4,6.0,River Oaks,7572,26775,1934,746,660,219,Sold,,,http://www.redfin.com/TX/Houston/3023-Del-Monte-Dr-77019/home/29880573,HARMLS,97608894,N,Y,29.7501109,-95.4221224
PAST SALE,July-26-2018,Single Family Residential,2912 Ella Lee Ln,Houston,TX,77019,4595000,4,5.0,Avalon Place,6604,11358,2018,1041,696,75,Sold,,,http://www.redfin.com/TX/Houston/2912-Ella-Lee-Ln-77019/home/29920086,HARMLS,81398296,N,Y,29.7459733,-95.4196263
PAST SALE,September-18-2019,Single Family Residential,2515 Avalon Pl,Houston,TX,77019,1850000,5,4.0,Avalon Place Sec 06,3910,8274,1955,622,473,,Sold,,,http://www.redfin.com/TX/Houston/2515-Avalon-Pl-77019/home/29920392,HARMLS,7259680,N,Y,29.7461738,-95.417478
PAST SALE,April-3-2019,Condo/Co-op,2111 Welch Unit B119,Houston,TX,77019,325000,2,2.0,The Renaissance AT River Oaks,1509,,1992,790,215,635,Sold,,,http://www.redfin.com/TX/Houston/2111-Welch-St-77019/unit-B119/home/29159815,HARMLS,77426794,N,Y,29.7473031,-95.4119135
PAST SALE,September-10-2020,Single Family Residential,611 W Saulnier St,Houston,TX,77019,599000,3,2.5,West Saulnier Place,2648,2500,2017,264,226,,Sold,,,http://www.redfin.com/TX/Houston/611-W-Saulnier-St-77019/home/167839506,HARMLS,32338940,N,Y,29.7566417,-95.3885973
PAST SALE,May-11-2020,Single Family Residential,422 W Pierce St,Houston,TX,77019,689900,4,3.5,West Pierce Sreet Manors,2976,2500,2020,386,232,,Sold,,,http://www.redfin.com/TX/Houston/422-W-Pierce-St-77019/home/168618930,HARMLS,71678766,N,Y,29.7543427,-95.3873161
PAST SALE,May-15-2020,Single Family Residential,1006 Robin St,Houston,TX,77019,515000,3,3.5,Buckner Villas,2413,1613,2015,382,213,,Sold,,,http://www.redfin.com/TX/Houston/1006-Robin-St-77019/home/105426352,HARMLS,1015860,N,Y,29.7564864,-95.3781423
PAST SALE,July-21-2020,Single Family Residential,1406 Ruthven St,Houston,TX,77019,409000,3,3.5,Ruthven Lofts,2458,1990,2016,315,166,,Sold,,,http://www.redfin.com/TX/Houston/1406-Ruthven-St-77019/home/112826985,HARMLS,78345310,N,Y,29.7553237,-95.3817054
PAST SALE,March-8-2019,Single Family Residential,404 W Pierce St,Houston,TX,77019,849900,4,3.5,W Pierce Grove,3222,2500,2018,816,264,,Sold,,,http://www.redfin.com/TX/Houston/404-W-Pierce-St-77019/home/145790254,HARMLS,59783553,N,Y,29.7543547,-95.3867242
PAST SALE,February-28-2020,Single Family Residential,1014 Andrews St,Houston,TX,77019,289990,3,2.5,Fourth Ward Place,1504,2612,2004,459,193,,Sold,,,http://www.redfin.com/TX/Houston/1014-Andrews-St-77019/home/29278648,HARMLS,56373692,N,Y,29.7558959,-95.3783637
PAST SALE,September-21-2020,Single Family Residential,1301 Victor St,Houston,TX,77019,299000,3,2.5,Fourth Ward Place Sec 2,1485,2325,2004,253,201,,Sold,,,http://www.redfin.com/TX/Houston/1301-Victor-St-77019/home/29289980,HARMLS,93665791,N,Y,29.7537523,-95.3805452
PAST SALE,April-8-2019,Single Family Residential,1112 Bailey St,Houston,TX,77019,279000,3,2.0,Antioch Courts/downtown Sec 03,1404,1609,2005,785,199,,Sold,,,http://www.redfin.com/TX/Houston/1112-Bailey-St-77019/home/29304838,HARMLS,93727628,N,Y,29.7567355,-95.3824017
PAST SALE,December-6-2019,Single Family Residential,301 W Saulnier St,Houston,TX,77019,695000,3,3.5,Techsun Villa,3473,1723,2011,543,200,125,Sold,,,http://www.redfin.com/TX/Houston/301-W-Saulnier-St-77019/home/29521083,HARMLS,5579353,N,Y,29.7567211,-95.3861284
PAST SALE,July-19-2019,Multi-Family (2-4 Unit),302 W Saulnier St,Houston,TX,77019,649500,0,,Alden Place,3360,4950,1930,683,193,,Sold,,,http://www.redfin.com/TX/Houston/302-W-Saulnier-St-77019/unit-4/home/29846137,HARMLS,42866961,N,Y,29.7571089,-95.38598
PAST SALE,December-20-2018,Single Family Residential,1912 W Mckinney St,Houston,TX,77019,874000,4,4.5,Temple Terrace,3328,5000,1935,894,263,,Sold,,,http://www.redfin.com/TX/Houston/1912-W-McKinney-St-77019/home/29875407,HARMLS,6903502,N,Y,29.7591853,-95.3864912
PAST SALE,June-30-2020,Single Family Residential,1311 Andrews St,Houston,TX,77019,300000,3,1.5,Miracle Hope Sec 01,1561,2396,2001,336,192,,Sold,,,http://www.redfin.com/TX/Houston/1311-Andrews-St-77019/home/30724147,HARMLS,7875638,N,Y,29.755621,-95.3809705
PAST SALE,October-30-2019,Single Family Residential,1708 Wilson St,Houston,TX,77019,399990,3,3.0,Sutton-gillette Twnhms Sec,2258,2670,2001,580,177,109,Sold,,,http://www.redfin.com/TX/Houston/1708-Wilson-St-77019/home/29174641,HARMLS,55175196,N,Y,29.7530645,-95.381451
PAST SALE,July-20-2020,Townhouse,1716 Wilson St,Houston,TX,77019,357500,2,2.5,Sutton Gillette T/h Sec 17,2016,1402,2001,316,177,109,Sold,,,http://www.redfin.com/TX/Houston/1716-Wilson-St-77019/home/29174654,HARMLS,74534251,N,Y,29.7529066,-95.381451
PAST SALE,July-21-2016,Townhouse,1944 Vermont St,Houston,TX,77019,514800,3,3.5,Hyde Park Main Add Corr Pla,2492,2272,1994,1776,207,,Sold,,,http://www.redfin.com/TX/Houston/1944-Vermont-St-77019/home/29815749,HARMLS,99216494,N,Y,29.749319,-95.4050608
PAST SALE,October-24-2016,Condo/Co-op,2111 Welch St Unit A110,Houston,TX,77019,195000,1,1.0,Renaissance At River Oaks,995,,1992,1681,196,391,Sold,,,http://www.redfin.com/TX/Houston/2111-Welch-St-77019/unit-A110/home/29159976,HARMLS,15053195,N,Y,29.7473031,-95.4119135
PAST SALE,July-26-2017,Condo/Co-op,3231 Allen Pkwy #2201,Houston,TX,77019,219900,2,1.0,Reata/river Oaks,835,,1993,1406,263,350,Sold,,,http://www.redfin.com/TX/Houston/3231-Allen-Pkwy-77019/unit-2201/home/29306567,HARMLS,78688091,N,Y,29.7601522,-95.3998777
PAST SALE,,Condo/Co-op,3333 Allen Pkw #2504,Houston,TX,77019,,2,2.5,,2049,,2003,,,,Sold,,,http://www.redfin.com/TX/Houston/3333-Allen-Pkwy-77019/unit-2504/home/29388150,HARMLS,,N,Y,29.7600656,-95.4008486
PAST SALE,,Townhouse,3318 W Dallas St,Houston,TX,77019,,3,2.5,,2242,1500,1998,,,,Sold,,,http://www.redfin.com/TX/Houston/3318-W-Dallas-St-77019/home/30684451,HARMLS,,N,Y,29.757347,-95.401107
PAST SALE,July-14-2016,Condo/Co-op,3333 Allen Pkwy #610,Houston,TX,77019,635000,2,2.0,River Oaks,1721,,2003,1783,369,808,Sold,,,http://www.redfin.com/TX/Houston/3333-Allen-Pkwy-77019/unit-610/home/29388230,HARMLS,37166548,N,Y,29.7600656,-95.4008486
PAST SALE,November-9-2016,Condo/Co-op,3333 Allen Pkwy #602,Houston,TX,77019,550000,2,2.0,Royalton at River Oaks,1721,,2003,1665,320,750,Sold,,,http://www.redfin.com/TX/Houston/3333-Allen-Pkwy-77019/unit-602/home/29388222,HARMLS,11993949,N,Y,29.7600656,-95.4008486
PAST SALE,September-1-2020,Single Family Residential,3649 Chevy Chase Dr,Houston,TX,77019,6995000,6,6.5,River Oaks,10757,40167,1940,273,650,,Sold,,,http://www.redfin.com/TX/Houston/3649-Chevy-Chase-Dr-77019/home/29881908,HARMLS,97644123,N,Y,29.7488931,-95.4353414
PAST SALE,March-11-2019,Single Family Residential,3642 Inverness Dr,Houston,TX,77019,4450000,5,6.0,River Oaks Sec 09,8809,21600,1950,813,505,192,Sold,,,http://www.redfin.com/TX/Houston/3642-Inverness-Dr-77019/home/29882067,HARMLS,26169134,N,Y,29.752967,-95.4366307
PAST SALE,January-29-2019,Townhouse,1210 Buckner,Houston,TX,77019,469900,3,3.5,Buckner Villas,2251,1550,2018,854,209,,Sold,,,http://www.redfin.com/TX/Houston/1210-Buckner-St-77019/home/110188089,HARMLS,46891645,N,Y,29.7561574,-95.3779321
PAST SALE,October-29-2019,Single Family Residential,1008 Cleveland St,Houston,TX,77019,568000,3,4.0,Midtown,2400,1865,2016,581,237,33,Sold,,,http://www.redfin.com/TX/Houston/1008-Cleveland-St-77019/home/112793921,HARMLS,74121861,N,Y,29.7545984,-95.3781141
PAST SALE,July-26-2019,Condo/Co-op,1406 Columbus St #304,Houston,TX,77019,224900,1,1.0,Columbus Flats Condo,827,14037,2006,676,272,228,Sold,,,http://www.redfin.com/TX/Houston/1406-Columbus-St-77019/unit-304/home/29615520,HARMLS,53549669,N,Y,29.7546458,-95.3915791
PAST SALE,December-19-2019,Townhouse,1224 Stanford St,Houston,TX,77019,349900,2,2.5,Bakerdale Amd,1938,1677,2000,530,181,,Sold,,,http://www.redfin.com/TX/Houston/1224-Stanford-St-77019/home/30696931,HARMLS,52006013,N,Y,29.7556948,-95.3891227
PAST SALE,July-31-2019,Townhouse,1226 Crocker St,Houston,TX,77019,384999,2,2.0,Crocker Street Twnhms,2022,2072,2000,671,190,35,Sold,,,http://www.redfin.com/TX/Houston/1226-Crocker-St-77019/home/30702850,HARMLS,52747585,N,Y,29.7556733,-95.3898808
PAST SALE,October-1-2020,Townhouse,1819 Bailey St,Houston,TX,77019,349000,3,2.5,Sutton-gillette T/h Sec 6,2436,1418,2000,243,143,109,Sold,,,http://www.redfin.com/TX/Houston/1819-Bailey-St-77019/home/30723663,HARMLS,54231265,N,Y,29.7523171,-95.3820848
PAST SALE,April-30-2018,Single Family Residential,1217 Ruthven St,Houston,TX,77019,249999,3,2.5,Fourth Ward Estates Sec 01,1458,2482,2001,1128,171,,Sold,,,http://www.redfin.com/TX/Houston/1217-Ruthven-St-77019/home/30723266,HARMLS,85186292,N,Y,29.7549889,-95.3802977
PAST SALE,July-16-2020,Single Family Residential,1205 Ruthven St,Houston,TX,77019,320000,3,2.5,Fourth Ward Estates Sec 01,1428,2488,2001,320,224,,Sold,,,http://www.redfin.com/TX/Houston/1205-Ruthven-St-77019/home/30723275,HARMLS,65707028,N,Y,29.7549978,-95.379831
PAST SALE,August-15-2018,Townhouse,1811 Wilson St,Houston,TX,77019,349900,3,3.0,Sutton-gillette T/h Sec 08,2038,1432,2001,1021,172,70,Sold,,,http://www.redfin.com/TX/Houston/1811-Wilson-St-77019/home/29159924,HARMLS,82632709,N,Y,29.75224,-95.381118
PAST SALE,November-12-2019,Condo/Co-op,3333 Allen Pkwy #306,Houston,TX,77019,295000,1,1.0,The Royalton,1025,,2003,567,288,587,Sold,,,http://www.redfin.com/TX/Houston/3333-Allen-Pkwy-77019/unit-306/home/29388186,HARMLS,25832087,N,Y,29.7600656,-95.4008486
PAST SALE,September-16-2016,Single Family Residential,1612 Robin St,Houston,TX,77019,310000,3,2.5,Miracle of Hope-fourth Ward,1610,2502,2003,1719,193,,Sold,,,http://www.redfin.com/TX/Houston/1612-Robin-St-77019/home/29222136,HARMLS,16286428,N,Y,29.7565459,-95.3835971
PAST SALE,July-23-2019,Condo/Co-op,3333 Allen Pkwy #1703,Houston,TX,77019,330000,1,1.0,Royalton/river Oaks,1328,,2003,679,248,757,Sold,,,http://www.redfin.com/TX/Houston/3333-Allen-Pkwy-77019/unit-1703/home/29388070,HARMLS,53638753,N,Y,29.7600656,-95.4008486
PAST SALE,July-11-2019,Single Family Residential,2153 Looscan Ln,Houston,TX,77019,1785000,3,2.5,River Oaks,3045,8750,1935,691,586,164,Sold,,,http://www.redfin.com/TX/Houston/2153-Looscan-Ln-77019/home/29881660,HARMLS,40417089,N,Y,29.7556252,-95.4107884
PAST SALE,October-24-2019,Townhouse,712 Tirrell St,Houston,TX,77019,475000,3,3.5,Abst 1 J Austin,2432,2149,1996,586,195,267,Sold,,,http://www.redfin.com/TX/Houston/712-Tirrell-St-77019/home/29774916,HARMLS,11450557,N,Y,29.75865,-95.404443
PAST SALE,March-20-2019,Condo/Co-op,3333 Allen Pkwy #1406,Houston,TX,77019,1199999,2,2.5,Royalton at River Oaks Condo,2278,,2003,804,527,1070,Sold,,,http://www.redfin.com/TX/Houston/3333-Allen-Pkwy-77019/unit-1406/home/29388060,HARMLS,97961601,N,Y,29.7600656,-95.4008486
PAST SALE,August-25-2017,Townhouse,1416 Crocker,Houston,TX,77019,335000,2,2.5,Bakerdale,1729,1619,1998,1376,194,,Sold,,,http://www.redfin.com/TX/Houston/1416-Crocker-St-77019/home/30684047,HARMLS,60864743,N,Y,29.754261,-95.389975
PAST SALE,October-27-2017,Townhouse,1217 Crosby St,Houston,TX,77019,309990,2,2.0,Crosby Place Sec 02 Amd Plac,1915,1518,2004,1313,162,,Sold,,,http://www.redfin.com/TX/Houston/1217-Crosby-St-77019/home/29294984,HARMLS,60056947,N,Y,29.7560931,-95.3759113
PAST SALE,March-29-2019,Townhouse,1013 Gross St,Houston,TX,77019,475000,3,3.5,Riverwood on Dallas,2672,1508,2004,795,178,,Sold,,,http://www.redfin.com/TX/Houston/1013-Gross-St-77019/home/29292140,HARMLS,61010007,N,Y,29.756938,-95.4062472
PAST SALE,May-15-2019,Single Family Residential,1109 Rosine St,Houston,TX,77019,865000,3,3.5,Brooks Ville,3488,3250,2018,748,248,,Sold,,,http://www.redfin.com/TX/Houston/1109-Rosine-St-77019/home/144619151,HARMLS,14553639,N,Y,29.756294,-95.398737
PAST SALE,September-5-2019,Townhouse,1809 W Clay St Unit B,Houston,TX,77019,475000,3,3.5,Hyde Park Court,2962,2500,1999,635,160,,Sold,,,http://www.redfin.com/TX/Houston/1809-W-Clay-St-77019/unit-B/home/30696976,HARMLS,79152731,N,Y,29.755026,-95.401962
PAST SALE,July-30-2019,Townhouse,1201 Mcduffie St #151,Houston,TX,77019,339000,2,2.5,River Oaks Place,1600,288214,1979,672,212,505,Sold,,,http://www.redfin.com/TX/Houston/1201-McDuffie-St-77019/unit-151/home/29503145,HARMLS,85134317,N,Y,29.7547866,-95.4075768
PAST SALE,March-11-2020,Condo/Co-op,1005 S Shepherd Dr #608,Houston,TX,77019,749000,2,2.0,Renoir Condo,2546,,2000,447,294,710,Sold,,,http://www.redfin.com/TX/Houston/1005-S-Shepherd-Dr-77019/unit-608/home/29155569,HARMLS,81134999,N,Y,29.7566914,-95.4079923
PAST SALE,May-31-2019,Townhouse,2901 W Dallas St,Houston,TX,77019,399000,3,2.5,La Rue Street T/h,2232,2358,2002,732,179,158,Sold,,,http://www.redfin.com/TX/Houston/2901-W-Dallas-St-77019/home/29202133,HARMLS,37472266,N,Y,29.7571983,-95.3957037
PAST SALE,June-24-2016,Townhouse,732 Tirrell St,Houston,TX,77019,425000,3,2.5,Parkway Court TH,2580,2140,1996,1803,165,238,Sold,,,http://www.redfin.com/TX/Houston/732-Tirrell-St-77019/home/29774938,HARMLS,24731574,N,Y,29.758063,-95.404434
PAST SALE,,Condo/Co-op,1005 S Shepherd Drive # 601,Houston,TX,77019,,3,2.0,,3468,,2000,,,,Sold,,,http://www.redfin.com/TX/Houston/1005-S-Shepherd-Dr-77019/unit-601/home/29155563,HARMLS,,N,Y,29.7566914,-95.4079923
PAST SALE,February-10-2017,Condo/Co-op,2111 Welch St Unit A208,Houston,TX,77019,289000,2,2.0,Renaissance At River Oaks,1390,,1992,1572,208,535,Sold,,,http://www.redfin.com/TX/Houston/2111-Welch-St-77019/unit-A208/home/29159747,HARMLS,81639434,N,Y,29.7473031,-95.4119135
PAST SALE,September-21-2016,Single Family Residential,3240 Del Monte Dr,Houston,TX,77019,4200000,3,4.5,River Oaks Country Club Esta,5344,25200,1927,1714,786,195,Sold,,,http://www.redfin.com/TX/Houston/3240-Del-Monte-Dr-77019/home/29879373,HARMLS,61893043,N,Y,29.7504581,-95.4246595
PAST SALE,October-8-2020,Condo/Co-op,3331 D'amico St #1003,Houston,TX,77019,1595000,2,2.5,Riva AT The Park Condominium,2715,,2018,236,587,1500,Sold,,,http://www.redfin.com/TX/Houston/3331-D-Amico-St-77019/unit-1003/home/167842665,HARMLS,1092810,N,Y,29.7591318,-95.4015893
PAST SALE,June-12-2020,Townhouse,1204 W Dallas St,Houston,TX,77019,465000,3,3.5,Vista Modern/west Dallas,2349,1850,2016,354,198,125,Sold,,,http://www.redfin.com/TX/Houston/1204-W-Dallas-St-77019/home/83130587,HARMLS,63641635,N,Y,29.7581175,-95.3795477
PAST SALE,February-28-2019,Townhouse,17 Robita St,Houston,TX,77019,599900,3,3.5,Robita Commons,3158,,2018,824,190,234,Sold,,,http://www.redfin.com/TX/Houston/17-Robita-St-77019/home/112817535,HARMLS,66640175,N,Y,29.7582037,-95.3840564
PAST SALE,June-19-2020,Single Family Residential,5 Robita St,Houston,TX,77019,634000,3,3.5,Robita Commons Amd,3315,1757,2015,347,191,239,Sold,,,http://www.redfin.com/TX/Houston/5-Robita-St-77019/home/112817696,HARMLS,67097617,N,Y,29.7584565,-95.3842472
PAST SALE,June-13-2019,Condo/Co-op,3333 Allen Pkwy #2208,Houston,TX,77019,1299000,3,3.5,Royalton at River Oaks,3119,,2003,719,416,2049,Sold,,,http://www.redfin.com/TX/Houston/3333-Allen-Pkwy-77019/unit-2208/home/29364914,HARMLS,9037120,N,Y,29.7600656,-95.4008486
PAST SALE,August-10-2020,Single Family Residential,608 Stanford St Unit B,Houston,TX,77019,985000,3,3.0,Stanford Villas/buffalo,3199,3428,2006,295,308,,Sold,,,http://www.redfin.com/TX/Houston/608-Stanford-St-77019/unit-B/home/29368588,HARMLS,79259485,N,Y,29.759914,-95.388536
PAST SALE,June-17-2019,Townhouse,1716 W Dallas St #9,Houston,TX,77019,349900,2,2.0,West Dallas Ave Twnhms,2034,2387,2005,715,172,75,Sold,,,http://www.redfin.com/TX/Houston/1716-W-Dallas-St-77019/unit-9/home/29373374,HARMLS,68929959,N,Y,29.7579488,-95.3847327
PAST SALE,October-31-2018,Condo/Co-op,3333 Allen Pkwy #1508,Houston,TX,77019,358500,1,1.5,The Royalton,1273,,2003,944,282,598,Sold,,,http://www.redfin.com/TX/Houston/3333-Allen-Pkwy-77019/unit-1508/home/29388079,HARMLS,94490633,N,Y,29.7600656,-95.4008486
PAST SALE,July-15-2020,Condo/Co-op,3333 Allen Pkwy #504,Houston,TX,77019,484900,2,2.5,Royalton at River Oaks,1860,,2003,321,261,1061,Sold,,,http://www.redfin.com/TX/Houston/3333-Allen-Pkwy-77019/unit-504/home/29388214,HARMLS,29215034,N,Y,29.7600656,-95.4008486
PAST SALE,July-10-2020,Condo/Co-op,3333 Allen Pkwy #1207,Houston,TX,77019,598000,2,2.5,Royalton at River Oaks Condo,1544,,2003,326,387,997,Sold,,,http://www.redfin.com/TX/Houston/3333-Allen-Pkwy-77019/unit-1207/home/29388281,HARMLS,81963728,N,Y,29.7600656,-95.4008486
PAST SALE,August-8-2019,Townhouse,915 Nash St,Houston,TX,77019,399500,3,3.5,City View Courtyard,2494,1400,2008,663,160,,Sold,,,http://www.redfin.com/TX/Houston/915-Nash-St-77019/home/29597932,HARMLS,59277160,N,Y,29.7581196,-95.379217
PAST SALE,August-5-2019,Townhouse,1310 W Dallas St,Houston,TX,77019,399900,3,3.5,Hardcastle Twnhms,2650,1845,2007,666,151,161,Sold,,,http://www.redfin.com/TX/Houston/1310-W-Dallas-St-77019/home/29606373,HARMLS,45035559,N,Y,29.7581135,-95.3807442
PAST SALE,June-22-2020,Townhouse,1318 W Dallas St,Houston,TX,77019,450000,2,3.0,Hardcastle Twnhms,2650,1845,2007,344,170,161,Sold,,,http://www.redfin.com/TX/Houston/1318-W-Dallas-St-77019/home/29606388,HARMLS,48226836,N,Y,29.7581049,-95.3808887
PAST SALE,October-16-2018,Multi-Family (2-4 Unit),702 Stanford St,Houston,TX,77019,469000,0,,Temple Terrace,2616,4100,1936,959,179,,Sold,,,http://www.redfin.com/TX/Houston/702-Stanford-St-77019/home/29875356,HARMLS,9426227,N,Y,29.7591917,-95.3893144
PAST SALE,April-16-2020,Condo/Co-op,3333 Allen Pkwy #1502,Houston,TX,77019,699999,2,2.5,The Royalton,1721,,2005,411,407,980,Sold,,,http://www.redfin.com/TX/Houston/3333-Allen-Pkwy-77019/unit-1502/home/29388058,HARMLS,96290896,N,Y,29.7600656,-95.4008486
PAST SALE,June-24-2016,Townhouse,1600 Driscoll St,Houston,TX,77019,599900,3,3.5,Hyde Park Main,2519,2025,2006,1803,238,,Sold,,,http://www.redfin.com/TX/Houston/1600-Driscoll-St-77019/home/29382082,HARMLS,73072466,N,Y,29.75147,-95.406559
PAST SALE,,Single Family Residential,1506 Mcduffie St,Houston,TX,77019,,3,2.5,,2707,6550,1935,,,,Sold,,,http://www.redfin.com/TX/Houston/1506-McDuffie-St-77019/home/29897654,HARMLS,,N,Y,29.7519886,-95.40817
PAST SALE,,Condo/Co-op,1601 S Shepherd #61,Houston,TX,77019,,1,1.0,,850,,1978,,,,Sold,,,http://www.redfin.com/TX/Houston/1601-S-Shepherd-Dr-77019/unit-61/home/30447221,HARMLS,,N,Y,29.751451,-95.409435
PAST SALE,,Single Family Residential,1915 Indiana St,Houston,TX,77019,,3,3.5,,3065,2590,2007,,,,Sold,,,http://www.redfin.com/TX/Houston/1915-Indiana-St-77019/home/29565091,HARMLS,,N,Y,29.7468583,-95.4034654
PAST SALE,,Condo/Co-op,3333 Allen Pkwy #1802,Houston,TX,77019,,1,1.5,,1164,,2003,,,,Sold,,,http://www.redfin.com/TX/Houston/3333-Allen-Pkwy-77019/unit-1802/home/29388090,HARMLS,,N,Y,29.7600656,-95.4008486
PAST SALE,June-28-2016,Condo/Co-op,3333 Allen Pkwy #902,Houston,TX,77019,659999,2,2.5,The Royalton,1721,,2005,1799,383,808,Sold,,,http://www.redfin.com/TX/Houston/3333-Allen-Pkwy-77019/unit-902/home/29388245,HARMLS,64741840,N,Y,29.7600656,-95.4008486
PAST SALE,,Single Family Residential,1507 Morse,Houston,TX,77019,,3,4.5,,4475,5250,2015,,,,Sold,,,http://www.redfin.com/TX/Houston/1507-Morse-St-77019/home/29884722,HARMLS,,N,Y,29.7518782,-95.4053472
PAST SALE,June-24-2016,Townhouse,1305 W Bell St,Houston,TX,77019,800000,3,4.5,Rosemont,3406,2459,2011,1803,235,,Sold,,,http://www.redfin.com/TX/Houston/1305-W-Bell-St-77019/home/45415311,HARMLS,94082651,N,Y,29.7545198,-95.3963199
PAST SALE,October-20-2016,Condo/Co-op,2111 Welch Unit A115,Houston,TX,77019,289000,2,2.0,The Renaissance AT River Oaks,1390,,1992,1685,208,550,Sold,,,http://www.redfin.com/TX/Houston/2111-Welch-St-77019/unit-A115/home/29159983,HARMLS,15450483,N,Y,29.7473031,-95.4119135
PAST SALE,November-29-2016,Single Family Residential,2125 Bellmeade,Houston,TX,77019,2200000,4,3.5,River Oaks Country Club Estate,3552,13500,1935,1645,619,161,Sold,,,http://www.redfin.com/TX/Houston/2125-Bellmeade-St-77019/home/29880280,HARMLS,71718595,N,Y,29.7462587,-95.4225725
PAST SALE,March-10-2017,Multi-Family (2-4 Unit),2410 Brun St,Houston,TX,77019,590000,0,,Morgan,2178,6255,1945,1544,271,,Sold,,,http://www.redfin.com/TX/Houston/2410-Brun-St-77019/home/167466647,HARMLS,21965390,N,Y,29.7442366,-95.4090523
PAST SALE,October-14-2016,Condo/Co-op,3333 Allen Pkwy #1307,Houston,TX,77019,625000,2,2.5,River Oaks,1749,,2003,1691,357,752,Sold,,,http://www.redfin.com/TX/Houston/3333-Allen-Pkwy-77019/unit-1307/home/29388287,HARMLS,52529244,N,Y,29.7600656,-95.4008486
PAST SALE,,Multi-Family (2-4 Unit),2417 Huldy St,Houston,TX,77019,,4,2.0,,1920,5600,1945,,,,Sold,,,http://www.redfin.com/TX/Houston/2417-Huldy-St-77019/home/29851274,HARMLS,,N,Y,29.744091,-95.409434
PAST SALE,November-15-2016,Condo/Co-op,1914 W Gray St #404,Houston,TX,77019,498000,2,2.0,Metropolis Condo Amd,2198,,1997,1659,227,625,Sold,,,http://www.redfin.com/TX/Houston/1914-W-Gray-St-77019/unit-404/home/30676434,HARMLS,23642170,N,Y,29.753592,-95.403149
PAST SALE,,Condo/Co-op,3231 Allen Pkwy #4201,Houston,TX,77019,,1,1.0,,537,,1993,,,,Sold,,,http://www.redfin.com/TX/Houston/3231-Allen-Pkwy-77019/unit-4201/home/29306620,HARMLS,,N,Y,29.7601522,-95.3998777
PAST SALE,January-26-2018,Single Family Residential,309 W Pierce St,Houston,TX,77019,783000,3,3.5,West Pierce Commons,3466,2500,2017,1222,226,,Sold,,,http://www.redfin.com/TX/Houston/309-W-Pierce-St-77019/home/112828888,HARMLS,11021724,N,Y,29.7539418,-95.3862253
PAST SALE,October-16-2017,Single Family Residential,509 W Polk St,Houston,TX,77019,875000,3,3.5,Montrose,3570,2500,2017,1324,245,,Sold,,,http://www.redfin.com/TX/Houston/509-W-Polk-St-77019/home/143020376,HARMLS,66125744,N,Y,29.7559835,-95.3876858
PAST SALE,October-31-2017,Single Family Residential,2920 San Felipe St,Houston,TX,77019,1645000,3,3.5,River Oaks Sec 05,2538,15250,1928,1309,648,,Sold,,,http://www.redfin.com/TX/Houston/2920-San-Felipe-St-77019/home/29880605,HARMLS,71318683,N,Y,29.7484923,-95.4197899
PAST SALE,May-1-2018,Townhouse,605 W Polk St Unit B,Houston,TX,77019,485000,3,2.5,Rainbows End On W Polk Ave,2494,2500,2000,1127,194,,Sold,,,http://www.redfin.com/TX/Houston/605-W-Polk-St-77019/unit-B/home/30725883,HARMLS,21894575,N,Y,29.755958,-95.388315
PAST SALE,May-15-2018,Townhouse,2207 Dunraven Ln,Houston,TX,77019,860000,3,3.5,Glendower Court,3159,2875,1998,1113,272,63,Sold,,,http://www.redfin.com/TX/Houston/2207-Dunraven-Ln-77019/home/29839413,HARMLS,77474343,N,Y,29.7437594,-95.4139504
PAST SALE,August-31-2018,Condo/Co-op,3333 Allen Pkwy #1903,Houston,TX,77019,365000,1,1.0,Royalton/river Oaks,1328,,2003,1005,275,624,Sold,,,http://www.redfin.com/TX/Houston/3333-Allen-Pkwy-77019/unit-1903/home/29388112,HARMLS,93087085,N,Y,29.7600656,-95.4008486
PAST SALE,August-6-2018,Single Family Residential,1415 Hazel,Houston,TX,77019,1095000,4,4.5,West Pierce Homes,3653,2146,2018,1030,300,,Sold,,,http://www.redfin.com/TX/Houston/1415-Hazel-St-77019/home/144615716,HARMLS,96263222,N,Y,29.754316,-95.3958525
PAST SALE,March-23-2018,Condo/Co-op,1201 Mcduffie St #122,Houston,TX,77019,259000,2,2.5,River Oaks Place,1444,,1979,1166,179,465,Sold,,,http://www.redfin.com/TX/Houston/1201-McDuffie-St-77019/unit-122/home/30463167,HARMLS,71275224,N,Y,29.7547866,-95.4075768
PAST SALE,March-23-2018,Townhouse,1966 W Mckinney St Unit C,Houston,TX,77019,575000,3,3.5,West Mckinney Twnhms,2518,2455,2006,1166,228,,Sold,,,http://www.redfin.com/TX/Houston/1966-W-McKinney-St-77019/unit-C/home/29415722,HARMLS,79234966,N,Y,29.7591691,-95.388341
PAST SALE,October-26-2018,Single Family Residential,3851 Chevy Chase Dr,Houston,TX,77019,5295000,4,5.0,River Oaks,6396,11305,2017,949,828,163,Sold,,,http://www.redfin.com/TX/Houston/3851-Chevy-Chase-Dr-77019/home/29882269,HARMLS,27268947,N,Y,29.7481463,-95.4410022
PAST SALE,August-9-2018,Townhouse,1012 Crocker St,Houston,TX,77019,549900,3,3.5,Crocker,4010,2500,2003,1027,137,,Sold,,,http://www.redfin.com/TX/Houston/1012-Crocker-St-77019/home/29143365,HARMLS,17509529,N,Y,29.75715141563584,-95.3898371398464
PAST SALE,July-20-2018,Single Family Residential,3407 Inwood Dr,Houston,TX,77019,7350000,4,4.5,River Oaks Country Club Estate,5440,42756,1937,1047,1351,242,Sold,,,http://www.redfin.com/TX/Houston/3407-Inwood-Dr-77019/home/29880426,HARMLS,22723924,N,Y,29.7512174,-95.4309006
PAST SALE,February-8-2018,Single Family Residential,709 Andrews St,Houston,TX,77019,349900,2,2.5,Joseph -majumder 02,1822,1617,2007,1209,192,,Sold,,,http://www.redfin.com/TX/Houston/709-Andrews-St-77019/home/29520668,HARMLS,64039101,N,Y,29.7557314,-95.3757468
PAST SALE,April-3-2018,Townhouse,913 Saulnier,Houston,TX,77019,299900,2,2.0,Robin Street Townhomes,1822,1659,2001,1155,165,,Sold,,,http://www.redfin.com/TX/Houston/913-Saulnier-St-77019/home/29163112,HARMLS,38444138,N,Y,29.7569748,-95.3774014
PAST SALE,November-27-2017,Townhouse,2031 Vermont St,Houston,TX,77019,709000,3,3.5,River Oaks,2649,2008,2017,1282,268,,Sold,,,http://www.redfin.com/TX/Houston/2031-Vermont-St-77019/home/144619532,HARMLS,61555974,N,Y,29.7490002,-95.4095262
PAST SALE,April-20-2018,Townhouse,1004 Van Buren St,Houston,TX,77019,367500,2,2.5,Van Buren Ave T/h,1884,1907,2001,1138,195,111,Sold,,,http://www.redfin.com/TX/Houston/1004-Van-Buren-St-77019/home/29165066,HARMLS,72446383,N,Y,29.7570804,-95.3941699
PAST SALE,December-21-2017,Single Family Residential,2115 Hazard St,Houston,TX,77019,929000,3,3.0,Summit Place,3497,5000,2003,1258,266,,Sold,,,http://www.redfin.com/TX/Houston/2115-Hazard-St-77019/home/29816408,HARMLS,52015042,N,Y,29.7464025,-95.4069018
PAST SALE,January-31-2017,Townhouse,1106 Taft,Houston,TX,77019,489000,3,3.5,Techsun Villa,2446,1744,2007,1582,200,167,Sold,,,http://www.redfin.com/TX/Houston/1106-Taft-77019/home/171530436,HARMLS,46827776,N,Y,29.7608008,-95.3857997
PAST SALE,December-14-2017,Condo/Co-op,1005 S Shepherd Dr #404,Houston,TX,77019,619000,2,2.0,Renoir Condo,2318,,2000,1265,267,710,Sold,,,http://www.redfin.com/TX/Houston/1005-S-Shepherd-Dr-77019/unit-404/home/29132819,HARMLS,50880042,N,Y,29.7566914,-95.4079923
PAST SALE,March-28-2018,Condo/Co-op,1005 S Shepherd Dr #814,Houston,TX,77019,899900,2,2.0,Renoir Condo,3528,,2000,1161,255,710,Sold,,,http://www.redfin.com/TX/Houston/1005-S-Shepherd-Dr-77019/unit-814/home/29155559,HARMLS,20064056,N,Y,29.7566914,-95.4079923
PAST SALE,November-30-2017,Single Family Residential,1120 Columbus St Unit E,Houston,TX,77019,579900,4,4.5,Columbus,3000,2050,2015,1279,193,55,Sold,,,http://www.redfin.com/TX/Houston/1120-Columbus-St-77019/unit-E/home/112817432,HARMLS,95225862,N,Y,29.75619,-95.391593
PAST SALE,September-5-2017,Single Family Residential,1208 Andrews St,Houston,TX,77019,299900,3,2.5,Fourth Ward,1644,2558,2001,1365,182,,Sold,,,http://www.redfin.com/TX/Houston/1208-Andrews-St-77019/home/29162087,HARMLS,16849004,N,Y,29.7558621,-95.3798714
PAST SALE,March-30-2018,Condo/Co-op,2111 Welch Street St Unit A227,Houston,TX,77019,189000,1,1.0,Renaissance At River Oaks,850,5871,1992,1159,222,347,Sold,,,http://www.redfin.com/TX/Houston/2111-Welch-St-77019/unit-A227/home/29159766,HARMLS,40191378,N,Y,29.7473031,-95.4119135
PAST SALE,April-16-2018,Single Family Residential,1112 Peveto St Unit B,Houston,TX,77019,519000,3,3.5,Tricons Peveto Street Villas,2346,2016,2012,1142,221,,Sold,,,http://www.redfin.com/TX/Houston/1112-Peveto-St-77019/unit-B/home/52560569,HARMLS,80060486,N,Y,29.75631,-95.397403
PAST SALE,September-18-2017,Single Family Residential,1307 Crocker,Houston,TX,77019,624900,4,3.5,Montrose,2878,,2016,1352,217,,Sold,,,http://www.redfin.com/TX/Houston/1307-Crocker-St-77019/home/167830623,HARMLS,72099529,N,Y,29.7552738,-95.3895175
PAST SALE,,Townhouse,1519 Oneil St,Houston,TX,77019,,2,2.5,,1756,2091,2000,,,,Sold,,,http://www.redfin.com/TX/Houston/1519-Oneil-St-77019/home/30715586,HARMLS,,N,Y,29.7525319,-95.3829027
PAST SALE,June-8-2016,Single Family Residential,1315 Crocker,Houston,TX,77019,699990,3,3.5,Montrose,3458,2500,2015,1819,202,,Sold,,,http://www.redfin.com/TX/Houston/1315-Crocker-St-77019/home/66047978,HARMLS,70515049,N,Y,29.7549578,-95.3894841
PAST SALE,November-18-2016,Condo/Co-op,2121 Kirby Dr Unit 13NW,Houston,TX,77019,2750000,2,2.5,Huntingdon,4334,,1983,1656,635,3598,Sold,,,http://www.redfin.com/TX/Houston/2121-Kirby-Dr-77019/unit-13NW/home/30559667,HARMLS,77200549,N,Y,29.7468871,-95.418235
PAST SALE,August-18-2018,Single Family Residential,2309 Morse St,Houston,TX,77019,539900,2,1.0,Plainview Sec 01,1005,4250,1938,1018,537,,Sold,,,http://www.redfin.com/TX/Houston/2309-Morse-St-77019/home/29730607,HARMLS,3369607,N,Y,29.7452514,-95.4052654
PAST SALE,September-21-2018,Townhouse,2027 Welch St,Houston,TX,77019,549000,3,3.5,Hillcrest,2320,1817,1992,984,237,,Sold,,,http://www.redfin.com/TX/Houston/2027-Welch-St-77019/home/29821750,HARMLS,65057714,N,Y,29.7479973,-95.4096021
PAST SALE,July-30-2018,Single Family Residential,2017 Chilton Rd,Houston,TX,77019,1695000,5,3.0,River Oaks Sec 03,3589,9699,1936,1037,472,100,Sold,,,http://www.redfin.com/TX/Houston/2017-Chilton-Rd-77019/home/29881673,HARMLS,57796122,N,Y,29.7567326,-95.4090701
PAST SALE,September-12-2018,Condo/Co-op,1909 Brun St #4,Houston,TX,77019,160000,2,2.0,Middle Court T H Condo Amd,993,12069,1964,993,161,379,Sold,,,http://www.redfin.com/TX/Houston/1909-Brun-St-77019/unit-4/home/30396892,HARMLS,30433488,N,Y,29.7487997,-95.408395
PAST SALE,August-24-2018,Multi-Family (2-4 Unit),1906 Driscoll St,Houston,TX,77019,550000,0,,Hyde Park Main 1909-11 Hazar,2632,4680,1930,1012,209,,Sold,,,http://www.redfin.com/TX/Houston/1906-Driscoll-St-77019/unit-4/home/29816047,HARMLS,90139223,N,Y,29.7488514,-95.4065745
PAST SALE,August-17-2018,Townhouse,1210 Crosby St,Houston,TX,77019,330000,2,2.0,Crosby Street Square T H,2024,1462,2005,1019,163,29,Sold,,,http://www.redfin.com/TX/Houston/1210-Crosby-St-77019/home/29214265,HARMLS,68473656,N,Y,29.756221,-95.3761863
PAST SALE,November-13-2017,Single Family Residential,2510 Inwood,Houston,TX,77019,1800000,4,4.5,River Oaks,4515,11460,1930,1296,399,163,Sold,,,http://www.redfin.com/TX/Houston/2510-Inwood-Dr-77019/home/29880700,HARMLS,54684737,N,Y,29.7527487,-95.4171712
PAST SALE,May-17-2017,Condo/Co-op,1601 S Shepherd Dr #30,Houston,TX,77019,210000,1,1.0,River Oaks Gardens Condo,850,,1978,1476,247,316,Sold,,,http://www.redfin.com/TX/Houston/1601-S-Shepherd-Dr-77019/unit-30/home/30447707,HARMLS,82240428,N,Y,29.751451,-95.409435
PAST SALE,October-31-2017,Townhouse,1815 Wilson St,Houston,TX,77019,343000,2,2.5,Sutton-gillette T/h Sec 08,2020,1432,2001,1309,170,111,Sold,,,http://www.redfin.com/TX/Houston/1815-Wilson-St-77019/home/29134419,HARMLS,7453948,N,Y,29.752184,-95.381117
PAST SALE,February-1-2017,Single Family Residential,1801 Sharp Pl,Houston,TX,77019,1295000,3,2.5,River Oaks Sec 01,2325,7038,1935,1581,557,143,Sold,,,http://www.redfin.com/TX/Houston/1801-Sharp-Pl-77019/home/29881299,HARMLS,95281948,N,Y,29.7505388,-95.4116476
PAST SALE,July-3-2018,Single Family Residential,1100 Cleveland St,Houston,TX,77019,289000,2,2.5,Fourth Ward Place Sec 01,1391,2638,2004,1064,208,,Sold,,,http://www.redfin.com/TX/Houston/1100-Cleveland-St-77019/home/29278670,HARMLS,93788010,N,Y,29.7546832,-95.378793
PAST SALE,December-29-2017,Single Family Residential,1213 Marconi,Houston,TX,77019,649900,4,3.5,Montrose,2878,2675,2017,1250,226,,Sold,,,http://www.redfin.com/TX/Houston/1213-Marconi-St-77019/home/140533797,HARMLS,40675107,N,Y,29.7558753,-95.3928504
PAST SALE,August-13-2018,Single Family Residential,518 W Saulnier St,Houston,TX,77019,500000,2,1.0,Alden Place 8317.02,1165,4850,1932,1023,429,,Sold,,,http://www.redfin.com/TX/Houston/518-W-Saulnier-St-77019/home/170261768,HARMLS,44912315,N,Y,29.7570425,-95.3881679
PAST SALE,September-11-2018,Single Family Residential,908 S Shepherd Dr,Houston,TX,77019,629500,3,2.5,River Oaks,2080,5280,1951,994,303,,Sold,,,http://www.redfin.com/TX/Houston/908-S-Shepherd-Dr-77019/home/29880641,HARMLS,58237380,N,Y,29.7584548,-95.4088655
PAST SALE,June-11-2018,Condo/Co-op,1201 Mcduffie St #179,Houston,TX,77019,350000,2,2.5,River Oaks Place Condo Amd,1600,288214,1979,1086,219,497,Sold,,,http://www.redfin.com/TX/Houston/1201-McDuffie-St-77019/unit-179/home/30463196,HARMLS,63303680,N,Y,29.7547866,-95.4075768
PAST SALE,March-8-2018,Condo/Co-op,3700 W Clay St #226,Houston,TX,77019,225000,2,2.0,River Oaks Manor Condo,1252,,1980,1181,180,345,Sold,,,http://www.redfin.com/TX/Houston/3700-W-Clay-St-77019/unit-226/home/30560000,HARMLS,94653940,N,Y,29.7554697,-95.4068609
PAST SALE,October-7-2016,Townhouse,831 Robin,Houston,TX,77019,325000,2,2.0,Crosby Street Square T/h,2130,1459,2005,1698,153,25,Sold,,,http://www.redfin.com/TX/Houston/831-Robin-St-77019/home/29214255,HARMLS,11981270,N,Y,29.7562152,-95.3766055
PAST SALE,July-20-2018,Townhouse,1805 Elmen St,Houston,TX,77019,449999,2,3.5,Windsor Place,2691,2500,1994,1047,167,,Sold,,,http://www.redfin.com/TX/Houston/1805-Elmen-St-77019/home/29816180,HARMLS,7113279,N,Y,29.7496948,-95.4035881
PAST SALE,December-30-2019,Single Family Residential,3600 Inverness Dr,Houston,TX,77019,5499000,6,7.0,River Oaks,8916,26100,1940,519,617,218,Sold,,,http://www.redfin.com/TX/Houston/3600-Inverness-Dr-77019/home/29882087,HARMLS,10400294,N,Y,29.7532011,-95.4353209
PAST SALE,July-31-2018,Condo/Co-op,3231 Allen Pkwy #2207,Houston,TX,77019,171000,1,1.0,Reata/river Oaks,680,130125,1993,1036,251,280,Sold,,,http://www.redfin.com/TX/Houston/3231-Allen-Pkwy-77019/unit-2207/home/29306577,HARMLS,72649989,N,Y,29.7601522,-95.3998777
