SALE TYPE,SOLD DATE,PROPERTY TYPE,ADDRESS,CITY,STATE OR PROVINCE,ZIP OR POSTAL CODE,PRICE,BEDS,BATHS,LOCATION,SQUARE FEET,LOT SIZE,YEAR BUILT,DAYS ON MARKET,$/SQUARE FEET,HOA/MONTH,STATUS,NEXT OPEN HOUSE START TIME,NEXT OPEN HOUSE END TIME,URL (SEE http://www.redfin.com/buy-a-home/comparative-market-analysis FOR INFO ON PRICING),SOURCE,MLS#,FAVORITE,INTERESTED,LATITUDE,LONGITUDE
PAST SALE,March-30-2020,Vacant Land,11300 Hirsch Rd,Houston,TX,77016,89000,,,Edgeworth Place Sec 01,,21611,,428,,,Sold,,,http://www.redfin.com/TX/Houston/11300-Hirsch-Rd-77016/home/170583076,HARMLS,8728394,N,Y,29.8831723,-95.3090086
PAST SALE,May-22-2020,Vacant Land,7441 Caddo Rd,Houston,TX,77016,26500,,,Scenic Woods,,8143,,375,,,Sold,,,http://www.redfin.com/TX/Houston/7441-Caddo-Rd-77016/home/66058708,HARMLS,75565386,N,Y,29.857611,-95.293329
PAST SALE,August-13-2020,Vacant Land,10906 Hirsch Rd,Houston,TX,77016,1200000,,,J Callyhan,,913018,,292,,,Sold,,,http://www.redfin.com/TX/Houston/10906-Hirsch-Rd-77016/home/144623895,HARMLS,17488460,N,Y,29.8746237,-95.311615
PAST SALE,January-23-2019,Vacant Land,0 Justin St,Houston,TX,77016,35000,,,Mount Houston,,7250,,860,,,Sold,,,http://www.redfin.com/TX/HOUSTON/JUSTIN-ST-77016/home/29724821,HARMLS,66589591,N,Y,29.889849,-95.304398
PAST SALE,December-22-2016,Vacant Land,10907 Maple Leaf St,Houston,TX,77016,35000,,,Woodland Acres,,28785,,1622,,,Sold,,,http://www.redfin.com/TX/Houston/10907-Maple-Leaf-St-77016/home/29997470,HARMLS,20447461,N,Y,29.87392,-95.304985
PAST SALE,March-27-2018,Vacant Land,7743 Bretshire Dr,Houston,TX,77016,12865,,,Scenic Woods,,8520,,1162,,,Sold,,,http://www.redfin.com/TX/Houston/7743-Bretshire-Dr-77016/home/30083586,HARMLS,89990724,N,Y,29.854349,-95.287899
PAST SALE,August-16-2018,Vacant Land,11011 White Thorn St,Houston,TX,77016,39900,,,Armstrong Acres Sec 01,,12000,,1020,,,Sold,,,http://www.redfin.com/TX/Houston/11011-White-Thorn-St-77016/home/30192050,HARMLS,79298751,N,Y,29.875862,-95.306427
PAST SALE,September-2-2020,Vacant Land,10510 Wolbrook St,Houston,TX,77016,40000,,,Fontaine Place Sec 04,,7320,,272,,,Sold,,,http://www.redfin.com/TX/Houston/10510-Wolbrook-St-77016/home/43507521,HARMLS,53357228,N,Y,29.864647,-95.30558
PAST SALE,July-6-2020,Vacant Land,0 Bretshire Dr,Houston,TX,77016,18000,,,Calgary Woods,,8500,,330,,,Sold,,,http://www.redfin.com/TX/Houston/7030-Bretshire-Dr-77016/home/171581681,HARMLS,71001436,N,Y,29.854262,-95.301389
PAST SALE,October-6-2017,Vacant Land,9218 Pembrook St,Houston,TX,77016,16000,,,Barclay Place Sec 2,,8400,,1334,,,Sold,,,http://www.redfin.com/TX/Houston/9218-Pembrook-St-77016/home/29977650,HARMLS,42670463,N,Y,29.845518,-95.297647
PAST SALE,June-23-2020,Vacant Land,0 Sherbourne St,Houston,TX,77016,29500,,,Barclay Place Sec 2,,8400,,343,,,Sold,,,http://www.redfin.com/TX/HOUSTON/SHERBOURNE-ST-77016/home/29977640,HARMLS,44074553,N,Y,29.845748,-95.296801
PAST SALE,June-22-2018,Vacant Land,8315 Hoffman St,Houston,TX,77016,18000,,,Triangle Gardens Sec 03,,7440,,1075,,,Sold,,,http://www.redfin.com/TX/Houston/8315-Hoffman-St-77016/home/34277636,HARMLS,39085365,N,Y,29.836099,-95.312399
PAST SALE,November-9-2018,Vacant Land,0 Woodwick St,Houston,TX,77016,14900,,,Scenic Woods,,7000,,935,,,Sold,,,http://www.redfin.com/TX/HOUSTON/WOODWICK-ST-77016/home/30084034,HARMLS,16592363,N,Y,29.854702,-95.287353
PAST SALE,March-20-2019,Vacant Land,000 E Little York Rd,Houston,TX,77016,400000,,,Joseph Callyhan Abs 200,,188584,,804,,,Sold,,,http://www.redfin.com/TX/HOUSTON/E-LITTLE-YORK-RD-77016/home/29915234,HARMLS,84226909,N,Y,29.869424,-95.272025
PAST SALE,October-7-2019,Vacant Land,7754 Bretshire,Houston,TX,77016,14500,,,Scenic Woods,,4000,,603,,,Sold,,,http://www.redfin.com/TX/Houston/7754-Bretshire-Dr-77016/home/30085515,HARMLS,93521704,N,Y,29.8543303,-95.2872399
PAST SALE,,Single Family Residential,10536 Homestead Rd,Houston,TX,77016,,3,1.0,,1499,7605,1960,,,,Sold,,,http://www.redfin.com/TX/Houston/10536-Homestead-Rd-77016/home/30084567,HARMLS,,N,Y,29.8659102,-95.3002655
PAST SALE,June-27-2017,Single Family Residential,11007 Spottswood Dr,Houston,TX,77016,100000,3,1.0,Northwood Manor,894,5830,1960,1435,112,,Sold,,,http://www.redfin.com/TX/Houston/11007-Spottswood-Dr-77016/home/30265490,HARMLS,46193486,N,Y,29.8760899,-95.2914051
PAST SALE,November-23-2016,Single Family Residential,8906 Compton St,Houston,TX,77016,64900,3,1.5,Barclay Place Sec 01,1387,10725,1966,1651,47,,Sold,,,http://www.redfin.com/TX/Houston/8906-Compton-St-77016/home/29977416,HARMLS,5732842,N,Y,29.8419482,-95.3054518
PAST SALE,,Single Family Residential,10121 Rebel Rd,Houston,TX,77016,,3,1.5,,1105,7503,1964,,,,Sold,,,http://www.redfin.com/TX/Houston/10121-Rebel-Rd-77016/home/30084115,HARMLS,,N,Y,29.8591939,-95.2918338
PAST SALE,,Vacant Land,0 Tully St,Houston,TX,77016,,3,2.0,,1617,7150,2018,,,,Sold,,,http://www.redfin.com/TX/Houston/7633-Tully-St-77016/home/30084318,HARMLS,,N,Y,29.8667608,-95.2898502
PAST SALE,,Single Family Residential,6206 Hartwick Rd,Houston,TX,77016,,3,1.0,,1154,7168,1965,,,,Sold,,,http://www.redfin.com/TX/Houston/6206-Hartwick-Rd-77016/home/30146185,HARMLS,,N,Y,29.8850373,-95.2964272
PAST SALE,August-12-2016,Single Family Residential,10554 Wicklowe St,Houston,TX,77016,75000,3,2.0,Fontaine Place Sec 01,1262,8580,1950,1754,59,,Sold,,,http://www.redfin.com/TX/Houston/10554-Wicklowe-St-77016/home/30033426,HARMLS,46355401,N,Y,29.8665333,-95.309454
PAST SALE,August-9-2017,Single Family Residential,10426 Bucknell Rd,Houston,TX,77016,125000,3,2.0,Fontaine Place,1905,7200,1955,1392,66,,Sold,,,http://www.redfin.com/TX/Houston/10426-Bucknell-Rd-77016/home/30033660,HARMLS,16704823,N,Y,29.8624638,-95.3075345
PAST SALE,June-28-2016,Single Family Residential,7621 Charlesmont St,Houston,TX,77016,98000,3,3.0,Scenic Woods,1576,7200,1965,1799,62,,Sold,,,http://www.redfin.com/TX/Houston/7621-Charlesmont-St-77016/home/30084121,HARMLS,18433347,N,Y,29.8601411,-95.2906906
PAST SALE,September-13-2019,Vacant Land,10318 Barnham St,Houston,TX,77016,39500,,,Fontaine Place 2,,7800,,627,,,Sold,,,http://www.redfin.com/TX/Houston/10318-Barnham-St-77016/home/96100982,HARMLS,43716810,N,Y,29.8609093,-95.3114553
PAST SALE,November-21-2019,Vacant Land,0 Laura Koppe,Houston,TX,77016,18000,,,Laura Koppe Place,,9900,,558,,,Sold,,,http://www.redfin.com/TX/HOUSTON/LAURA-KOPPE-RD-77016/home/112828782,HARMLS,80174035,N,Y,29.839546,-95.323157
PAST SALE,September-28-2018,Vacant Land,8901 Homestead Rd,Houston,TX,77016,49800,,,Barclay Place Sec 01,,19601,,977,,,Sold,,,http://www.redfin.com/TX/Houston/8901-Homestead-Rd-77016/home/113430148,HARMLS,40055300,N,Y,29.841789,-95.302465
PAST SALE,May-28-2018,Vacant Land,5012 Keeland,Houston,TX,77016,16000,,,Forest Lawn,,5095,,1100,,,Sold,,,http://www.redfin.com/TX/Houston/5012-Keeland-St-77016/home/130601043,HARMLS,10074320,N,Y,29.837096,-95.3177098
PAST SALE,November-5-2019,Vacant Land,5015 Jones St,Houston,TX,77016,12000,,,Forest Lawn,,2556,,574,,,Sold,,,http://www.redfin.com/TX/Houston/5015-Jones-St-77016/home/144624026,HARMLS,55188025,N,Y,29.836606,-95.317491
PAST SALE,April-17-2019,Vacant Land,7914 Pointer St,Houston,TX,77016,18000,,,Denmark Place U/r,,4700,,776,,,Sold,,,http://www.redfin.com/TX/Houston/7914-Pointer-St-77016/home/29777810,HARMLS,31724455,N,Y,29.832003,-95.324114
PAST SALE,May-6-2019,Vacant Land,4301 Maldon Ct,Houston,TX,77016,14500,,,Trinity Gardens,,5400,,757,,,Sold,,,http://www.redfin.com/TX/Houston/4301-Maldon-Ct-77016/home/29941169,HARMLS,62977469,N,Y,29.8262256,-95.3265518
PAST SALE,August-29-2019,Vacant Land,7709 Peachtree St,Houston,TX,77016,33000,,,Trinity Gardens Sec 03,,12000,,642,,,Sold,,,http://www.redfin.com/TX/Houston/7709-Peachtree-St-77016/home/29941961,HARMLS,80578060,N,Y,29.830229,-95.315591
PAST SALE,April-27-2018,Vacant Land,5116 Denmark St,Houston,TX,77016,14500,,,Trinity Gardens Sec 03,,13000,,1131,,,Sold,,,http://www.redfin.com/TX/Houston/5116-Denmark-St-77016/home/29942019,HARMLS,49108553,N,Y,29.827158,-95.315776
PAST SALE,June-27-2019,Vacant Land,5902 Laura Koppe Rd,Houston,TX,77016,30000,,,Shadydale,,10950,,705,,,Sold,,,http://www.redfin.com/TX/Houston/5902-Laura-Koppe-Rd-77016/home/29962971,HARMLS,69032111,N,Y,29.84038,-95.3115229
PAST SALE,March-22-2019,Vacant Land,9142 Pembrook St,Houston,TX,77016,19900,,,Barclay Place Sec 02,,8400,,802,,,Sold,,,http://www.redfin.com/TX/Houston/9142-Pembrook-St-77016/home/29977066,HARMLS,66409676,N,Y,29.844417,-95.298792
PAST SALE,August-6-2018,Vacant Land,9134 Pembrook St,Houston,TX,77016,15000,,,Barclay Place Sec 02,,8400,,1030,,,Sold,,,http://www.redfin.com/TX/Houston/9134-Pembrook-St-77016/home/29977068,HARMLS,6946818,N,Y,29.8441695,-95.2992672
PAST SALE,May-28-2020,Vacant Land,0 Westbrook,Houston,TX,77016,70000,,,Bristol Place,,14850,,369,,,Sold,,,http://www.redfin.com/TX/HOUSTON/WESTBROOK-RD-77016/home/30019815,HARMLS,44421368,N,Y,29.855828,-95.316575
PAST SALE,November-6-2018,Vacant Land,0 Haywood St,Houston,TX,77016,45000,,,Bristol Place,,21000,,938,,,Sold,,,http://www.redfin.com/TX/HOUSTON/HAYWOOD-ST-77016/home/30021887,HARMLS,13111973,N,Y,29.859108,-95.318384
PAST SALE,December-9-2019,Vacant Land,10405 Barnham St,Houston,TX,77016,44900,,,Fontaine Place Sec 02,,15600,,540,,,Sold,,,http://www.redfin.com/TX/Houston/10405-Barnham-St-77016/home/30033226,HARMLS,60799217,N,Y,29.861646,-95.311988
PAST SALE,May-17-2019,Vacant Land,10313 Barnham St,Houston,TX,77016,60000,,,Fontaine Place Sec 02,,31200,,746,,,Sold,,,http://www.redfin.com/TX/Houston/10313-Barnham-St-77016/home/30033237,HARMLS,56709949,N,Y,29.860897,-95.31198
PAST SALE,September-10-2018,Vacant Land,8020 Lavender St,Houston,TX,77016,12000,,,Renee Gardens,,5000,,995,,,Sold,,,http://www.redfin.com/TX/Houston/8020-Lavender-St-77016/home/30038497,HARMLS,23004132,N,Y,29.833948,-95.321144
PAST SALE,June-29-2018,Vacant Land,7917 Bonita St N,Houston,TX,77016,19000,,,Hiller Heights 1,,7548,,1068,,,Sold,,,http://www.redfin.com/TX/Houston/7917-Bonita-St-77016/home/30045810,HARMLS,17649896,N,Y,29.832333,-95.323832
PAST SALE,September-20-2019,Vacant Land,7709 Hoffman St,Houston,TX,77016,35000,,,Triangle Gardens,,8053,,620,,,Sold,,,http://www.redfin.com/TX/Houston/7709-Hoffman-St-77016/home/40214172,HARMLS,73614496,N,Y,29.830009,-95.312259
PAST SALE,October-26-2018,Vacant Land,9910 Homestead Rd,Houston,TX,77016,259999,,,Scenic Woods,,130680,,949,,,Sold,,,http://www.redfin.com/TX/Houston/9910-Homestead-Rd-77016/home/45457920,HARMLS,21410718,N,Y,29.855121,-95.299427
PAST SALE,April-24-2019,Vacant Land,7930 Sayers St,Houston,TX,77016,17500,,,Weaver Place 3rd Sec,,5000,,769,,,Sold,,,http://www.redfin.com/TX/Houston/7930-Sayers-St-77016/home/29788744,HARMLS,84587306,N,Y,29.8324152,-95.3295514
PAST SALE,July-18-2019,Vacant Land,3814 Lynnfield St,Houston,TX,77016,22500,,,Westcott Gardens Sec 05,,8400,,684,,,Sold,,,http://www.redfin.com/TX/Houston/3814-Lynnfield-St-77016/home/29980194,HARMLS,74012121,N,Y,29.8202728,-95.3327742
PAST SALE,July-14-2016,Single Family Residential,10739 Jordan Heights Dr,Houston,TX,77016,134990,4,2.0,Leland Woods,1773,5776,2006,1783,76,25,Sold,,,http://www.redfin.com/TX/Houston/10739-Jordan-Heights-Dr-77016/home/29412323,HARMLS,80255760,N,Y,29.8707518,-95.2952839
PAST SALE,January-20-2017,Single Family Residential,7718 Rhobell,Houston,TX,77016,80000,3,2.0,Scenin Woods,,,1960,1593,,,Sold,,,http://www.redfin.com/TX/Houston/7718-Rhobell-St-77016/home/30083964,HARMLS,84222348,N,Y,29.8579924,-95.2886288
PAST SALE,September-1-2016,Single Family Residential,10323 Rebel Rd,Houston,TX,77016,122900,3,2.0,Scenic Woods,1098,7257,1967,1734,112,,Sold,,,http://www.redfin.com/TX/Houston/10323-Rebel-Rd-77016/home/30084277,HARMLS,41869741,N,Y,29.8624484,-95.2918848
PAST SALE,June-5-2017,Single Family Residential,10603 Rebel,Houston,TX,77016,141900,3,2.0,Scenic Woods,,,1969,1457,,,Sold,,,http://www.redfin.com/TX/Houston/10603-Rebel-Rd-77016/home/30084475,HARMLS,26731584,N,Y,29.8672134,-95.2919154
PAST SALE,,Single Family Residential,7207 Saunders Rd,Houston,TX,77016,,3,1.0,,1089,7150,1960,,,,Sold,,,http://www.redfin.com/TX/Houston/7207-Saunders-Rd-77016/home/30084658,HARMLS,,N,Y,29.8649644,-95.2991222
PAST SALE,March-15-2017,Multi-Family (2-4 Unit),8901 Spaulding St,Houston,TX,77016,143000,0,,Barclay Place Sec,2418,10725,2006,1539,59,,Sold,,,http://www.redfin.com/TX/Houston/8901-Spaulding-St-77016/home/29977455,HARMLS,54569014,N,Y,29.8423124,-95.3036753
PAST SALE,April-10-2017,Single Family Residential,10414 Bainbridge St,Houston,TX,77016,77500,3,1.0,Fontaine Place Sec 02,1040,7800,1956,1513,75,,Sold,,,http://www.redfin.com/TX/Houston/10414-Bainbridge-St-77016/home/30033338,HARMLS,44591994,N,Y,29.862077,-95.3104342
PAST SALE,July-4-2017,Vacant Land,9410 Grady St,Houston,TX,77016,35000,,,North Shadydale,,7200,,1428,,,Sold,,,http://www.redfin.com/TX/Houston/9410-Grady-St-77016/home/34271606,HARMLS,48323727,N,Y,29.8477252,-95.3125785
PAST SALE,February-24-2017,Single Family Residential,5602 Gaston St,Houston,TX,77016,71385,3,2.0,Mount Houston,1032,8505,1950,1558,69,,Sold,,,http://www.redfin.com/TX/Houston/5602-Gaston-77016/home/29724971,HARMLS,36374217,N,Y,29.8880692,-95.3073278
PAST SALE,October-31-2016,Single Family Residential,5722 Sam Houston St,Houston,TX,77016,43000,2,1.0,Edgeworth Place Sec 02,780,9180,1950,1674,55,,Sold,,,http://www.redfin.com/TX/Houston/5722-Sam-Houston-St-77016/home/30022522,HARMLS,24238275,N,Y,29.8869,-95.3050434
PAST SALE,November-29-2016,Single Family Residential,7018 Heath St,Houston,TX,77016,75000,2,1.0,Northwood Manor Sec 08,969,9280,1978,1645,77,,Sold,,,http://www.redfin.com/TX/Houston/7018-Heath-St-77016/home/30305363,HARMLS,47448723,N,Y,29.8776032,-95.2851179
PAST SALE,August-19-2016,Vacant Land,3914 Bennington St,Houston,TX,77016,7900,,,Lumber Lane,,5000,,1747,,,Sold,,,http://www.redfin.com/TX/Houston/3914-Bennington-St-77016/home/30035503,HARMLS,84241949,N,Y,29.821912,-95.331688
PAST SALE,August-3-2020,Vacant Land,Lot 211 Bretshire Dr,Houston,TX,77016,28000,,,Fontaine Place Sec 02,,7800,,302,,,Sold,,,http://www.redfin.com/TX/Houston/Lot-211-Bretshire-Dr-77016/home/169430203,HARMLS,18611784,N,Y,29.86025,-95.310085
PAST SALE,March-6-2019,Vacant Land,4225 Denmark St,Houston,TX,77016,89000,,,Harris & Wilson,,44898,,818,,,Sold,,,http://www.redfin.com/TX/Houston/4225-Denmark-St-77016/home/160445119,HARMLS,62692030,N,Y,29.8276135,-95.3273248
PAST SALE,August-29-2019,Vacant Land,4417 June St,Houston,TX,77016,27500,,,Weaver Place Sec 2,,5684,,642,,,Sold,,,http://www.redfin.com/TX/Houston/4417-June-St-77016/home/163736569,HARMLS,85259469,N,Y,29.8349955,-95.3251602
PAST SALE,May-26-2017,Vacant Land,8022 Hirsch Rd,Houston,TX,77016,20700,,,Weaver Place,,6000,,1467,,,Sold,,,http://www.redfin.com/TX/Houston/8022-Hirsch-Rd-77016/home/55630814,HARMLS,278411,N,Y,29.8338472,-95.3286935
PAST SALE,August-24-2016,Vacant Land,0 Hirsch Rd,Houston,TX,77016,800000,,,Abst 772 M Terrell,,1533748,,1742,,,Sold,,,http://www.redfin.com/TX/HOUSTON/HIRSCH-RD-77016/home/29620208,HARMLS,28329578,N,Y,29.831528,-95.328324
PAST SALE,January-29-2019,Vacant Land,7515 Pointer St,Houston,TX,77016,30000,,,Denmark Place,,11020,,854,,,Sold,,,http://www.redfin.com/TX/Houston/7515-Pointer-St-77016/home/29777824,HARMLS,25753587,N,Y,29.8283347,-95.3245264
PAST SALE,October-31-2019,Vacant Land,0 Cruse Rd,Houston,TX,77016,25000,,,Forest Lawn,,5500,,579,,,Sold,,,http://www.redfin.com/TX/HOUSTON/CRUSE-RD-77016/home/29913473,HARMLS,48005036,N,Y,29.837553,-95.319968
PAST SALE,March-25-2020,Vacant Land,0 Glass St,Houston,TX,77016,44500,,,Trinity Gardens,,15660,,433,,,Sold,,,http://www.redfin.com/TX/HOUSTON/GLASS-ST-77016/home/29940992,HARMLS,25426703,N,Y,29.825407,-95.326269
PAST SALE,,Vacant Land,7202 Lockwood Dr,Houston,TX,77016,,,,,,17580,,,,,Sold,,,http://www.redfin.com/TX/Houston/7202-Lockwood-Dr-77016/home/29941097,HARMLS,,N,Y,29.824613,-95.317986
PAST SALE,July-23-2020,Vacant Land,7218 Lavender St,Houston,TX,77016,60000,,,Trinity Gardens,,18000,,313,,,Sold,,,http://www.redfin.com/TX/Houston/7218-Lavender-St-77016/home/29941233,HARMLS,49196365,N,Y,29.825976,-95.3204005
PAST SALE,November-27-2019,Vacant Land,7312 Lavender St,Houston,TX,77016,43000,,,Trinity Gardens,,18000,,552,,,Sold,,,http://www.redfin.com/TX/Houston/7312-Lavender-St-77016/home/29941243,HARMLS,9245212,N,Y,29.826421,-95.320087
PAST SALE,February-12-2020,Vacant Land,8707 Wileyvale Rd,Houston,TX,77016,32000,,,Trinity Gardens Sec 03,,12060,,475,,,Sold,,,http://www.redfin.com/TX/Houston/8707-Wileyvale-Rd-77016/home/29943030,HARMLS,89928954,N,Y,29.839358,-95.317162
PAST SALE,June-22-2018,Vacant Land,0 N Autumn Ln,Houston,TX,77016,39900,,,Berry Schoo Add,,,,1075,,,Sold,,,http://www.redfin.com/TX/HOUSTON/AUTUMN-LN-77016/home/29943346,HARMLS,97112972,N,Y,29.838245,-95.322331
PAST SALE,,Vacant Land,0 Lockwood Rd,Houston,TX,77016,,,,,,6180,,,,,Sold,,,http://www.redfin.com/TX/HOUSTON/LOCKWOOD-RD-77016/home/29979755,HARMLS,,N,Y,29.839787,-95.318625
PAST SALE,August-5-2019,Vacant Land,0 Toliver St,Houston,TX,77016,25000,,,Cranford Place,,7500,,666,,,Sold,,,http://www.redfin.com/TX/HOUSTON/E-TOLIVER-ST-77016/home/29983516,HARMLS,32841350,N,Y,29.82996,-95.330066
PAST SALE,August-29-2019,Vacant Land,4409 Plaag St,Houston,TX,77016,27500,,,Bilo Place,,7800,,642,,,Sold,,,http://www.redfin.com/TX/Houston/4409-Plaag-St-77016/home/29998592,HARMLS,29717518,N,Y,29.833444,-95.325687
PAST SALE,February-21-2020,Vacant Land,0 Parker Rd,Houston,TX,77016,16000,,,Bristol Place,,7425,,466,,,Sold,,,http://www.redfin.com/TX/HOUSTON/PARKER-RD-77016/home/30019652,HARMLS,91183008,N,Y,29.856786,-95.314979
PAST SALE,May-22-2020,Vacant Land,14 Styling Ct,Houston,TX,77016,55000,,,Fontaine Place Sec 02,,54733,,375,,,Sold,,,http://www.redfin.com/TX/Houston/14-Styling-Ct-77016/home/30033171,HARMLS,44255511,N,Y,29.8587975,-95.3082566
PAST SALE,June-1-2018,Vacant Land,7804 Glass St,Houston,TX,77016,71900,,,Paul Quinn Gardens U/r,,18456,,1096,,,Sold,,,http://www.redfin.com/TX/Houston/7804-Glass-St-77016/home/30076230,HARMLS,13136445,N,Y,29.8304815,-95.3255526
PAST SALE,May-31-2018,Vacant Land,0 Ashworth St,Houston,TX,77016,120000,,,NA,,60087,,1097,,,Sold,,,http://www.redfin.com/TX/HOUSTON/ASHWORTH-ST-77016/home/29786096,HARMLS,17016483,N,Y,29.88756,-95.302299
PAST SALE,May-17-2018,Vacant Land,5406 Parker Rd,Houston,TX,77016,11995,,,Bristol Place,,7425,,1111,,,Sold,,,http://www.redfin.com/TX/Houston/5406-Parker-Rd-77016/home/30019657,HARMLS,70473929,N,Y,29.856778,-95.31602
PAST SALE,June-20-2018,Vacant Land,0 Wicklowe St,Houston,TX,77016,12500,,,Fontaine Place Sec 01,,8060,,1077,,,Sold,,,http://www.redfin.com/TX/HOUSTON/WICKLOWE-ST-77016/home/30033332,HARMLS,38561485,N,Y,29.860318,-95.309876
PAST SALE,July-19-2017,Vacant Land,11511 Sheridan Rd,Houston,TX,77016,287500,,,Houston Suburban Heights,,287496,,1413,,,Sold,,,http://www.redfin.com/TX/Houston/11511-Sheridan-Rd-77016/home/108372430,HARMLS,5854378,N,Y,29.8888027,-95.2730087
PAST SALE,January-31-2017,Single Family Residential,10607 Prillerman Trail Dr,Houston,TX,77016,184356,4,2.5,Leland Woods Sec 02,2276,5883,2016,1582,81,21,Sold,,,http://www.redfin.com/TX/Houston/10607-Prillerman-Trails-Dr-77016/home/29614034,HARMLS,58871345,N,Y,29.8692554,-95.2943856
PAST SALE,June-27-2018,Single Family Residential,7403 Senfronia Hills Dr,Houston,TX,77016,209362,3,2.5,Leland Woods,1880,5970,2018,1070,111,25,Sold,,,http://www.redfin.com/TX/Houston/7403-Senfronia-Hills-Dr-77016/home/29614076,HARMLS,32362611,N,Y,29.868707,-95.294834
PAST SALE,February-15-2018,Single Family Residential,10646 Jordan Heights Dr,Houston,TX,77016,182008,3,2.0,Leland Woods,1520,5823,2017,1202,120,25,Sold,,,http://www.redfin.com/TX/Houston/10646-Jordan-Heights-Dr-77016/home/29614094,HARMLS,90600747,N,Y,29.8693759,-95.2947531
PAST SALE,December-4-2017,Single Family Residential,8701 Furay Rd,Houston,TX,77016,85000,1,1.0,Houston Suburban Heights,936,22736,1965,1275,91,,Sold,,,http://www.redfin.com/TX/Houston/8701-Furay-Ave-77016/home/29687706,HARMLS,91708292,N,Y,29.8858274,-95.2633731
PAST SALE,,Single Family Residential,10817 Seneca St,Houston,TX,77016,,3,2.0,,2234,58586,1968,,,,Sold,,,http://www.redfin.com/TX/Houston/10817-Seneca-St-77016/home/29997217,HARMLS,,N,Y,29.8724736,-95.3023685
PAST SALE,November-16-2017,Single Family Residential,9914 Cheeves,Houston,TX,77016,128500,3,1.0,Scenic Woods,1326,9300,1950,1293,97,,Sold,,,http://www.redfin.com/TX/Houston/9914-Cheeves-Dr-77016/home/30084077,HARMLS,10240738,N,Y,29.8553099,-95.2925891
PAST SALE,November-23-2017,Single Family Residential,7241 Wiley Rd,Houston,TX,77016,134000,3,2.0,Scenic Woods,1240,7320,1953,1286,108,,Sold,,,http://www.redfin.com/TX/Houston/7241-Wiley-Rd-77016/home/30085134,HARMLS,18314386,N,Y,29.8593008,-95.2976113
PAST SALE,September-29-2017,Single Family Residential,10225 N Hollyglen,Houston,TX,77016,108000,3,2.0,Fontaine Place,1784,6466,1955,1341,61,,Sold,,,http://www.redfin.com/TX/Houston/10225-Hollyglen-Dr-77016/home/30096941,HARMLS,30290164,N,Y,29.8604174,-95.3034915
PAST SALE,July-21-2017,Single Family Residential,10550 Bretton Dr,Houston,TX,77016,74000,4,3.0,Fontaine Place Sec 07,2310,6784,1956,1411,32,,Sold,,,http://www.redfin.com/TX/Houston/10550-Bretton-Dr-77016/home/30126099,HARMLS,96181576,N,Y,29.8664873,-95.3038591
PAST SALE,May-25-2018,Single Family Residential,6214 Gaston St,Houston,TX,77016,119000,3,1.5,Northwood Manor Sec 02,1003,8580,1964,1103,119,,Sold,,,http://www.redfin.com/TX/Houston/6214-Gaston-77016/home/30145392,HARMLS,20725514,N,Y,29.8876314,-95.2969172
PAST SALE,June-8-2018,Single Family Residential,6342 Micollet St,Houston,TX,77016,85000,3,1.0,Northwood Manor Sec 02,902,6600,1960,1089,94,,Sold,,,http://www.redfin.com/TX/Houston/6342-Micollet-St-77016/home/30145790,HARMLS,72816171,N,Y,29.8862652,-95.2938957
PAST SALE,April-20-2018,Single Family Residential,6423 Hanley Ln,Houston,TX,77016,130000,3,2.0,Northwood Manor,1006,6300,1959,1138,129,,Sold,,,http://www.redfin.com/TX/Houston/6423-Hanley-Ln-77016/home/30145855,HARMLS,15812730,N,Y,29.8787606,-95.2933649
PAST SALE,February-28-2018,Single Family Residential,6411 Annunciation St,Houston,TX,77016,145000,4,2.0,Northwood Manor Sec 02,1308,7381,1960,1189,111,,Sold,,,http://www.redfin.com/TX/Houston/6411-Annunciation-St-77016/home/30146254,HARMLS,36727594,N,Y,29.8839046,-95.2932016
PAST SALE,August-23-2017,Single Family Residential,6127 Guadalupe St,Houston,TX,77016,94000,3,1.5,Northwood Manor,1080,7320,1960,1378,87,,Sold,,,http://www.redfin.com/TX/Houston/6127-Guadalupe-St-77016/home/30146343,HARMLS,67734060,N,Y,29.8837379,-95.2973663
PAST SALE,October-6-2017,Single Family Residential,6727 Rosemary Ln,Houston,TX,77016,69900,2,1.0,Northwood Manor,842,4896,1970,1334,83,,Sold,,,http://www.redfin.com/TX/Houston/6727-Rosemary-Ln-77016/home/30245770,HARMLS,8353491,N,Y,29.8766065,-95.2886288
PAST SALE,July-24-2017,Single Family Residential,7114 Pittswood Ln,Houston,TX,77016,109700,3,2.0,Northwood Manor Sec 08,1824,8485,1977,1408,60,,Sold,,,http://www.redfin.com/TX/Houston/7114-Pittswood-Ln-77016/home/30305754,HARMLS,33934511,N,Y,29.8782755,-95.2829542
PAST SALE,February-2-2018,Single Family Residential,8705 Clarington St,Houston,TX,77016,29900,2,1.0,Wedgewood Place,420,7380,1952,1215,71,,Sold,,,http://www.redfin.com/TX/Houston/8705-Clarington-St-77016/home/29979753,HARMLS,938475,N,Y,29.8392731,-95.3181947
PAST SALE,September-19-2017,Vacant Land,5620 Pate Rd,Houston,TX,77016,27000,,,Bristol Place,,8000,,1351,,,Sold,,,http://www.redfin.com/TX/Houston/5620-Pate-Rd-77016/home/30019854,HARMLS,67042173,N,Y,29.854958,-95.3137425
PAST SALE,,Vacant Land,0 Laura Koppe Rd,Houston,TX,77028,,,,,,,,,,,Sold,,,http://www.redfin.com/TX/Houston/6501-Laura-Koppe-Rd-77016/home/147063043,HARMLS,,N,Y,29.8410458,-95.3043491
PAST SALE,December-3-2018,Vacant Land,0 Tully St,Houston,TX,77016,30000,,,Scenic Woods,,7280,,911,,,Sold,,,http://www.redfin.com/TX/Houston/Tully-St-77016/home/29584763,HARMLS,16287116,N,Y,29.866539,-95.289704
PAST SALE,February-6-2020,Vacant Land,10800 Lucerne St,Houston,TX,77016,125000,,,Woodland Acres,,49280,,481,,,Sold,,,http://www.redfin.com/TX/Houston/10800-Lucerne-St-77016/home/29997204,HARMLS,43164230,N,Y,29.872473,-95.296836
PAST SALE,September-28-2017,Single Family Residential,5113 E Antha St,Houston,TX,77016,115000,3,2.0,North Shadydale Ext Sec 01,1200,8400,2005,1342,96,,Sold,,,http://www.redfin.com/TX/Houston/5113-Antha-St-77016/home/29971928,HARMLS,97138465,N,Y,29.8496596,-95.3166017
PAST SALE,January-12-2018,Vacant Land,8706 Lawnridge St,Houston,TX,77016,24900,,,Wedgewood Place,,7380,,1236,,,Sold,,,http://www.redfin.com/TX/Houston/8706-Lawnridge-St-77016/home/29979716,HARMLS,75125059,N,Y,29.8392591,-95.3196652
PAST SALE,March-27-2017,Single Family Residential,10437 Onslow St,Houston,TX,77016,53000,2,1.0,Fontaine Place Sec 03,1131,7200,1958,1527,47,,Sold,,,http://www.redfin.com/TX/Houston/10437-Onslow-St-77016/home/30033210,HARMLS,99741485,N,Y,29.8629039,-95.3089231
PAST SALE,November-10-2017,Single Family Residential,10322 Bucknell Rd,Houston,TX,77016,124500,3,1.0,Fontaine Place Sec 03,1246,8942,1955,1299,100,,Sold,,,http://www.redfin.com/TX/Houston/10322-Bucknell-Rd-77016/home/30033653,HARMLS,8203744,N,Y,29.8611117,-95.3075345
PAST SALE,February-8-2017,Single Family Residential,5215 Yorkwood St,Houston,TX,77016,134900,3,2.0,Scenic Woods Plaza,1206,7620,1970,1574,112,,Sold,,,http://www.redfin.com/TX/Houston/5215-Yorkwood-St-77016/home/30230910,HARMLS,87199502,N,Y,29.8700076,-95.3127214
PAST SALE,,Single Family Residential,10610 Prillerman Trail Dr,Houston,TX,77016,,3,2.5,,1914,6919,2016,,,,Sold,,,http://www.redfin.com/TX/Houston/10610-Prillerman-Trails-Dr-77016/home/29614143,HARMLS,,N,Y,29.8694102,-95.2938957
PAST SALE,February-6-2018,Single Family Residential,5002 Wiley Rd,Houston,TX,77016,88500,2,1.0,Clayton Place,956,15130,1990,1211,93,,Sold,,,http://www.redfin.com/TX/Houston/5002-Wiley-Rd-77016/home/30021905,HARMLS,98748485,N,Y,29.8576195,-95.3192976
PAST SALE,November-1-2017,Single Family Residential,7806 Sandra St,Houston,TX,77016,128900,3,2.0,Trinity Gardens,,,,1308,,,Sold,,,http://www.redfin.com/TX/Houston/7806-Sandra-St-77016/home/29979558,HARMLS,59249745,N,Y,29.8313843,-95.3137017
PAST SALE,,Single Family Residential,8521 Spaulding St,Houston,TX,77016,,4,2.0,,1659,9800,1963,,,,Sold,,,http://www.redfin.com/TX/Houston/8521-Spaulding-St-77016/home/29990342,HARMLS,,N,Y,29.8385034,-95.3047983
PAST SALE,June-11-2018,Single Family Residential,5810 Parker Rd,Houston,TX,77016,43200,0,1.0,Bristol Place,1500,7500,1950,1086,29,,Sold,,,http://www.redfin.com/TX/Houston/5810-Parker-Rd-77016/home/30019689,HARMLS,80262824,N,Y,29.8558419,-95.3124968
PAST SALE,May-18-2018,Single Family Residential,5814 Mayle St,Houston,TX,77016,135000,3,1.5,Warwick Place,1866,14112,1945,1110,72,,Sold,,,http://www.redfin.com/TX/Houston/5814-Mayle-St-77016/home/30027665,HARMLS,35380606,N,Y,29.852715,-95.3123538
PAST SALE,May-26-2017,Single Family Residential,5301 Bretshire Dr,Houston,TX,77016,65000,2,2.0,Fontaine Place,1200,7800,1949,1467,54,,Sold,,,http://www.redfin.com/TX/Houston/5301-Bretshire-Dr-77016/home/30033242,HARMLS,47917584,N,Y,29.8603684,-95.3114553
PAST SALE,June-30-2017,Single Family Residential,7615 Sterlingshire St,Houston,TX,77016,138900,3,2.0,Scenic Woods,1424,7440,1960,1432,98,21,Sold,,,http://www.redfin.com/TX/Houston/7615-Sterlingshire-St-77016/home/30083879,HARMLS,10634630,N,Y,29.8558776,-95.2907927
PAST SALE,April-16-2018,Single Family Residential,7637 Caddo Rd,Houston,TX,77016,110000,3,2.0,Scenic Woods,,7440,1959,1142,,,Sold,,,http://www.redfin.com/TX/Houston/7637-Caddo-Rd-77016/home/30083942,HARMLS,34744981,N,Y,29.8575628,-95.2897924
PAST SALE,,Single Family Residential,7421 Rhobell St,Houston,TX,77016,,3,1.0,,1129,7076,1960,,,,Sold,,,http://www.redfin.com/TX/Houston/7421-Rhobell-St-77016/home/30084982,HARMLS,,N,Y,29.8584373,-95.2932832
PAST SALE,,Single Family Residential,7413 Sterlingshire St,Houston,TX,77016,,3,1.0,,1223,7200,1950,,,,Sold,,,http://www.redfin.com/TX/Houston/7413-Sterlingshire-St-77016/home/30085656,HARMLS,,N,Y,29.8554896,-95.2937323
PAST SALE,December-22-2017,Single Family Residential,6001 Bretshire Dr,Houston,TX,77016,129899,3,1.0,Fontaine Place Sec 05,1424,9477,1960,1257,91,,Sold,,,http://www.redfin.com/TX/Houston/6001-Bretshire-Dr-77016/home/30096316,HARMLS,45172462,N,Y,29.8586517,-95.3050944
PAST SALE,June-12-2018,Single Family Residential,10502 Royal Oaks Dr,Houston,TX,77016,75000,2,1.5,Fontaine Place Sec 07,1542,7950,1960,1085,49,,Sold,,,http://www.redfin.com/TX/Houston/10502-Royal-Oaks-Dr-77016/home/30126071,HARMLS,20235172,N,Y,29.8643926,-95.3021439
PAST SALE,September-2-2016,Single Family Residential,10538 Bretton Dr,Houston,TX,77016,74999,3,2.0,Fontaine Place Sec 07,1623,6890,1962,1733,46,,Sold,,,http://www.redfin.com/TX/Houston/10538-Bretton-Dr-77016/home/30126106,HARMLS,63076743,N,Y,29.8659915,-95.3038591
PAST SALE,December-15-2017,Single Family Residential,6131 Hesta Ln,Houston,TX,77016,139000,3,2.0,Tidwell Timbers,1555,6300,1965,1264,89,,Sold,,,http://www.redfin.com/TX/Houston/6131-Hesta-Ln-77016/home/30165327,HARMLS,81900766,N,Y,29.8515955,-95.3088006
PAST SALE,April-25-2017,Single Family Residential,9924 Shady Dr,Houston,TX,77016,95000,3,2.5,Shady Timbers,1690,11030,2005,1498,56,,Sold,,,http://www.redfin.com/TX/Houston/9924-Shady-Dr-77016/home/30205324,HARMLS,34024811,N,Y,29.8526675,-95.3090456
PAST SALE,,Single Family Residential,6014 Shady Timbers Dr,Houston,TX,77016,,4,1.5,,2027,10241,1965,,,,Sold,,,http://www.redfin.com/TX/Houston/6014-Shady-Timbers-Dr-77016/home/30205377,HARMLS,,N,Y,29.8511759,-95.3102709
PAST SALE,March-2-2018,Single Family Residential,10530 Envoy St,Houston,TX,77016,79900,3,1.5,Fontaine Place Sec 07,1259,6955,1960,1187,63,,Sold,,,http://www.redfin.com/TX/Houston/10530-Envoy-St-77016/home/30126014,HARMLS,19670074,N,Y,29.8655949,-95.3047575
PAST SALE,April-23-2018,Vacant Land,9409 Grady St,Houston,TX,77016,12000,,,North Shadydale,,7380,,1135,,,Sold,,,http://www.redfin.com/TX/Houston/9409-Grady-St-77016/home/29971849,HARMLS,50390592,N,Y,29.8478625,-95.313089
PAST SALE,May-1-2017,Single Family Residential,6302 Cobalt St,Houston,TX,77016,54900,3,1.0,Northwood Manor,910,6893,1960,1492,60,,Sold,,,http://www.redfin.com/TX/Houston/6302-Cobalt-St-77016/home/30145678,HARMLS,55176144,N,Y,29.8857796,-95.2958964
PAST SALE,,Vacant Land,5214 Langley Rd,Houston,TX,77016,,,,,,,,,,,Sold,,,http://www.redfin.com/TX/Houston/5214-Langley-Rd-77016/home/104268417,HARMLS,,N,Y,29.8666053,-95.3121496
PAST SALE,February-2-2017,Vacant Land,7802 Hoffman St,Houston,TX,77016,16000,,,Triangle Gardens,,7320,,1580,,,Sold,,,http://www.redfin.com/TX/Houston/7802-Hoffman-St-77016/home/112841773,HARMLS,11552363,N,Y,29.831413,-95.31177
PAST SALE,June-5-2020,Vacant Land,4421 Fitch St,Houston,TX,77016,29900,,,Buckingham Place Sec 03,,7750,,361,,,Sold,,,http://www.redfin.com/TX/Houston/4421-Fitch-St-77016/home/147364530,HARMLS,24049316,N,Y,29.844011,-95.324214
PAST SALE,January-31-2020,Vacant Land,0 Hirsch RD Rd,Houston,TX,77016,21900,,,William P Harris & Robert Wils,,5943,,487,,,Sold,,,http://www.redfin.com/TX/HOUSTON/HIRSCH-RD-77016/home/29777716,HARMLS,49607430,N,Y,29.834498,-95.328751
PAST SALE,September-6-2017,Vacant Land,0 Bretshire,Houston,TX,77016,6900,,,Calgary Woods,,6144,,1364,,,Sold,,,http://www.redfin.com/TX/Houston/5110-Bretshire-Dr-77016/home/30221082,HARMLS,50334942,N,Y,29.86173,-95.315061
PAST SALE,August-6-2020,Vacant Land,8225 Wileyvale Rd,Houston,TX,77016,39900,,,Trinity Gardens Sec 03,,12060,,299,,,Sold,,,http://www.redfin.com/TX/Houston/8225-Wileyvale-Rd-77016/home/34256537,HARMLS,27935621,N,Y,29.835861,-95.317125
PAST SALE,,Single Family Residential,7419 Pickett Orchard Dr,Houston,TX,77016,,3,2.5,,1914,5454,2015,,,,Sold,,,http://www.redfin.com/TX/Houston/7419-Pickett-Orchard-Dr-77016/home/29614141,HARMLS,,N,Y,29.8694266,-95.2934874
PAST SALE,January-29-2018,Single Family Residential,7729 E Boggess Rd,Houston,TX,77016,135000,3,1.5,Scenic Woods,1410,7440,1964,1219,96,,Sold,,,http://www.redfin.com/TX/Houston/7729-Boggess-Rd-77016/home/30084288,HARMLS,48439892,N,Y,29.861835,-95.288343
PAST SALE,March-30-2018,Single Family Residential,11203 Blades St,Houston,TX,77016,141999,3,2.5,Northwood Manor Sec 02,,8900,1961,1159,,,Sold,,,http://www.redfin.com/TX/Houston/11203-Blades-St-77016/home/30146115,HARMLS,24595505,N,Y,29.8811279,-95.2949988
PAST SALE,September-1-2020,Vacant Land,4802 Cruse Rd,Houston,TX,77016,54900,,,Forest Lawn,,11000,,273,,,Sold,,,http://www.redfin.com/TX/Houston/4802-Cruse-Rd-77016/home/164855593,HARMLS,21981487,N,Y,29.837552,-95.319506
PAST SALE,February-15-2017,Vacant Land,7502 Lavender St,Houston,TX,77016,14500,,,Trinity Gardens,,6300,,1567,,,Sold,,,http://www.redfin.com/TX/Houston/7502-Lavender-St-77016/home/109475841,HARMLS,11733078,N,Y,29.8276981,-95.3210937
PAST SALE,July-2-2018,Vacant Land,4707 Denmark St,Houston,TX,77016,14000,,,Lavender Heights U/r,,6300,,1065,,,Sold,,,http://www.redfin.com/TX/Houston/4707-Denmark-St-77016/home/143090260,HARMLS,67583070,N,Y,29.8277112,-95.3209724
PAST SALE,December-21-2018,Vacant Land,7940 Hirsch Rd,Houston,TX,77016,22500,,,Weaver Place,,7600,,893,,,Sold,,,http://www.redfin.com/TX/Houston/7940-Hirsch-Rd-77016/home/146680098,HARMLS,14640444,N,Y,29.832942,-95.328635
PAST SALE,July-13-2017,Vacant Land,0 Homestead Rd,Houston,TX,77016,60000,,,Abst 32 Harris & Wilson,,60865,,1419,,,Sold,,,http://www.redfin.com/TX/HOUSTON/HOMESTEAD-RD-77016/home/29584727,HARMLS,67327444,N,Y,29.853077,-95.299983
PAST SALE,,Vacant Land,0 Lanewood Dr,Houston,TX,77016,,,,,,10725,,,,,Sold,,,http://www.redfin.com/TX/HOUSTON/LANEWOOD-DR-77016/home/29977486,HARMLS,,N,Y,29.84249,-95.304221
PAST SALE,April-22-2020,Vacant Land,0 TBD Polly St St,Houston,TX,77016,21000,,,Warwick Place,,7056,,405,,,Sold,,,http://www.redfin.com/TX/Houston/0-TBD-Polly-St-77016/home/170442749,HARMLS,73446702,N,Y,29.852069,-95.316193
PAST SALE,October-13-2017,Vacant Land,5407 Parker Rd,Houston,TX,77016,38000,,,Bristol Place,,14300,,1327,,,Sold,,,http://www.redfin.com/TX/Houston/5407-Parker-Rd-77016/home/30020327,HARMLS,62556518,N,Y,29.857305,-95.3159073
PAST SALE,May-1-2018,Vacant Land,0 Yorkwood,Houston,TX,77016,17500,,,Scenic Woods Plaza,,10751,,1127,,,Sold,,,http://www.redfin.com/TX/Houston/Yorkwood-St-77016/home/171534262,HARMLS,69740464,N,Y,29.87015,-95.30738
PAST SALE,September-3-2016,Vacant Land,11001 Homestead,Houston,TX,77016,147900,,,Woodland Acres,,21861,,1732,,,Sold,,,http://www.redfin.com/TX/Houston/11001-Homestead-Rd-77016/home/108497420,HARMLS,35826643,N,Y,29.8763031,-95.3008541
PAST SALE,August-24-2018,Vacant Land,5630 Pate,Houston,TX,77039,19000,,,Bristol Place,,8550,,1012,,,Sold,,,http://www.redfin.com/TX/Houston/5630-Pate-Rd-77016/home/146414356,HARMLS,84612472,N,Y,29.8548698,-95.3137213
PAST SALE,January-28-2020,Vacant Land,0 Denmark,Houston,TX,77016,30000,,,Trinity Gardens Sec 03,,13200,,490,,,Sold,,,http://www.redfin.com/TX/HOUSTON/DENMARK-ST-77016/home/29777831,HARMLS,69798164,N,Y,29.82766,-95.324158
PAST SALE,July-15-2020,Vacant Land,0 Peachtree St,Houston,TX,77016,39900,,,W P Mays,,10334,,321,,,Sold,,,http://www.redfin.com/TX/HOUSTON/PEACHTREE-ST-77016/home/29795469,HARMLS,37175137,N,Y,29.852009,-95.316894
PAST SALE,May-11-2018,Vacant Land,4933 Sadler St,Houston,TX,77016,13900,,,Forest Lawn,,5060,,1117,,,Sold,,,http://www.redfin.com/TX/Houston/4933-Sadler-St-77016/home/29913601,HARMLS,21667555,N,Y,29.835107,-95.3175412
PAST SALE,August-7-2020,Vacant Land,6113 Hopper Rd,Houston,TX,77016,22500,,,Timber Acres Sec 02,,14800,,298,,,Sold,,,http://www.redfin.com/TX/Houston/6113-Hopper-Rd-77016/home/29921891,HARMLS,82091647,N,Y,29.880411,-95.297171
PAST SALE,January-23-2019,Vacant Land,8608 Peachtree St,Houston,TX,77016,28500,,,Trinity Gardens Sec 03,,12000,,860,,,Sold,,,http://www.redfin.com/TX/Houston/8608-Peachtree-St-77016/home/29942972,HARMLS,87319002,N,Y,29.838556,-95.314885
PAST SALE,January-31-2018,Vacant Land,0 Dandy St,Houston,TX,77016,25000,,,Northh Shadydale,,,,1217,,,Sold,,,http://www.redfin.com/TX/HOUSTON/DANDY-ST-77016/home/29971825,HARMLS,73000985,N,Y,29.845155,-95.312124
PAST SALE,January-16-2020,Vacant Land,0 Boicewood St,Houston,TX,77016,30000,,,Buckingham Place Sec 03,,9450,,502,,,Sold,,,http://www.redfin.com/TX/HOUSTON/BOICEWOOD-ST-77016/home/29997705,HARMLS,84606976,N,Y,29.843194,-95.324778
PAST SALE,,Vacant Land,0 Firnat St,Houston,TX,77016,,,,,,7350,,,,,Sold,,,http://www.redfin.com/TX/HOUSTON/FIRNAT-ST-77016/home/29998038,HARMLS,,N,Y,29.844461,-95.322332
PAST SALE,July-1-2020,Vacant Land,4622 Plaag St,Houston,TX,77016,25000,,,Renee Gardens,,4949,,335,,,Sold,,,http://www.redfin.com/TX/Houston/4622-Plaag-St-77016/home/30038493,HARMLS,72453502,N,Y,29.833164,-95.321485
PAST SALE,July-20-2018,Vacant Land,4614 Weaver,Houston,TX,77016,14500,,,Renee Gardens,,4150,,1047,,,Sold,,,http://www.redfin.com/TX/Houston/4614-Weaver-Rd-77016/home/30038641,HARMLS,34683335,N,Y,29.8339413,-95.3218711
PAST SALE,November-27-2019,Vacant Land,7617 Tully St,Houston,TX,77016,35000,,,Scenic Woods,,7085,,552,,,Sold,,,http://www.redfin.com/TX/Houston/7617-Tully-St-77016/home/30084329,HARMLS,46513526,N,Y,29.866604,-95.290682
PAST SALE,September-23-2020,Vacant Land,0 Rebel Rd,Houston,TX,77016,95000,,,Scenic Woods,,64863,,251,,,Sold,,,http://www.redfin.com/TX/HOUSTON/REBEL-RD-77016/home/30084765,HARMLS,32277152,N,Y,29.864206,-95.290766
PAST SALE,April-30-2018,Vacant Land,7242 Boggess Rd,Houston,TX,77016,11950,,,Scenic Woods,,7200,,1128,,,Sold,,,http://www.redfin.com/TX/Houston/7242-Boggess-Rd-77016/home/30085120,HARMLS,93384531,N,Y,29.859781,-95.297466
PAST SALE,March-30-2017,Single Family Residential,4621 Plaag St,Houston,TX,77016,59900,2,1.0,Renee Gardens,826,4430,1942,1524,73,,Sold,,,http://www.redfin.com/TX/Houston/4621-Plaag-St-77016/home/110193896,HARMLS,65151097,N,Y,29.8335921,-95.3215852
PAST SALE,March-9-2018,Single Family Residential,10533 Wolbrook St,Houston,TX,77016,74900,3,1.0,Fontaine Place Sec 04,1339,7320,1961,1180,56,,Sold,,,http://www.redfin.com/TX/Houston/10533-Wolbrook-St-77016/home/30072748,HARMLS,15335663,N,Y,29.8656761,-95.3061052
PAST SALE,November-3-2016,Single Family Residential,7307 Marilyn Ln,Houston,TX,77016,60000,3,1.0,Scenic Woods,1375,10625,1960,1671,44,,Sold,,,http://www.redfin.com/TX/Houston/7307-Marilyn-Ln-77016/home/30084528,HARMLS,88164544,N,Y,29.8664221,-95.2976113
PAST SALE,,Single Family Residential,7717 Furay Rd,Houston,TX,77016,,3,2.0,,980,15511,1978,,,,Sold,,,http://www.redfin.com/TX/Houston/7717-Furay-Ave-77016/home/45417275,HARMLS,,N,Y,29.8856794,-95.2758516
PAST SALE,December-21-2016,Single Family Residential,10611 Prillerman Trails Dr,Houston,TX,77016,164208,3,2.5,Leland Woods,1866,5564,2016,1623,88,250,Sold,,,http://www.redfin.com/TX/Houston/10611-Prillerman-Trails-Dr-77016/home/29614028,HARMLS,40898483,N,Y,29.8694015,-95.2943958
PAST SALE,May-4-2017,Single Family Residential,7423 Pickett Orchard Dr,Houston,TX,77016,167000,3,2.5,Leland Woods,1866,5445,2016,1489,89,275,Sold,,,http://www.redfin.com/TX/Houston/7423-Pickett-Orchard-Dr-77016/home/29614140,HARMLS,69666484,N,Y,29.8694331,-95.2933241
PAST SALE,March-30-2017,Single Family Residential,5810 Langley Rd,Houston,TX,77016,60000,3,1.0,Fontaine Place Sec 04,969,7920,1961,1524,62,,Sold,,,http://www.redfin.com/TX/Houston/5810-Langley-Rd-77016/home/30072743,HARMLS,86442349,N,Y,29.8666611,-95.3062685
PAST SALE,August-31-2016,Single Family Residential,7713 Yoe St,Houston,TX,77016,130000,3,2.0,Scenic Woods,1816,7750,1962,1735,72,,Sold,,,http://www.redfin.com/TX/Houston/7713-Yoe-St-77016/home/30084026,HARMLS,53276485,N,Y,29.8592881,-95.2889146
PAST SALE,,Single Family Residential,7325 Boggess,Houston,TX,77016,,3,2.0,,1568,7306,1964,,,,Sold,,,http://www.redfin.com/TX/Houston/7325-Boggess-Rd-77016/home/30085226,HARMLS,,N,Y,29.8613739,-95.2953656
PAST SALE,July-31-2017,Single Family Residential,7206 Bretshire Dr,Houston,TX,77016,75000,3,1.0,Scenic Woods Prcl R/p,1278,20665,1950,1401,59,,Sold,,,http://www.redfin.com/TX/Houston/7206-Bretshire-Dr-77016/home/30085569,HARMLS,49193116,N,Y,29.854846,-95.2985505
PAST SALE,February-21-2017,Single Family Residential,10307 Envoy St,Houston,TX,77016,75000,3,1.0,Fontaine Place Sec 06,1020,6634,1956,1561,74,,Sold,,,http://www.redfin.com/TX/Houston/10307-Envoy-St-77016/home/30110114,HARMLS,43410446,N,Y,29.8611599,-95.3052067
PAST SALE,June-30-2017,Single Family Residential,10403 Bretton Dr,Houston,TX,77016,98500,3,1.0,Fontaine Place,950,,1956,1432,104,,Sold,,,http://www.redfin.com/TX/Houston/10403-Bretton-Dr-77016/home/30110795,HARMLS,20142146,N,Y,29.8625465,-95.3043491
PAST SALE,July-27-2017,Single Family Residential,10615 Castleton St,Houston,TX,77016,115000,3,2.0,Scenic Woods Plaza,1764,6825,1971,1405,65,,Sold,,,http://www.redfin.com/TX/Houston/10615-Castleton-St-77016/home/30230764,HARMLS,55434897,N,Y,29.8684565,-95.3075754
PAST SALE,July-1-2016,Single Family Residential,10631 Wolbrook St,Houston,TX,77016,69000,3,2.5,Scenic Woods Plaza,1642,7085,1971,1796,42,,Sold,,,http://www.redfin.com/TX/Houston/10631-Wolbrook-St-77016/home/30230752,HARMLS,4282904,N,Y,29.8686728,-95.3066769
PAST SALE,,Single Family Residential,10606 Bucknell Rd,Houston,TX,77016,,5,3.0,,2100,6510,1971,,,,Sold,,,http://www.redfin.com/TX/Houston/10606-Bucknell-Rd-77016/home/30230803,HARMLS,,N,Y,29.8681078,-95.3078408
PAST SALE,December-9-2016,Single Family Residential,9113 Sandra St,Houston,TX,77016,19900,3,1.0,Buckingham Place Sec 04,1548,9030,1955,1635,13,,Sold,,,http://www.redfin.com/TX/Houston/9113-Sandra-St-77016/home/29997761,HARMLS,73109496,N,Y,29.8445342,-95.3140284
PAST SALE,,Single Family Residential,10503 Royal Oaks Dr,Houston,TX,77016,,3,1.5,,1119,7420,1960,,,,Sold,,,http://www.redfin.com/TX/Houston/10503-Royal-Oaks-Dr-77016/home/30126126,HARMLS,,N,Y,29.8643746,-95.3025931
PAST SALE,July-15-2020,Single Family Residential,7915 Pointer St,Houston,TX,77016,123000,3,2.0,Harris & Wilson 2 League Grant,1044,4550,1950,321,118,,Sold,,,http://www.redfin.com/TX/Houston/7915-Pointer-St-77016/home/29777811,HARMLS,41448007,N,Y,29.8319862,-95.3245264
PAST SALE,July-9-2020,Single Family Residential,4720 Cruse Rd,Houston,TX,77016,199000,3,2.0,Forest Lawn,1566,10995,1979,327,127,,Sold,,,http://www.redfin.com/TX/Houston/4720-Cruse-Rd-77016/home/29913474,HARMLS,91384399,N,Y,29.8375699,-95.3201963
PAST SALE,,Single Family Residential,8301 Lavender St,Houston,TX,77016,140000,3,1.0,,960,13500,1947,,146,,,,,http://www.redfin.com/TX/Houston/8301-Lavender-St-77016/home/29943418,,,N,Y,29.8357527,-95.3216669
PAST SALE,December-22-2020,Single Family Residential,4413 Plaag St,Houston,TX,77016,135000,3,2.0,Bilo Place,1248,7800,1955,161,108,,Sold,,,http://www.redfin.com/TX/Houston/4413-Plaag-St-77016/home/29998589,HARMLS,27303169,N,Y,29.8334361,-95.325466
PAST SALE,December-13-2019,Single Family Residential,4619 E Crosstimbers St,Houston,TX,77016,69895,3,1.0,Hiller Heights Sec 02,1042,7038,1950,536,67,,Sold,,,http://www.redfin.com/TX/Houston/4619-E-Crosstimbers-St-77016/home/30045742,HARMLS,54301791,N,Y,29.8312869,-95.3223
PAST SALE,May-5-2021,Single Family Residential,7921 Bonita St,Houston,TX,77016,74500,2,1.0,Hiller Heights,576,6965,1951,27,129,,Sold,,,http://www.redfin.com/TX/Houston/7921-Bonita-St-77016/home/30045815,HARMLS,84947781,N,Y,29.8326135,-95.3237809
PAST SALE,October-19-2017,Multi-Family (5+ Unit),7810 Peachtree St,Houston,TX,77016,450000,0,,Trinity Gardens Sec 03,5440,12000,1984,1321,83,,Sold,,,http://www.redfin.com/TX/Houston/7810-Peachtree-St-77016/unit-6/home/29942225,HARMLS,24105660,N,Y,29.8315753,-95.3145594
PAST SALE,December-1-2017,Single Family Residential,10647 Jordan Hts,Houston,TX,77016,180352,3,2.0,Leland Woods,1421,,,1278,127,300,Sold,,,http://www.redfin.com/TX/Houston/10647-Jordan-Heights-Dr-77016/home/29614093,HARMLS,39529554,N,Y,29.8693563,-95.2952431
PAST SALE,November-27-2017,Single Family Residential,7639 Bigwood,Houston,TX,77016,114500,4,1.5,Scenic Woods,1354,7440,1963,1282,85,,Sold,,,http://www.redfin.com/TX/Houston/7639-Bigwood-St-77016/home/30083837,HARMLS,3231648,N,Y,29.8566912,-95.2896087
PAST SALE,January-19-2018,Single Family Residential,5411 Knightwood St,Houston,TX,77016,150000,3,2.0,Scenic Woods Plaza,1455,11949,1970,1229,103,,Sold,,,http://www.redfin.com/TX/Houston/5411-Knightwood-St-77016/home/30230938,HARMLS,32996131,N,Y,29.8698889,-95.3100667
PAST SALE,,Vacant Land,8404 Lanewood Dr,Houston,TX,77016,,4,2.0,,1600,8400,2018,,,,Sold,,,http://www.redfin.com/TX/Houston/8404-Lanewood-Dr-77016/home/29990504,HARMLS,,N,Y,29.8371266,-95.3076571
PAST SALE,January-25-2017,Single Family Residential,10113 Homestead Rd,Houston,TX,77016,125000,4,1.0,Fontaine Place Sec 05,1629,6466,1960,1588,77,,Sold,,,http://www.redfin.com/TX/Houston/10113-Homestead-Rd-77016/home/30096855,HARMLS,33640872,N,Y,29.8584037,-95.300878
PAST SALE,,Single Family Residential,10205 Rockaway Dr,Houston,TX,77016,,3,1.0,,1000,6584,1960,,,,Sold,,,http://www.redfin.com/TX/Houston/10205-Rockaway-Dr-77016/home/30096878,HARMLS,,N,Y,29.8595863,-95.3017356
PAST SALE,August-31-2016,Single Family Residential,10330 Cheeves Dr,Houston,TX,77016,80000,4,2.0,Scenic Woods,1214,9734,1970,1735,66,,Sold,,,http://www.redfin.com/TX/Houston/10330-Cheeves-Dr-77016/home/30084275,HARMLS,75582048,N,Y,29.8629691,-95.2926708
PAST SALE,December-14-2016,Single Family Residential,7617 Gleason Rd,Houston,TX,77016,115000,4,1.5,Scenic Woods,1284,7200,1969,1630,90,,Sold,,,http://www.redfin.com/TX/Houston/7617-Gleason-Rd-77016/home/30084729,HARMLS,83011570,N,Y,29.8637252,-95.2906702
PAST SALE,,Single Family Residential,7700 Navasota St,Houston,TX,77016,,3,2.0,,1346,7990,1967,,,,Sold,,,http://www.redfin.com/TX/Houston/7700-Navasota-St-77016/home/30084715,HARMLS,,N,Y,29.8642634,-95.2896087
PAST SALE,June-22-2018,Vacant Land,8412 Lanewood Dr,Houston,TX,77016,24000,,,Laura Koppe Place,,8400,,1075,,,Sold,,,http://www.redfin.com/TX/Houston/8412-Lanewood-Dr-77016/home/103440401,HARMLS,6003536,N,Y,29.8370411,-95.3069668
PAST SALE,March-5-2018,Single Family Residential,7302 Los Angeles St,Houston,TX,77016,115000,4,2.0,Bonita Gardens,1610,23600,1987,1184,71,,Sold,,,http://www.redfin.com/TX/Houston/7302-Los-Angeles-St-77016/home/29929447,HARMLS,45919264,N,Y,29.8260406,-95.3272023
PAST SALE,January-29-2018,Single Family Residential,10642 Jordan Hts,Houston,TX,77016,190112,3,2.0,Leland Woods,1651,,,1219,115,300,Sold,,,http://www.redfin.com/TX/Houston/10642-Jordan-Heights-Dr-77016/home/29614095,HARMLS,85395217,N,Y,29.8692407,-95.2947531
PAST SALE,March-7-2018,Single Family Residential,10302 Hollyglen Dr,Houston,TX,77016,85000,3,1.0,Fontaine Place Sec 06,1346,7950,1950,1182,63,,Sold,,,http://www.redfin.com/TX/Houston/10302-Hollyglen-Dr-77016/home/30110780,HARMLS,36096206,N,Y,29.8609796,-95.3029607
PAST SALE,October-11-2017,Single Family Residential,10527 Royal Oaks Dr,Houston,TX,77016,124900,3,1.0,Fontaine Place Sec 07,1278,6678,1962,1329,98,,Sold,,,http://www.redfin.com/TX/Houston/10527-Royal-Oaks-Dr-77016/home/30126030,HARMLS,8655974,N,Y,29.8654547,-95.302634
PAST SALE,November-9-2017,Single Family Residential,7802 Sandra St,Houston,TX,77016,149900,3,2.5,Triangle Gardens,2131,7309,2010,1300,70,,Sold,,,http://www.redfin.com/TX/Houston/7802-Sandra-St-77016/home/29979557,HARMLS,83783156,N,Y,29.8312491,-95.3137017
PAST SALE,March-24-2017,Single Family Residential,5814 Bretshire,Houston,TX,77016,50000,3,1.0,Fontaine Place,1236,11423,1961,1530,40,,Sold,,,http://www.redfin.com/TX/Houston/5814-Bretshire-Dr-77016/home/30072700,HARMLS,88625351,N,Y,29.8598005,-95.3065136
PAST SALE,,Single Family Residential,5913 Pate Rd,Houston,TX,77016,,4,2.0,,2450,18000,1950,,,,Sold,,,http://www.redfin.com/TX/Houston/5913-Pate-Rd-77016/home/30019862,HARMLS,,N,Y,29.8554239,-95.3116799
PAST SALE,May-25-2018,Single Family Residential,7410 Pickett Orchard Dr,Houston,TX,77016,179500,3,2.5,Leland Woods Sec 02,1906,5031,2017,1103,94,23,Sold,,,http://www.redfin.com/TX/Houston/7410-Pickett-Orchard-Dr-77016/home/29614056,HARMLS,89072843,N,Y,29.8690513,-95.2938548
PAST SALE,November-5-2017,Single Family Residential,4454 Tampico St,Houston,TX,77016,44500,2,1.0,Hiller Heights,1284,4577,1950,1304,35,,Sold,,,http://www.redfin.com/TX/Houston/4454-Tampico-St-77016/home/30045750,HARMLS,79034889,N,Y,29.831206,-95.3237502
PAST SALE,December-18-2017,Single Family Residential,7425 Parker Rd,Houston,TX,77016,106000,3,1.5,Scenic Woods,1604,7200,1955,1261,66,,Sold,,,http://www.redfin.com/TX/Houston/7425-Parker-Rd-77016/home/30085076,HARMLS,43133367,N,Y,29.8599691,-95.2944265
PAST SALE,November-1-2016,Single Family Residential,7309 Boggess Rd,Houston,TX,77016,65000,3,1.0,Scenic Woods,1018,7200,1964,1673,64,,Sold,,,http://www.redfin.com/TX/Houston/7309-Boggess-Rd-77016/home/30085247,HARMLS,13769484,N,Y,29.8610757,-95.2960597
PAST SALE,April-30-2018,Single Family Residential,6403 Mardale Dr,Houston,TX,77016,120000,3,1.0,Northwood Manor Sec 07,,5500,1973,1128,,,Sold,,,http://www.redfin.com/TX/Houston/6403-Mardale-Dr-77016/home/30265931,HARMLS,22359886,N,Y,29.8765213,-95.2941407
PAST SALE,March-6-2018,Single Family Residential,7406 Pickett Orchard Dr,Houston,TX,77016,172000,3,2.5,Leland Woods,1866,4892,2017,1183,92,275,Sold,,,http://www.redfin.com/TX/Houston/7406-Pickett-Orchard-Dr-77016/home/29614050,HARMLS,68724989,N,Y,29.8689997,-95.2940182
PAST SALE,October-14-2016,Single Family Residential,7241 Rhobell St,Houston,TX,77016,63900,3,1.0,Scenic Woods,892,7198,1950,1691,72,,Sold,,,http://www.redfin.com/TX/Houston/7241-Rhobell-St-77016/home/30085786,HARMLS,91087534,N,Y,29.856766,-95.2967538
PAST SALE,September-29-2017,Single Family Residential,6326 Mardale Dr,Houston,TX,77016,125000,3,1.0,Northwood Manor Sec 07,1171,6270,1970,1341,107,,Sold,,,http://www.redfin.com/TX/Houston/6326-Mardale-Dr-77016/home/30265963,HARMLS,92584092,N,Y,29.8760293,-95.2946102
PAST SALE,August-18-2017,Single Family Residential,7312 Bretshire Dr,Houston,TX,77016,139995,3,1.5,Scenic Woods Prcl R/p,1442,37336,1950,1383,97,,Sold,,,http://www.redfin.com/TX/Houston/7312-Bretshire-Dr-77016/home/30085527,HARMLS,5105788,N,Y,29.8543499,-95.2963047
PAST SALE,April-10-2017,Single Family Residential,7309 Sayers St,Houston,TX,77016,78995,3,2.0,Bennington Place,1400,7150,2016,1513,56,,Sold,,,http://www.redfin.com/TX/Houston/7309-Sayers-St-77016/home/29977803,HARMLS,28093272,N,Y,29.8264379,-95.3324522
PAST SALE,September-20-2016,Single Family Residential,6215 Antha St,Houston,TX,77016,115000,3,1.0,Tidwell Timbers,1236,5775,1964,1715,93,,Sold,,,http://www.redfin.com/TX/Houston/6215-Antha-St-77016/home/30165010,HARMLS,40243188,N,Y,29.8495229,-95.3076571
PAST SALE,August-12-2020,Single Family Residential,6909 Bonita St,Houston,TX,77016,182500,3,2.0,Trinity Gardens,1426,4079,2020,293,128,,Sold,,,http://www.redfin.com/TX/Houston/6909-Bonita-St-77016/home/172370814,HARMLS,15060207,N,Y,29.8223019,-95.323774
PAST SALE,August-14-2020,Single Family Residential,6907 Bonita St,Houston,TX,77016,182500,3,2.0,Trinity Gardens,1426,4079,2020,291,128,,Sold,,,http://www.redfin.com/TX/Houston/6907-Bonita-St-77016/home/170261816,HARMLS,62928088,N,Y,29.822605,-95.324024
PAST SALE,February-5-2020,Single Family Residential,6905 Bonita St,Houston,TX,77016,175000,4,2.0,Trinity Gardens,1426,2652,2019,482,123,,Sold,,,http://www.redfin.com/TX/Houston/6905-Bonita-St-77016/home/170261815,HARMLS,84753219,N,Y,29.8225282,-95.3239777
PAST SALE,August-20-2018,Single Family Residential,7950 Sayers St,Houston,TX,77016,125000,3,2.0,Weaver Place,1162,5000,2006,1016,108,,Sold,,,http://www.redfin.com/TX/Houston/7950-Sayers-St-77016/home/29788741,HARMLS,46317926,N,Y,29.8330914,-95.3295514
PAST SALE,October-16-2018,Multi-Family (2-4 Unit),4417 Bennington St,Houston,TX,77016,152000,0,,Trinity Gardens,1246,16800,1960,959,122,,Sold,,,http://www.redfin.com/TX/Houston/4417-Bennington-St-77016/home/29940954,HARMLS,43645326,N,Y,29.822737,-95.3248865
PAST SALE,August-31-2018,Single Family Residential,8706 Peachtree St,Houston,TX,77016,155000,3,2.0,Trinity Gardens Sec 03,1474,12000,2010,1005,105,,Sold,,,http://www.redfin.com/TX/Houston/8706-Peachtree-St-77016/home/29942977,HARMLS,28558036,N,Y,29.8395347,-95.3150496
PAST SALE,December-16-2018,Single Family Residential,8303 Sandra St,Houston,TX,77016,39900,2,1.0,Trinity Gardens Sec 04,1107,7440,1940,898,36,,Sold,,,http://www.redfin.com/TX/Houston/8303-Sandra-St-77016/home/29942988,HARMLS,81960737,N,Y,29.8359128,-95.3143144
PAST SALE,September-21-2018,Single Family Residential,8723 Autumn Ln,Houston,TX,77016,105000,3,2.0,Autumn Place Ext,916,5005,1940,984,115,,Sold,,,http://www.redfin.com/TX/Houston/8723-Autumn-Ln-77016/home/29943349,HARMLS,29789185,N,Y,29.839899,-95.3228107
PAST SALE,July-10-2020,Single Family Residential,8516 Lavender St,Houston,TX,77016,109000,3,2.0,Autumn Place,1330,18420,1960,326,82,,Sold,,,http://www.redfin.com/TX/Houston/8516-Lavender-St-77016/home/29943387,HARMLS,70008205,N,Y,29.8377976,-95.3212584
PAST SALE,October-7-2019,Single Family Residential,8302 Autumn Ln,Houston,TX,77016,178000,3,2.0,Autumn Place,,8945,,603,,,Sold,,,http://www.redfin.com/TX/Houston/8302-Autumn-Ln-77016/home/29943425,HARMLS,71099649,N,Y,29.835945,-95.322237
PAST SALE,June-6-2019,Vacant Land,8415 Allwood St,Houston,TX,77016,65000,,,Shadydale,,17700,,726,,,Sold,,,http://www.redfin.com/TX/Houston/8415-Allwood-St-77016/home/29962999,HARMLS,23549355,N,Y,29.8373029,-95.3111286
PAST SALE,July-23-2020,Single Family Residential,9108 Dandy St,Houston,TX,77016,165000,4,2.0,North Shadydale,1368,14400,1952,313,121,,Sold,,,http://www.redfin.com/TX/Houston/9108-Dandy-St-77016/home/29971476,HARMLS,59259738,N,Y,29.8440015,-95.3115778
PAST SALE,July-12-2019,Single Family Residential,9014 Bertwood St,Houston,TX,77016,140000,3,1.0,North Shadydale,1480,7380,1978,690,95,,Sold,,,http://www.redfin.com/TX/Houston/9014-Bertwood-St-77016/home/29971792,HARMLS,27644269,N,Y,29.8434817,-95.309648
PAST SALE,September-9-2020,Single Family Residential,9213 Dandy St,Houston,TX,77016,165000,3,2.0,North Shadydale,1497,7200,1946,265,110,,Sold,,,http://www.redfin.com/TX/Houston/9213-Dandy-St-77016/home/29971826,HARMLS,51971113,N,Y,29.8456029,-95.3121088
PAST SALE,November-30-2018,Single Family Residential,7513 Hirsch Rd,Houston,TX,77016,110000,3,1.0,Cranford Place J T Harrell,1134,4391,1940,914,97,,Sold,,,http://www.redfin.com/TX/Houston/7513-Hirsch-Rd-77016/home/29983482,HARMLS,86917555,N,Y,29.8280121,-95.3291837
PAST SALE,June-8-2020,Multi-Family (2-4 Unit),8902 Lockwood Dr,Houston,TX,77016,239900,0,3.0,Buckingham Place Sec 01,2104,11210,1950,358,114,,Sold,,,http://www.redfin.com/TX/Houston/8902-Lockwood-Dr-77016/home/29997078,HARMLS,66787198,N,Y,29.8419581,-95.3186849
PAST SALE,March-29-2019,Single Family Residential,4010 Bennington St,Houston,TX,77016,50000,2,1.0,Lumber Lane,832,5000,1940,795,60,,Sold,,,http://www.redfin.com/TX/Houston/4010-Bennington-St-77016/home/30035499,HARMLS,56817128,N,Y,29.821952,-95.3307771
PAST SALE,December-31-2018,Single Family Residential,3927 Lynnfield St,Houston,TX,77016,124900,3,2.0,Lumber Lane Sec 02,936,5000,1940,883,133,,Sold,,,http://www.redfin.com/TX/Houston/3927-Lynnfield-St-77016/home/30124598,HARMLS,89821282,N,Y,29.8209348,-95.3302868
PAST SALE,August-6-2018,Single Family Residential,7729 Wileyvale Rd,Houston,TX,77016,135000,4,2.0,Trinity Gardens Sec 03,,12060,2009,1030,,,Sold,,,http://www.redfin.com/TX/Houston/7729-Wileyvale-Rd-77016/home/40214097,HARMLS,10276912,N,Y,29.8305785,-95.3169285
PAST SALE,June-11-2019,Multi-Family (2-4 Unit),6709 Sayers St,Houston,TX,77016,169000,0,,Westcott Gardens,1305,8379,1950,721,130,,Sold,,,http://www.redfin.com/TX/Houston/6709-Sayers-St-77016/home/29980165,HARMLS,36335252,N,Y,29.8210681,-95.3325748
PAST SALE,October-5-2020,Single Family Residential,8515 Lanewood Dr,Houston,TX,77016,240000,3,2.0,Laura Koppe Place,2150,8400,2020,239,112,,Sold,,,http://www.redfin.com/TX/Houston/8515-Lanewood-Dr-77016/home/144625058,HARMLS,57792965,N,Y,29.839164,-95.305629
PAST SALE,April-17-2020,Single Family Residential,9130 Firnat St,Houston,TX,77016,75000,2,1.0,Barclay Place Sec 02,720,9750,1955,410,104,,Sold,,,http://www.redfin.com/TX/Houston/9130-Firnat-St-77016/home/29977154,HARMLS,3062879,N,Y,29.8452073,-95.2994897
PAST SALE,July-29-2020,Single Family Residential,9403 Spaulding St,Houston,TX,77016,234900,4,2.0,Barclay Place Sec 01,2142,10725,1984,307,110,,Sold,,,http://www.redfin.com/TX/Houston/9403-Spaulding-St-77016/home/29977392,HARMLS,95592933,N,Y,29.8471808,-95.3036753
PAST SALE,June-18-2019,Single Family Residential,9016 Spaulding St,Houston,TX,77016,35000,2,1.0,Barclay Place Sec 01,1221,10660,1946,714,29,,Sold,,,http://www.redfin.com/TX/Houston/9016-Spaulding-St-77016/home/29977533,HARMLS,27618523,N,Y,29.8435758,-95.3030832
PAST SALE,January-15-2020,Single Family Residential,8605 Lanewood Dr,Houston,TX,77016,189500,4,2.0,Laura Koppe Place,1713,8400,2019,503,111,,Sold,,,http://www.redfin.com/TX/Houston/8605-Lanewood-Dr-77016/home/34286196,HARMLS,79852986,N,Y,29.8394084,-95.3053748
PAST SALE,October-16-2020,Single Family Residential,7635 Aiiden Ridge Ln,Houston,TX,77016,214560,3,2.5,Towne Park Village,1659,,2020,228,129,25,Sold,,,http://www.redfin.com/TX/Houston/7635-Aiiden-Ridge-LN-77016/home/172410266,HARMLS,84224189,N,Y,29.869797,-95.289757
PAST SALE,October-23-2020,Single Family Residential,10727 Nyla Spring St,Houston,TX,77016,224336,4,3.0,Towne Park Village,1871,55,2020,221,120,25,Sold,,,http://www.redfin.com/TX/Houston/10727-Spring-St-77007/home/172039560,HARMLS,13682757,N,Y,29.869558,-95.292664
PAST SALE,April-30-2020,Single Family Residential,7629 Tully St,Houston,TX,77016,198000,3,2.0,Scenic Woods,1814,7280,2019,397,109,,Sold,,,http://www.redfin.com/TX/Houston/7629-Tully-St-77016/home/168352751,HARMLS,29550533,N,Y,29.8667278,-95.2902109
PAST SALE,September-30-2020,Single Family Residential,7643 Aiiden Ridge Ln,Houston,TX,77016,202328,3,2.0,Towne Park Village,1619,51,2020,244,125,25,Sold,,,http://www.redfin.com/TX/Houston/Unknown-77016/home/173667634,HARMLS,16488205,N,Y,29.869558,-95.292664
PAST SALE,June-10-2019,Single Family Residential,7414 Woodson Valley Ct,Houston,TX,77016,195000,4,2.5,Leland Woods Sec 01,2513,5656,2014,722,78,25,Sold,,,http://www.redfin.com/TX/Houston/7414-Woodson-Valley-Ct-77016/home/52553388,HARMLS,57089977,N,Y,29.8698453,-95.2931607
PAST SALE,May-31-2019,Single Family Residential,7442 Ida Wells Forest Dr,Houston,TX,77016,174900,3,2.5,Leland Woods Sec 1,1564,5825,2006,732,112,21,Sold,,,http://www.redfin.com/TX/Houston/7442-Ida-Wells-Forest-Dr-77016/home/29412281,HARMLS,25063137,N,Y,29.8707721,-95.2936507
PAST SALE,October-9-2018,Single Family Residential,10742 Woodson Valley Dr,Houston,TX,77016,145000,3,2.0,Leland Woods Sec 01,1540,5500,2006,966,94,25,Sold,,,http://www.redfin.com/TX/Houston/10742-Woodson-Valley-Dr-77016/home/29412290,HARMLS,89013601,N,Y,29.8709732,-95.2925687
PAST SALE,March-27-2020,Single Family Residential,10718 Woodson Valley Dr,Houston,TX,77016,179900,3,2.5,Leland Woods Sec 01,2030,5500,2007,431,89,25,Sold,,,http://www.redfin.com/TX/Houston/10718-Woodson-Valley-Dr-77016/home/29412292,HARMLS,29956942,N,Y,29.8701386,-95.2925891
PAST SALE,August-30-2019,Single Family Residential,7414 Wheatley Gardens Dr,Houston,TX,77016,220222,3,2.5,Leland Woods,1880,5026,2019,641,117,25,Sold,,,http://www.redfin.com/TX/Houston/7414-Wheatley-Gardens-Dr-77016/home/29613924,HARMLS,24707227,N,Y,29.8675215,-95.294633
PAST SALE,September-30-2019,Single Family Residential,7426 Wheatley Gardens Dr,Houston,TX,77016,216416,3,2.5,Leland Woods,1880,5030,2019,610,115,25,Sold,,,http://www.redfin.com/TX/Houston/7426-Wheatley-Gardens-Dr-77016/home/29613929,HARMLS,35143715,N,Y,29.867839,-95.2941886
PAST SALE,October-4-2019,Single Family Residential,7434 Wheatley Gardens Dr,Houston,TX,77016,216889,3,2.5,Leland Woods,1864,5032,2019,606,116,25,Sold,,,http://www.redfin.com/TX/Houston/7434-Wheatley-Gardens-Dr-77016/home/29613931,HARMLS,32339090,N,Y,29.8676272,-95.2939446
PAST SALE,October-11-2019,Single Family Residential,7415 Wheatley Gardens Dr,Houston,TX,77016,194018,3,2.0,Leland Woods Sec 02,1619,5500,2019,599,120,25,Sold,,,http://www.redfin.com/TX/Houston/7415-Wheatley-Gardens-Dr-77016/home/29613999,HARMLS,9622202,N,Y,29.8679569,-95.2946594
PAST SALE,August-30-2019,Single Family Residential,7419 Wheatley Gardens Dr,Houston,TX,77016,198142,3,2.0,Leland Woods Sec 02,1651,5500,2019,641,120,25,Sold,,,http://www.redfin.com/TX/Houston/7419-Wheatley-Gardens-Dr-77016/home/29614001,HARMLS,18589217,N,Y,29.8679077,-95.2944281
PAST SALE,September-13-2019,Single Family Residential,7410 Senfronia Hills Dr,Houston,TX,77016,189625,3,2.0,Leland Woods Sec 02,1520,5500,2019,627,125,25,Sold,,,http://www.redfin.com/TX/Houston/7410-Senfronia-Hills-Dr-77016/home/29614006,HARMLS,56329166,N,Y,29.86826,-95.294503
PAST SALE,December-31-2018,Single Family Residential,10610 Cheeves Dr,Houston,TX,77016,195476,3,2.0,Leland Woods,1520,8280,2018,883,129,25,Sold,,,http://www.redfin.com/TX/Houston/10610-Cheeves-Dr-77016/home/29614030,HARMLS,98996243,N,Y,29.867443,-95.292646
PAST SALE,August-31-2018,Single Family Residential,7423 Senfronia Hills Dr,Houston,TX,77016,190083,3,2.0,Leland Woods,1520,5301,2018,1005,125,25,Sold,,,http://www.redfin.com/TX/Houston/7423-Senfronia-Hills-Dr-77016/home/29614082,HARMLS,29563636,N,Y,29.868706,-95.2940638
PAST SALE,July-26-2018,Single Family Residential,10627 Jordan Heights Dr,Houston,TX,77016,189071,3,2.0,Leland Woods,1520,5717,2018,1041,124,25,Sold,,,http://www.redfin.com/TX/Houston/10627-Jordan-Heights-Dr-77016/home/29614086,HARMLS,44545425,N,Y,29.8686113,-95.295263
PAST SALE,October-5-2018,Single Family Residential,10631 Jordan Heights Dr,Houston,TX,77016,201753,4,2.0,Leland Woods,1761,5692,2018,970,115,25,Sold,,,http://www.redfin.com/TX/Houston/10631-Jordan-Heights-Dr-77016/home/29614087,HARMLS,37212962,N,Y,29.868749,-95.2952619
PAST SALE,September-28-2018,Single Family Residential,7427 Senfronia Hills Dr,Houston,TX,77016,181917,3,2.0,Leland Woods,1421,5301,2018,977,128,25,Sold,,,http://www.redfin.com/TX/Houston/7427-Senfronia-Hills-Dr-77016/home/29614059,HARMLS,9225337,N,Y,29.868706,-95.293912
PAST SALE,December-21-2018,Single Family Residential,7439 Senfronia Hills Dr,Houston,TX,77016,175181,3,2.0,Leland Woods,1421,5301,2018,893,123,25,Sold,,,http://www.redfin.com/TX/Houston/7439-Senfronia-Hills-Dr-77016/home/29614061,HARMLS,46356615,N,Y,29.8687077,-95.2934558
PAST SALE,September-27-2018,Single Family Residential,7435 Senfronia Hills Dr,Houston,TX,77016,180165,3,2.0,Leland Woods,1520,5301,2018,978,119,25,Sold,,,http://www.redfin.com/TX/Houston/7435-Senfronia-Hills-Dr-77016/home/29614063,HARMLS,95084605,N,Y,29.868707,-95.293608
PAST SALE,October-31-2018,Single Family Residential,7447 Senfronia Hills Dr,Houston,TX,77016,189395,3,2.0,Leland Woods,1520,5301,2018,944,125,25,Sold,,,http://www.redfin.com/TX/Houston/7447-Senfronia-Hills-Dr-77016/home/29614065,HARMLS,18588917,N,Y,29.8687085,-95.2931517
PAST SALE,December-31-2019,Single Family Residential,7443 Senfronia Hills Dr,Houston,TX,77016,217916,3,2.5,Leland Woods Sec 02,1880,5301,2019,518,116,25,Sold,,,http://www.redfin.com/TX/Houston/7443-Senfronia-Hills-Dr-77016/home/29614066,HARMLS,10313852,N,Y,29.868708,-95.293304
PAST SALE,October-15-2018,Single Family Residential,10619 Jordan Heights Dr,Houston,TX,77016,191583,3,2.0,Leland Woods,1619,5766,2018,960,118,25,Sold,,,http://www.redfin.com/TX/Houston/10619-Jordan-Heights-Dr-77016/home/29614106,HARMLS,14632061,N,Y,29.8683363,-95.2952645
PAST SALE,May-24-2019,Single Family Residential,7430 Senfronia Hills Dr,Houston,TX,77016,200153,3,2.0,Leland Woods,1619,5500,2019,739,124,25,Sold,,,http://www.redfin.com/TX/Houston/7430-Senfronia-Hills-Dr-77016/home/29614159,HARMLS,72038788,N,Y,29.868262,-95.293714
PAST SALE,November-25-2019,Single Family Residential,10614 Woodson Valley Dr,Houston,TX,77016,189766,3,2.0,Leland Woods Sec 02,1421,5500,2019,554,134,25,Sold,,,http://www.redfin.com/TX/Houston/10614-Woodson-Valley-Dr-77016/home/29614161,HARMLS,10319588,N,Y,29.868873,-95.292571
PAST SALE,August-30-2019,Single Family Residential,10606 Woodson Valley Dr,Houston,TX,77016,219789,3,2.5,Leland Woods,1864,5180,2019,641,118,25,Sold,,,http://www.redfin.com/TX/Houston/10606-Woodson-Valley-Dr-77016/home/29614167,HARMLS,30798757,N,Y,29.8686,-95.292561
PAST SALE,June-24-2019,Single Family Residential,7438 Senfronia Hills Dr,Houston,TX,77016,208211,4,2.0,Leland Woods,1761,5500,2019,708,118,25,Sold,,,http://www.redfin.com/TX/Houston/7438-Senfronia-Hills-Dr-77016/home/29614153,HARMLS,84770609,N,Y,29.868263,-95.293398
PAST SALE,April-30-2019,Single Family Residential,7434 Senfronia Hills Dr,Houston,TX,77016,199032,3,2.0,Leland Woods,1650,5500,2019,763,121,25,Sold,,,http://www.redfin.com/TX/Houston/7434-Senfronia-Hills-Dr-77016/home/29614154,HARMLS,80474730,N,Y,29.8682624,-95.2935562
PAST SALE,June-28-2019,Single Family Residential,7446 Senfronia Hills Dr,Houston,TX,77016,189983,3,2.0,Leland Woods,1421,5500,2019,704,134,25,Sold,,,http://www.redfin.com/TX/Houston/7446-Senfronia-Hills-Dr-77016/home/29614155,HARMLS,52046114,N,Y,29.868264,-95.293083
PAST SALE,October-25-2018,Single Family Residential,7610 Tully St,Houston,TX,77016,115000,5,3.5,Scenic Woods,2132,10729,2015,950,54,,Sold,,,http://www.redfin.com/TX/Houston/7610-Tully-St-77016/home/30084326,HARMLS,2608505,N,Y,29.8661107,-95.2907518
PAST SALE,September-11-2019,Single Family Residential,10502 Woodwick St,Houston,TX,77016,159900,3,2.0,Scenic Woods,1258,8982,1968,629,127,,Sold,,,http://www.redfin.com/TX/Houston/10502-Woodwick-St-77016/home/30084427,HARMLS,74332092,N,Y,29.8644368,-95.2875265
PAST SALE,February-14-2020,Single Family Residential,7605 Ferol Rd,Houston,TX,77016,135000,3,1.5,Scenic Woods,1022,9794,1969,473,132,,Sold,,,http://www.redfin.com/TX/Houston/7605-Ferol-Rd-77016/home/30084483,HARMLS,14067352,N,Y,29.8682246,-95.2914255
PAST SALE,August-31-2018,Single Family Residential,10525 Kelburn Dr,Houston,TX,77016,155900,3,2.0,Scenic Woods,1488,7540,2017,1005,105,,Sold,,,http://www.redfin.com/TX/Houston/10525-Kelburn-Dr-77016/home/30084560,HARMLS,59926864,N,Y,29.8655676,-95.2998163
PAST SALE,July-29-2019,Single Family Residential,7222 Marilyn Ln,Houston,TX,77016,135000,4,2.0,Scenic Woods,1257,7260,1960,673,107,,Sold,,,http://www.redfin.com/TX/Houston/7222-Marilyn-Ln-77016/home/30084605,HARMLS,44310297,N,Y,29.8661222,-95.2983463
PAST SALE,May-29-2020,Single Family Residential,7309 Gleason Rd,Houston,TX,77016,135000,3,1.5,Scenic Woods,967,8184,1960,368,140,,Sold,,,http://www.redfin.com/TX/Houston/7309-Gleason-Rd-77016/home/30084620,HARMLS,86167100,N,Y,29.8640784,-95.2976113
PAST SALE,October-4-2018,Single Family Residential,7343 Marilyn Ln,Houston,TX,77016,130000,3,1.5,Scenic Woods,1262,10240,1960,971,103,,Sold,,,http://www.redfin.com/TX/Houston/7343-Marilyn-Ln-77016/home/30084536,HARMLS,60020651,N,Y,29.8658999,-95.2960189
PAST SALE,February-25-2019,Single Family Residential,7449 Gleason Rd,Houston,TX,77016,90000,3,1.5,Scenic Woods,1124,8100,1961,827,80,,Sold,,,http://www.redfin.com/TX/Houston/7449-Gleason-Rd-77016/home/30084871,HARMLS,6840189,N,Y,29.8639633,-95.2937323
PAST SALE,November-6-2020,Single Family Residential,7417 Gleason Rd,Houston,TX,77016,155000,3,1.5,Scenic Woods,1217,8100,1960,207,127,,Sold,,,http://www.redfin.com/TX/Houston/7417-Gleason-Rd-77016/home/30084879,HARMLS,96691380,N,Y,29.8640396,-95.2952022
PAST SALE,May-9-2019,Single Family Residential,6607 Leedale St,Houston,TX,77016,125000,3,1.5,Northwood Manor Sec 06,1006,7496,1972,754,124,,Sold,,,http://www.redfin.com/TX/Houston/6607-Leedale-St-77016/home/30245727,HARMLS,37224634,N,Y,29.8757751,-95.2902619
PAST SALE,October-25-2019,Single Family Residential,6322 Tautenhahn Rd,Houston,TX,77016,134999,3,2.0,Northwood Manor Sec 07,1161,8160,1972,585,116,,Sold,,,http://www.redfin.com/TX/Houston/6322-Tautenhahn-Rd-77016/home/30265814,HARMLS,28249218,N,Y,29.8729635,-95.2952022
PAST SALE,April-15-2019,Single Family Residential,6431 Harcourt Dr,Houston,TX,77016,124882,3,1.5,Northwood Manor Sec 07,1266,6837,1972,778,99,,Sold,,,http://www.redfin.com/TX/Houston/6431-Harcourt-Dr-77016/home/30265910,HARMLS,13580844,N,Y,29.8749397,-95.2931199
PAST SALE,November-2-2020,Single Family Residential,10930 Cheeves Dr,Houston,TX,77016,149900,3,1.5,Northwood Manor Sec 07,1018,7224,1972,211,147,,Sold,,,http://www.redfin.com/TX/Houston/10930-Cheeves-Dr-77016/home/30265972,HARMLS,34654834,N,Y,29.874552,-95.2926708
PAST SALE,May-30-2019,Single Family Residential,6331 Leedale St,Houston,TX,77016,114900,3,1.0,Northwood Manor,943,6600,1970,733,122,,Sold,,,http://www.redfin.com/TX/Houston/6331-Leedale-St-77016/home/30265980,HARMLS,64585822,N,Y,29.8757437,-95.2944265
PAST SALE,August-23-2019,Single Family Residential,7458 Ida Wells Forest Dr,Houston,TX,77016,212000,4,2.5,Leland Woods Sec 01,2608,5931,2012,648,81,25,Sold,,,http://www.redfin.com/TX/Houston/7458-Ida-Wells-Forest-Dr-77016/home/45114664,HARMLS,12272305,N,Y,29.8707532,-95.2929974
PAST SALE,September-11-2019,Single Family Residential,7634 Cabot St,Houston,TX,77016,126000,3,2.0,Scenic Woods,1816,8640,1960,629,69,,Sold,,,http://www.redfin.com/TX/Houston/7634-Cabot-St-77016/home/30083545,HARMLS,60645336,N,Y,29.8546547,-95.2898128
PAST SALE,,Single Family Residential,7726 Bigwood St,Houston,TX,77016,80000,3,2.0,,1345,7440,2016,,59,,,,,http://www.redfin.com/TX/Houston/7726-Bigwood-St-77016/home/30083864,,,N,Y,29.8562943,-95.2882614
PAST SALE,April-20-2020,Single Family Residential,9906 Cheeves Dr,Houston,TX,77016,85000,3,1.0,Scenic Woods,1225,9300,1950,407,69,,Sold,,,http://www.redfin.com/TX/Houston/9906-Cheeves-Dr-77016/home/30084079,HARMLS,54599120,N,Y,29.8549928,-95.29263
PAST SALE,December-14-2018,Single Family Residential,9815 Rebel Rd,Houston,TX,77016,112500,3,1.0,Scenic Woods,898,7440,1960,900,125,,Sold,,,http://www.redfin.com/TX/Houston/9815-Rebel-Rd-77016/home/30084066,HARMLS,5300726,N,Y,29.8539453,-95.2917725
PAST SALE,August-13-2020,Single Family Residential,10003 Rebel Rd,Houston,TX,77016,145000,3,1.5,Scenic Woods,1056,9052,1962,292,137,,Sold,,,http://www.redfin.com/TX/Houston/10003-Rebel-Rd-77016/home/30084097,HARMLS,10297055,N,Y,29.8566481,-95.2918134
PAST SALE,December-18-2017,Single Family Residential,10126 Cheeves Dr,Houston,TX,77016,99000,4,1.0,Scenic Woods,1418,9516,1960,1261,70,,Sold,,,http://www.redfin.com/TX/Houston/10126-Cheeves-Dr-77016/home/30084142,HARMLS,99776549,N,Y,29.8593649,-95.29263
PAST SALE,September-16-2019,Single Family Residential,7722 Parker Rd,Houston,TX,77016,140000,3,1.5,Scenic Woods,1290,7991,1960,624,109,,Sold,,,http://www.redfin.com/TX/Houston/7722-Parker-Rd-77016/home/30084186,HARMLS,11877078,N,Y,29.8605681,-95.2884655
PAST SALE,September-14-2017,Single Family Residential,7733 Parker Rd,Houston,TX,77016,130000,3,1.5,Scenic Woods,1104,7320,1967,1356,118,,Sold,,,http://www.redfin.com/TX/Houston/7733-Parker-Rd-77016/home/30084212,HARMLS,17137129,N,Y,29.8610517,-95.2879246
PAST SALE,December-10-2018,Single Family Residential,7613 Parker Rd,Houston,TX,77016,119900,3,2.0,Scenic Woods,1688,8356,1967,904,71,,Sold,,,http://www.redfin.com/TX/Houston/7613-Parker-Rd-77016/home/30084243,HARMLS,53584264,N,Y,29.8609898,-95.2914459
PAST SALE,January-17-2019,Single Family Residential,7601 Boggess Rd,Houston,TX,77016,137000,3,1.5,Scenic Woods,1203,8280,1964,866,114,,Sold,,,http://www.redfin.com/TX/Houston/7601-Boggess-Rd-77016/home/30084254,HARMLS,98878741,N,Y,29.8618462,-95.2914459
PAST SALE,November-22-2019,Single Family Residential,7606 Lakewood Dr,Houston,TX,77016,137500,3,2.0,Scenic Woods,1062,7440,1968,557,129,,Sold,,,http://www.redfin.com/TX/Houston/7606-Lakewood-Dr-77016/home/30084667,HARMLS,13437066,N,Y,29.86226,-95.2912418
PAST SALE,February-5-2020,Single Family Residential,10317 Kelburn Dr,Houston,TX,77016,135000,3,1.0,Scenic Woods,1107,7198,1955,482,122,,Sold,,,http://www.redfin.com/TX/Houston/10317-Kelburn-Dr-77016/home/30084889,HARMLS,87961699,N,Y,29.8617615,-95.2997551
PAST SALE,November-16-2018,Single Family Residential,10321 Kelburn Dr,Houston,TX,77016,94500,3,1.0,Scenic Woods,1254,7198,1955,928,75,,Sold,,,http://www.redfin.com/TX/Houston/10321-Kelburn-Dr-77016/home/30084884,HARMLS,90971024,N,Y,29.8619168,-95.2998163
PAST SALE,November-29-2018,Single Family Residential,7329 Yoe St,Houston,TX,77016,117500,3,1.0,Scenic Woods,1058,7200,1960,915,111,,Sold,,,http://www.redfin.com/TX/Houston/7329-Yoe-St-77016/home/30084995,HARMLS,77769059,N,Y,29.8586875,-95.2949164
PAST SALE,August-20-2018,Single Family Residential,7202 Wiley Rd,Houston,TX,77016,118000,4,1.0,Scenic Woods,1246,8236,1952,1016,95,,Sold,,,http://www.redfin.com/TX/Houston/7202-Wiley-Rd-77016/home/30084987,HARMLS,50160253,N,Y,29.8582872,-95.2992855
PAST SALE,December-19-2019,Single Family Residential,7438 Parker Rd,Houston,TX,77016,155000,3,1.0,Scenic Woods,1332,8804,1960,530,116,,Sold,,,http://www.redfin.com/TX/Houston/7438-Parker-Rd-77016/home/30085018,HARMLS,15798215,N,Y,29.8597732,-95.2936915
PAST SALE,November-29-2018,Single Family Residential,7258 Wiley Rd,Houston,TX,77016,89900,3,1.0,Scenic Woods,950,7050,1953,915,95,,Sold,,,http://www.redfin.com/TX/Houston/7258-Wiley-Rd-77016/home/30085036,HARMLS,67963020,N,Y,29.8592417,-95.2968355
PAST SALE,September-16-2020,Single Family Residential,7266 Wiley Rd,Houston,TX,77016,149900,3,1.0,Scenic Woods,1200,7050,1952,258,125,,Sold,,,http://www.redfin.com/TX/Houston/7266-Wiley-Rd-77016/home/30085038,HARMLS,61694747,N,Y,29.85939,-95.2965089
PAST SALE,April-28-2020,Single Family Residential,7421 Parker Rd,Houston,TX,77016,119900,3,1.0,Scenic Woods,1300,7200,1955,399,92,,Sold,,,http://www.redfin.com/TX/Houston/7421-Parker-Rd-77016/home/30085077,HARMLS,43897918,N,Y,29.8599175,-95.2945898
PAST SALE,June-29-2019,Single Family Residential,7217 Wiley Rd,Houston,TX,77016,129990,3,2.0,Scenic Woods,1217,7679,1952,703,107,,Sold,,,http://www.redfin.com/TX/Houston/7217-Wiley-Rd-77016/home/30085140,HARMLS,68609039,N,Y,29.8588076,-95.298673
PAST SALE,July-10-2020,Single Family Residential,7318 Bigwood St,Houston,TX,77016,149900,3,1.0,Scenic Woods,1226,7200,1950,326,122,,Sold,,,http://www.redfin.com/TX/Houston/7318-Bigwood-St-77016/home/30085607,HARMLS,81338413,N,Y,29.8550604,-95.2954472
PAST SALE,October-19-2018,Single Family Residential,7414 Rhobell St,Houston,TX,77016,150000,3,2.0,Scenic Woods,1300,8875,2017,956,115,,Sold,,,http://www.redfin.com/TX/Houston/7414-Rhobell-St-77016/home/30085672,HARMLS,45077954,N,Y,29.8579784,-95.2934874
PAST SALE,October-30-2020,Single Family Residential,7216 Rhobell St,Houston,TX,77016,149900,3,1.0,Scenic Woods,1320,13367,1956,214,114,,Sold,,,http://www.redfin.com/TX/Houston/7216-Rhobell-St-77016/home/30085727,HARMLS,10329977,N,Y,29.8559007,-95.2981013
PAST SALE,February-26-2020,Single Family Residential,7241 Yoe St,Houston,TX,77016,108500,3,1.0,Scenic Woods,910,7991,1956,461,119,,Sold,,,http://www.redfin.com/TX/Houston/7241-Yoe-St-77016/home/30085740,HARMLS,52222867,N,Y,29.8574675,-95.2972438
PAST SALE,June-22-2019,Single Family Residential,7248 Yoe St,Houston,TX,77016,93000,3,1.0,Scenic Woods,1200,7200,1951,710,78,,Sold,,,http://www.redfin.com/TX/Houston/7248-Yoe-St-77016/home/30085762,HARMLS,11668166,N,Y,29.8573101,-95.2966722
PAST SALE,October-15-2019,Single Family Residential,7249 Rhobell St,Houston,TX,77016,114900,3,1.0,Scenic Woods,1092,7200,1950,595,105,,Sold,,,http://www.redfin.com/TX/Houston/7249-Rhobell-St-77016/home/30085784,HARMLS,84143109,N,Y,29.8569593,-95.2964272
PAST SALE,December-27-2018,Single Family Residential,7213 Rhobell St,Houston,TX,77016,149500,3,2.0,Scenic Woods,1800,7198,1954,887,83,,Sold,,,http://www.redfin.com/TX/Houston/7213-Rhobell-St-77016/home/30085794,HARMLS,79927873,N,Y,29.8563563,-95.2979788
PAST SALE,April-29-2020,Single Family Residential,7224 Yoe St,Houston,TX,77016,249050,4,2.5,Scenic Woods,1863,7511,2020,398,134,,Sold,,,http://www.redfin.com/TX/Houston/7224-Yoe-St-77016/home/30085797,HARMLS,32288015,N,Y,29.856813,-95.297689
PAST SALE,December-4-2019,Single Family Residential,7943 Hirsch Rd,Houston,TX,77016,140000,3,2.0,Weaver Place 3rd Sec,1125,5000,2013,545,124,,Sold,,,http://www.redfin.com/TX/Houston/7943-Hirsch-Rd-77016/home/29788732,HARMLS,85360268,N,Y,29.832824,-95.3291939
PAST SALE,December-4-2018,Single Family Residential,7946 Sayers St,Houston,TX,77016,49500,3,1.0,Weaver Place 3rd Sec,640,5000,1960,910,77,,Sold,,,http://www.redfin.com/TX/Houston/7946-Sayers-St-77016/home/29788740,HARMLS,95723860,N,Y,29.8329094,-95.3295923
PAST SALE,November-25-2019,Single Family Residential,6030 Mount Houston Rd,Houston,TX,77016,158900,3,2.0,W Britton,1980,33890,2006,554,80,,Sold,,,http://www.redfin.com/TX/Houston/6030-E-Mount-Houston-Rd-77016/home/169142962,HARMLS,52585341,N,Y,29.891101,-95.3002105
PAST SALE,August-24-2020,Single Family Residential,5810 Collins Rd,Houston,TX,77016,204000,4,2.5,Mount Houston/edgeworth Place,2125,15000,2004,281,96,,Sold,,,http://www.redfin.com/TX/Houston/5810-Collins-Rd-77016/home/29149843,HARMLS,96769764,N,Y,29.8889053,-95.3039203
PAST SALE,,Single Family Residential,5741 Justin St,Houston,TX,77016,10700,4,1.5,,1154,7250,1950,,9,,,,,http://www.redfin.com/TX/Houston/5741-Justin-St-77016/home/29724845,,,N,Y,29.8903363,-95.3047575
PAST SALE,October-18-2018,Single Family Residential,5809 Sam Houston St,Houston,TX,77016,39900,2,1.0,Mount Houston,784,7500,1950,957,51,,Sold,,,http://www.redfin.com/TX/Houston/5809-Sam-Houston-St-77016/home/29724969,HARMLS,13637447,N,Y,29.88739,-95.3040633
PAST SALE,June-11-2020,Single Family Residential,5530 Van Zandt St,Houston,TX,77016,250000,4,2.0,Timber Acres Sec 01,1100,60750,1939,355,227,,Sold,,,http://www.redfin.com/TX/Houston/5530-Van-Zandt-St-77016/home/29921983,HARMLS,3431195,N,Y,29.8813793,-95.3078613
PAST SALE,December-12-2019,Single Family Residential,5621 Guadalupe St,Houston,TX,77016,184900,3,2.5,Edgeworth Place Sec 01,1560,7320,2019,537,119,,Sold,,,http://www.redfin.com/TX/Houston/5621-Guadalupe-St-77016/home/30021683,HARMLS,50604575,N,Y,29.88378,-95.3064319
PAST SALE,November-2-2020,Single Family Residential,5831 Annunciation St,Houston,TX,77016,129900,3,2.0,Edgeworth Place Sec 01,1775,7320,1970,211,73,,Sold,,,http://www.redfin.com/TX/Houston/5831-Annunciation-St-77016/home/30021711,HARMLS,57236807,N,Y,29.8846153,-95.3030219
PAST SALE,February-8-2019,Single Family Residential,11422 Cheeves Dr,Houston,TX,77016,75000,2,2.0,Northwood Manor Sec 02,1502,6960,1960,844,50,,Sold,,,http://www.redfin.com/TX/Houston/11422-Cheeves-Dr-77016/home/30145424,HARMLS,58686558,N,Y,29.8868975,-95.2916092
PAST SALE,October-12-2018,Single Family Residential,11435 Raincove Dr,Houston,TX,77016,200000,3,1.0,Northwood Manor Sec 02,1856,9745,2017,963,108,,Sold,,,http://www.redfin.com/TX/Houston/11435-Raincove-Dr-77016/home/30145447,HARMLS,88094013,N,Y,29.8866934,-95.2989588
PAST SALE,December-13-2018,Single Family Residential,11407 Raincove Dr,Houston,TX,77016,139000,3,1.0,Northwood Manor Sec 02,1451,6600,1960,901,96,,Sold,,,http://www.redfin.com/TX/Houston/11407-Raincove-Dr-77016/home/30145448,HARMLS,31220488,N,Y,29.8855217,-95.2989588
PAST SALE,November-15-2018,Multi-Family (2-4 Unit),6103 Micollet St,Houston,TX,77016,210000,0,,Northwood Manor Sec 02,2100,13601,2018,929,100,,Sold,,,http://www.redfin.com/TX/Houston/6103-Micollet-St-77016/home/30145473,HARMLS,21984499,N,Y,29.8868769,-95.2988772
PAST SALE,December-13-2019,Single Family Residential,6335 Hartwick Rd,Houston,TX,77016,129553,3,1.0,Northwood Manor Sec 02,975,6180,1960,536,133,,Sold,,,http://www.redfin.com/TX/Houston/6335-Hartwick-Rd-77016/home/30145695,HARMLS,43724518,N,Y,29.8851288,-95.2941407
PAST SALE,March-6-2019,Single Family Residential,6346 Micollet St,Houston,TX,77016,92500,3,1.0,Northwood Manor Sec 02,1260,6600,1960,818,73,,Sold,,,http://www.redfin.com/TX/Houston/6346-Micollet-St-77016/home/30145793,HARMLS,49059254,N,Y,29.8861833,-95.2936915
PAST SALE,July-16-2018,Single Family Residential,6519 Hopper Rd,Houston,TX,77016,108500,4,1.5,Northwood Manor Sec 02,1426,6426,1966,1051,76,,Sold,,,http://www.redfin.com/TX/Houston/6519-Hopper-Rd-77016/home/30145899,HARMLS,94950113,N,Y,29.8794938,-95.2919359
PAST SALE,October-2-2020,Single Family Residential,6530 Heath St,Houston,TX,77016,132000,3,1.5,Northwood Manor Sec 02,964,7198,1966,242,137,,Sold,,,http://www.redfin.com/TX/Houston/6530-Heath-St-77016/home/30145916,HARMLS,47098332,N,Y,29.8800976,-95.2914867
PAST SALE,November-2-2018,Single Family Residential,6415 Hopper Rd,Houston,TX,77016,135000,3,1.5,Northwood Manor,1576,6120,1958,942,86,,Sold,,,http://www.redfin.com/TX/Houston/6415-Hopper-Rd-77016/home/30145955,HARMLS,53659274,N,Y,29.879487,-95.2937936
PAST SALE,August-29-2020,Single Family Residential,6407 Hopper Rd,Houston,TX,77016,147999,3,2.0,Northwood Manor Sec 02,1938,6120,1969,276,76,,Sold,,,http://www.redfin.com/TX/Houston/6407-Hopper-Rd-77016/home/30145957,HARMLS,94770367,N,Y,29.8795391,-95.2941815
PAST SALE,February-11-2019,Single Family Residential,6327 Mohawk St,Houston,TX,77016,119600,3,1.0,Northwood Manor Sec 02,1080,6300,1955,841,111,,Sold,,,http://www.redfin.com/TX/Houston/6327-Mohawk-St-77016/home/30146005,HARMLS,39845410,N,Y,29.8779938,-95.2945081
PAST SALE,April-21-2020,Single Family Residential,11227 Ribstone Dr,Houston,TX,77016,149999,4,2.5,Northwood Manor Sec 02,2219,8400,1960,406,68,,Sold,,,http://www.redfin.com/TX/Houston/11227-Ribstone-Dr-77016/home/30146120,HARMLS,71543029,N,Y,29.882198,-95.2941815
PAST SALE,September-17-2019,Single Family Residential,6407 Heath St,Houston,TX,77016,125000,3,1.5,Northwood Manor Sec 02,997,7500,1958,623,125,,Sold,,,http://www.redfin.com/TX/Houston/6407-Heath-St-77016/home/30146143,HARMLS,19838407,N,Y,29.8804404,-95.2941815
PAST SALE,June-3-2019,Single Family Residential,6210 Annunciation St,Houston,TX,77016,114995,3,1.0,Northwood Manor Sec 02,952,7200,1965,729,121,,Sold,,,http://www.redfin.com/TX/Houston/6210-Annunciation-St-77016/home/30146249,HARMLS,18370886,N,Y,29.8841442,-95.296223
PAST SALE,November-4-2020,Single Family Residential,6506 Mohawk St,Houston,TX,77016,95000,3,1.0,Northwood Manor Sec 02,900,6195,1964,209,106,,Sold,,,http://www.redfin.com/TX/Houston/6506-Mohawk-St-77016/home/30146660,HARMLS,31097985,N,Y,29.8776199,-95.2925891
PAST SALE,July-27-2018,Single Family Residential,11218 Spottswood Dr,Houston,TX,77016,176500,3,3.0,Northwood Manor Sec 05,2203,6600,2013,1040,80,,Sold,,,http://www.redfin.com/TX/Houston/11218-Spottswood-Dr-77016/home/30236429,HARMLS,76609618,N,Y,29.8816333,-95.2897107
PAST SALE,December-16-2019,Single Family Residential,11231 Vailview Dr,Houston,TX,77016,145000,3,2.5,Northwood Manor Sec 06,1454,7254,1960,533,100,,Sold,,,http://www.redfin.com/TX/Houston/11231-Vailview-Dr-77016/home/30245528,HARMLS,25025359,N,Y,29.8822653,-95.2891187
PAST SALE,September-9-2020,Single Family Residential,11126 Tamworth Dr,Houston,TX,77016,150000,3,2.0,Northwood Manor Sec 06,1842,6785,1962,265,81,,Sold,,,http://www.redfin.com/TX/Houston/11126-Tamworth-Dr-77016/home/30245616,HARMLS,10534583,N,Y,29.8802896,-95.2878123
PAST SALE,February-7-2020,Single Family Residential,6819 Hopper Rd,Houston,TX,77016,99900,2,1.0,Northwood Manor,842,7750,1962,480,119,,Sold,,,http://www.redfin.com/TX/Houston/6819-Hopper-Rd-77016/home/30245674,HARMLS,7760465,N,Y,29.8782437,-95.2882614
PAST SALE,May-30-2019,Single Family Residential,6618 Hopper Rd,Houston,TX,77016,140000,3,1.0,Northwood Manor Sec 06,929,6041,1970,733,151,,Sold,,,http://www.redfin.com/TX/Houston/6618-Hopper-Rd-77016/home/30245701,HARMLS,50158030,N,Y,29.878808,-95.290588
PAST SALE,September-28-2018,Single Family Residential,11026 Vailview Dr,Houston,TX,77016,112000,3,1.5,Northwood Manor,1006,6820,1970,977,111,,Sold,,,http://www.redfin.com/TX/Houston/11026-Vailview-Dr-77016/home/30245742,HARMLS,59664597,N,Y,29.876569,-95.2895678
PAST SALE,October-16-2020,Single Family Residential,6715 Rosemary Ln,Houston,TX,77016,104999,2,1.0,Northwood Manor Sec 06,842,4620,1970,228,125,,Sold,,,http://www.redfin.com/TX/Houston/6715-Rosemary-Ln-77016/home/30245744,HARMLS,44351416,N,Y,29.8765452,-95.2890371
PAST SALE,June-21-2019,Single Family Residential,11042 Vailview Dr,Houston,TX,77016,152000,3,2.0,Northwood Manor Sec 06,1460,,2019,711,104,,Sold,,,http://www.redfin.com/TX/Houston/11042-Vailview-Dr-77016/home/30245754,HARMLS,72736939,N,Y,29.8771005,-95.2893271
PAST SALE,July-8-2019,Single Family Residential,11050 Dalebrook Dr,Houston,TX,77016,139500,3,1.0,Northwood Manor Sec 06,1347,5382,1970,694,104,,Sold,,,http://www.redfin.com/TX/Houston/11050-Dalebrook-Dr-77016/home/30245875,HARMLS,24241669,N,Y,29.8772208,-95.2867917
PAST SALE,June-23-2020,Single Family Residential,7014 Haverton Dr,Houston,TX,77016,135000,3,1.5,Northwood Manor Sec 08,1041,6447,1977,343,130,,Sold,,,http://www.redfin.com/TX/Houston/7014-Haverton-Dr-77016/home/30305287,HARMLS,73630170,N,Y,29.878688,-95.2850362
PAST SALE,February-12-2019,Single Family Residential,11115 Burningbush Ln,Houston,TX,77016,114000,3,1.5,Northwood Manor Sec 08,984,6823,1974,840,116,,Sold,,,http://www.redfin.com/TX/Houston/11115-BurningBush-Ln-77016/home/30305315,HARMLS,67083660,N,Y,29.878206,-95.284253
PAST SALE,October-22-2019,Single Family Residential,7022 Heath St,Houston,TX,77016,149999,3,2.5,Northwood Manor Sec 08,2100,6820,1978,588,71,,Sold,,,http://www.redfin.com/TX/Houston/7022-Heath-St-77016/home/30305360,HARMLS,79915217,N,Y,29.8774962,-95.284975
PAST SALE,October-31-2017,Single Family Residential,7119 Pinehook Ln,Houston,TX,77016,126000,3,1.0,Northwood Manor Sec 08,970,7166,1979,1309,130,,Sold,,,http://www.redfin.com/TX/Houston/7119-Pinehook-Ln-77016/home/30305871,HARMLS,57383429,N,Y,29.8801873,-95.2836074
PAST SALE,April-25-2017,Single Family Residential,6419 Mardale Dr,Houston,TX,77016,52000,3,1.5,Northwood Manor Sec 07,990,6270,1973,1498,53,,Sold,,,http://www.redfin.com/TX/Houston/6419-Mardale-Dr-77016/home/30265943,HARMLS,98975794,N,Y,29.8765023,-95.2934874
PAST SALE,June-6-2016,Single Family Residential,5230 Yorkwood St,Houston,TX,77016,95900,3,2.0,Scenic Woods Plaza,1794,8100,1970,1821,53,20,Sold,,,http://www.redfin.com/TX/Houston/5230-Yorkwood-St-77016/home/30230917,HARMLS,37445249,N,Y,29.8698184,-95.3118229
PAST SALE,March-22-2019,Vacant Land,0 Shady Timbers,Houston,TX,77016,34900,,,Shady Timbers,,15467,,802,,,Sold,,,http://www.redfin.com/TX/Houston/Shady-Timbers-Dr-77016/home/171400913,HARMLS,10328134,N,Y,29.851156,-95.310605
